id,clinic_name,address,district,district_id,neighborhood,neighborhood_id,lor_id,latitude,longitude,geometry,operating_hours,contact_info,accessibility_features,data_source,source_osm_id,has_minimum_info
268917040,Tierarztpraxis am Urban,"Baerwaldstraße 69, 10961 Berlin",Friedrichshain-Kreuzberg,11002002,Kreuzberg,0202,re_ortsteil.0202,52.4956842,13.4052329,POINT (13.4052329 52.4956842),"Mo-Sa 10:00-12:00, Mo 17:00-19:00, Tu,We,Fr 16:00-18:00, Th 17:00-19:00",,no,"OSM amenity=veterinary, Berlin",node/268917040,True
299795048,Dr. med. vet. Elke Hartwig,"Straße 48 67, 13125 Berlin",Pankow,11003003,Karow,0305,re_ortsteil.0305,52.6062863,13.4795548,POINT (13.4795548 52.60628629999999),"Mo,Tu,Th,Fr 10:00-12:00, Mo-Fr 15:00-18:00",+49 30 9437820; http://www.tierarztpraxis-hartwig.de/,limited,"OSM amenity=veterinary, Berlin",node/299795048,True
347294456,Tierarztpraxis Dr. Bernhard Sörensen,"Königsberger Straße 36, 12207 Berlin",Steglitz-Zehlendorf,11006006,Lichterfelde,0602,re_ortsteil.0602,52.4297216,13.3201326,POINT (13.3201326 52.4297216),"Mo-Fr 09:00-20:00; Sa, Su 10:00-18:00",+49 30 7738321; https://www.tierarztpraxis-soerensen.de/,yes,"OSM amenity=veterinary, Berlin",node/347294456,True
394867279,Tierarztpraxis Jeanette Koepsel,"Tierarztpraxis Jeanette Koepsel, 27, Wernerwerkdamm, Alt-Siemensstadt, Siemensstadt, Spandau, Berlin, 13629, Deutschland",Spandau,11005005,Siemensstadt,0503,re_ortsteil.0503,52.5351995,13.2705734,POINT (13.2705734 52.5351995),,,,"OSM amenity=veterinary, Berlin",node/394867279,True
411550894,Kleintierarztpraxis Berlin Kaulsdorf,"Planitzstraße 19, 12621 Berlin",Marzahn-Hellersdorf,11010010,Kaulsdorf,1003,re_ortsteil.1003,52.5095114,13.5896353,POINT (13.5896353 52.50951139999999),"Mo-Fr 09:00-19:00 open ""tel. Terminvereinbarung erforderlich"", week 01-53/2 Sa 09:00-12:00 open ""tel. Terminvereinbarung erforderlich""; Dec 23-26 off; Dec 31-Jan 02 off; PH off",+49 30 53018585; info@tierarzt-kaulsdorf.de; https://www.tierarzt-kaulsdorf.de/,,"OSM amenity=veterinary, Berlin",node/411550894,True
581887970,Eva Klein,"Eva Klein, 2, Teutonenstraße, Nikolassee, Steglitz-Zehlendorf, Berlin, Teltow, 14129, Deutschland",Steglitz-Zehlendorf,11006006,Nikolassee,0606,re_ortsteil.0606,52.4288173,13.1935291,POINT (13.1935291 52.4288173),,,,"OSM amenity=veterinary, Berlin",node/581887970,True
603392630,Klein- und Heimtierklinik,"Oertzenweg 19b, 14163 Berlin",Steglitz-Zehlendorf,11006006,Zehlendorf,0604,re_ortsteil.0604,52.4302981,13.2373596,POINT (13.2373596 52.4302981),"Mo-Fr 09:00-13:00,14:00-16:00",https://www.vetmed.fu-berlin.de/einrichtungen/kliniken/we20/index.html,yes,"OSM amenity=veterinary, Berlin",node/603392630,True
702363921,Tierarztpraxis im Frauenviertel - Firchow,"Tierarztpraxis im Frauenviertel - Firchow, Elfriede-Kuhr-Straße, Gartenstadt Rudow – Frauenviertel, Rudow, Neukölln, Berlin, 12355, Deutschland",Neukölln,11008008,Rudow,0804,re_ortsteil.0804,52.4042597,13.5071658,POINT (13.5071658 52.4042597),"Mo-Fr 10:00-12:00, Mo,Tu,Th 17:00-19:00, Fr 16:00-18:00",,limited,"OSM amenity=veterinary, Berlin",node/702363921,True
703135335,Kleintierpraxis Kladow,"Zingerleweg 29, 14089 Berlin",Spandau,11005005,Kladow,0506,re_ortsteil.0506,52.4608878,13.121554,POINT (13.121554 52.4608878),,,,"OSM amenity=veterinary, Berlin",node/703135335,True
978560965,Carsten Schiller,"Schnellerstraße 97, 12439 Berlin",Treptow-Köpenick,11009009,Niederschöneweide,0905,re_ortsteil.0905,52.4531078,13.5245669,POINT (13.5245669 52.4531078),"Mo,Tu 10:00-12:00,15:00-18:00; We 15:00-18:00; Th;Fr 10:00-12:00,15:00-18:00",,"no Eine Stufe, schmale Tür zum Behandlungsraum","OSM amenity=veterinary, Berlin",node/978560965,True
1003123264,Tierarztpraxis Dr. C. Lewandowski und Dr. S. Klug,"Tierarztpraxis Dr. C. Lewandowski und Dr. S. Klug, Buckower Damm, Alt-Buckow, Buckow, Neukölln, Berlin, 12349, Deutschland",Neukölln,11008008,Buckow,0803,re_ortsteil.0803,52.4232758,13.4367554,POINT (13.4367554 52.4232758),,https://www.lewandowski-klug.de/,no,"OSM amenity=veterinary, Berlin",node/1003123264,True
1069431810,Gabriele C. Müller,"Brunowstraße 39, 13507 Berlin",Reinickendorf,11012012,Tegel,1202,re_ortsteil.1202,52.5870846,13.2811455,POINT (13.2811455 52.5870846),"Mo,Tu,Th,Fr 10:00-12:00,17:00-19:00, We 17:00-18:00, Sa 12:00-13:00",+49304343116; https://www.tieraerztin-berlin.com/,limited,"OSM amenity=veterinary, Berlin",node/1069431810,True
1139485719,Tierarztpraxis Feuerbachstraße,"Feuerbachstraße 68, 12163 Berlin",Steglitz-Zehlendorf,11006006,Steglitz,0601,re_ortsteil.0601,52.464411,13.3395319,POINT (13.3395319 52.464411),Mo-Su 09:00-12:00; Mo-Fr 16:00-20:00,+49 30 855 40 50,no,"OSM amenity=veterinary, Berlin",node/1139485719,True
1158920335,Tierarztpraxis Kammbach,"Schweizer Tal 55, 13127 Berlin",Pankow,11003003,Französisch Buchholz,0310,re_ortsteil.0310,52.6074605,13.41982,POINT (13.41982 52.60746049999999),,+4930 47 48 12 20; https://www.tierarztpraxis-kammbach.de/,yes,"OSM amenity=veterinary, Berlin",node/1158920335,True
1169112227,Tierarztpraxis am Velodrom,"Conrad-Blenkle-Straße 4, 10407 Berlin",Pankow,11003003,Prenzlauer Berg,0301,re_ortsteil.0301,52.5281462,13.4501959,POINT (13.4501959 52.5281462),"Mo,Th 12:00-19:00; Tu,Fr 09:00-15:00; We,Sa 09:00-12:00",,limited,"OSM amenity=veterinary, Berlin",node/1169112227,True
1244610778,Dipl.-vet.-med. Jörg Porada,"Dipl.-vet.-med. Jörg Porada, 17, Rungestraße, Luisenstadt, Mitte, Berlin, 10179, Deutschland",Mitte,11001001,Mitte,0101,re_ortsteil.0101,52.5121271,13.4195273,POINT (13.4195273 52.5121271),,,,"OSM amenity=veterinary, Berlin",node/1244610778,True
1247761224,Tierarztpraxis,"Tierarztpraxis, Franz-Jacob-Straße, Fennpfuhl, Lichtenberg, Berlin, 10369, Deutschland",Lichtenberg,11011011,Fennpfuhl,1111,re_ortsteil.1111,52.5290099,13.4684992,POINT (13.4684992 52.5290099),"Mo,Tu,Th,Fr 09:30-11:00,16:30-19:00; We 17:00-20:00; Sa 10:00-12:00",,yes,"OSM amenity=veterinary, Berlin",node/1247761224,True
1309566310,Bella brazil waxing studio,"Bella brazil waxing studio, Wilhelmsruher Damm, Alt-Wittenau, Wittenau, Reinickendorf, Berlin, 13435, Deutschland",Reinickendorf,11012012,Wittenau,1209,re_ortsteil.1209,52.5958722,13.3349653,POINT (13.3349653 52.59587219999999),,,,"OSM amenity=veterinary, Berlin",node/1309566310,True
1352697273,DVM J. Rafael,"DVM J. Rafael, Kuglerstraße, Nordisches Viertel, Prenzlauer Berg, Pankow, Berlin, 10439, Deutschland",Pankow,11003003,Prenzlauer Berg,0301,re_ortsteil.0301,52.5525185,13.4154857,POINT (13.4154857 52.552518499999984),"Mo,We 09:00-12:00,15:00-19:00, Tu,Th 09:00-11:00,14:00-18:00, Fr 09:00-12:00, Sa 09:00-11:00",,limited,"OSM amenity=veterinary, Berlin",node/1352697273,True
1387989062,Dr. König,"Dr. König, Hohenzollerndamm, Schmargendorf, Charlottenburg-Wilmersdorf, Berlin, 14199, Deutschland",Charlottenburg-Wilmersdorf,11004004,Schmargendorf,0403,re_ortsteil.0403,52.4789793,13.2848224,POINT (13.2848224 52.4789793),"Mo-Sa 10:00-12:00; Mo,Tu,Th,Fr 16:00-18:00",,,"OSM amenity=veterinary, Berlin",node/1387989062,True
1431365727,,"Karlsbader Straße, Schmargendorf, Charlottenburg-Wilmersdorf, Berlin, 14193, Deutschland",Charlottenburg-Wilmersdorf,11004004,Schmargendorf,0403,re_ortsteil.0403,52.478761,13.2825498,POINT (13.2825498 52.478761),,,,"OSM amenity=veterinary, Berlin",node/1431365727,False
1444862410,Flidais,"Buschkrugallee 206, 12359 Berlin",Neukölln,11008008,Britz,0802,re_ortsteil.0802,52.4463278,13.4543051,POINT (13.4543051 52.4463278),,https://www.flidais-vet.de,,"OSM amenity=veterinary, Berlin",node/1444862410,True
1464419364,Ullrich Mattke,"Gäblerstraße 5, 13086 Berlin",Pankow,11003003,Weißensee,0302,re_ortsteil.0302,52.5536467,13.4483752,POINT (13.4483752 52.5536467),"Mo-Th 09:00-12:00,15:00-19:00; Sa 10:00-12:00; Fr 09:00-12:00,15:00-17:00",,,"OSM amenity=veterinary, Berlin",node/1464419364,True
1492682203,Bruno-Baum-Straße 75,"Bruno-Baum-Straße 75, 12685 Berlin",Marzahn-Hellersdorf,11010010,Marzahn,1001,re_ortsteil.1001,52.5355029,13.5426037,POINT (13.5426037 52.5355029),,,,"OSM amenity=veterinary, Berlin",node/1492682203,True
1504191018,Tierarztpraxis O.C. Lombardi,"Britzer Damm 13, 12347 Berlin",Neukölln,11008008,Britz,0802,re_ortsteil.0802,52.4617945,13.4350014,POINT (13.4350014 52.46179449999999),"Mo-Sa 10:00-12:00, Mo,Th 16:00-19:00, Tu,Fr 16:00-18:00",+49 30 6251547; https://www.lombardi-berlin.de/,limited,"OSM amenity=veterinary, Berlin",node/1504191018,True
1607627062,Naturheilpraxis Dr. Hanik,"Naturheilpraxis Dr. Hanik, Schulstraße, Grüne Freiheit, Alt-Staaken, Staaken, Spandau, Berlin, 13591, Deutschland",Spandau,11005005,Staaken,0504,re_ortsteil.0504,52.5303117,13.1363236,POINT (13.1363236 52.5303117),,,,"OSM amenity=veterinary, Berlin",node/1607627062,True
1766858344,Tierarztpraxis Tanja Lück,"Ernststraße 59, 13509 Berlin",Reinickendorf,11012012,Borsigwalde,1211,re_ortsteil.1211,52.5838893,13.3006927,POINT (13.3006927 52.5838893),"Mo-We 09:00-13:00,16:00-19:00; Th 15:00-20:00; Fr 09:00-13:00,16:00-19:00; PH off",+493043726783; https://www.tanja-lueck.de/,,"OSM amenity=veterinary, Berlin",node/1766858344,True
1791397445,Tierarzt-Praxis Ralf Boxhammer,"Tierarzt-Praxis Ralf Boxhammer, Kinzerallee, Dammvorstadt, Köpenick, Treptow-Köpenick, Berlin, 12555, Deutschland",Treptow-Köpenick,11009009,Köpenick,0910,re_ortsteil.0910,52.4544641,13.5780156,POINT (13.5780156 52.4544641),"Mo,We 09:00-12:00; Tu,Th,Fr 14:00-17:00; Sa,Su 11:00-13:00",,no,"OSM amenity=veterinary, Berlin",node/1791397445,True
1832317052,Tierarztpraxis Michael Voigt,"Ernststraße 9, 12437 Berlin",Treptow-Köpenick,11009009,Baumschulenweg,0903,re_ortsteil.0903,52.465439,13.4889671,POINT (13.4889671 52.465439),"Mo 09:00-12:00,15:00-18:00; Tu 13:00-18:00; We 09:00-12:00; Th 09:00-12:00,15:00-18:00; Fr 13:00-18:00",+49 30 532 9481; https://tierarzt-voigt.de/,,"OSM amenity=veterinary, Berlin",node/1832317052,True
1882067156,filu,"Olivaer Platz 15, 10707 Berlin",Charlottenburg-Wilmersdorf,11004004,Charlottenburg,0401,re_ortsteil.0401,52.4998738,13.3142714,POINT (13.3142714 52.4998738),,,limited,"OSM amenity=veterinary, Berlin",node/1882067156,True
1905963733,Tierarztpraxis Bärenwiese/ Tiernotarzt Berlin,"Uhlandstraße 151, 10719 Berlin",Charlottenburg-Wilmersdorf,11004004,Wilmersdorf,0402,re_ortsteil.0402,52.497396,13.3245464,POINT (13.3245464 52.497396),"Mo 08:00-20:00; Tu-Fr 10:00-20:00; Sa,Su 10:00-13:00",,limited,"OSM amenity=veterinary, Berlin",node/1905963733,True
1914085674,Tierarztpraxis am Bundesplatz,"Detmolder Straße 3, 10715 Berlin",Charlottenburg-Wilmersdorf,11004004,Wilmersdorf,0402,re_ortsteil.0402,52.4788705,13.3269233,POINT (13.3269233 52.4788705),"Mo,Tu,Th,Fr 09:00-12:00,16:00-18:00; We 09:00-11:00; Sa 10:00-12:00",,,"OSM amenity=veterinary, Berlin",node/1914085674,True
1965863459,"Dr. Demmler, Dr. Wehming","Wiener Straße 25, 10999 Berlin",Friedrichshain-Kreuzberg,11002002,Kreuzberg,0202,re_ortsteil.0202,52.4969564,13.4325994,POINT (13.4325994 52.4969564),"Mo-Fr 10:00-12:00,16:00-19:00; Sa 10:00-12:00; Su 10:00-11:00",,,"OSM amenity=veterinary, Berlin",node/1965863459,True
1978736705,Tierarzt Scheibner,"Dörpfeldstraße 46, 12489 Berlin",Treptow-Köpenick,11009009,Adlershof,0907,re_ortsteil.0907,52.4380728,13.5481783,POINT (13.5481783 52.438072799999986),"Mo-Sa 09:00-11:00; Mo,We 16:00-18:30; Tu 18:30-20:30; Fr 16:00-18:00; PH off  || ""Nach Vereinbarung""",+49 30 677 54 03; https://www.tierarzt-adlershof.de/,yes,"OSM amenity=veterinary, Berlin",node/1978736705,True
2000251280,Tierarztpraxis am Lietzenseepark,"Riehlstraße 3, 14057 Berlin",Charlottenburg-Wilmersdorf,11004004,Charlottenburg,0401,re_ortsteil.0401,52.509309,13.2859209,POINT (13.2859209 52.509309),"Mo-Fr 09:00-12:00 16:00-19:00, Sa 11:00-13:00, Mo-Fr 12:00-16:00 ""nur mit Voranmeldung""",+49 30 3215058; mail@tierarztpraxis-am-lietzenseepark.de; https://tierarztpraxis-am-lietzenseepark.de/,,"OSM amenity=veterinary, Berlin",node/2000251280,True
2018939619,Tierarztpraxis Dr. H. Brieger,"Tierarztpraxis Dr. H. Brieger, 2A, Anhaltinerstraße, Zehlendorf, Steglitz-Zehlendorf, Berlin, Teltow, 14163, Deutschland",Steglitz-Zehlendorf,11006006,Zehlendorf,0604,re_ortsteil.0604,52.431227,13.2561565,POINT (13.2561565 52.431227),"Mo-We, Fr 09:30-11:00,16:00-19:00; Th 16:00-19:00; Sa 09:30-11:00",,,"OSM amenity=veterinary, Berlin",node/2018939619,True
2021286582,Esther Bartels,"Esther Bartels, 43, Mommsenstraße, Charlottenburg, Charlottenburg-Wilmersdorf, Berlin, 10629, Deutschland",Charlottenburg-Wilmersdorf,11004004,Charlottenburg,0401,re_ortsteil.0401,52.503473,13.3067983,POINT (13.3067983 52.503473),,,yes,"OSM amenity=veterinary, Berlin",node/2021286582,True
2099577566,Tierarztpraxis Dr. Veit-Uwe Stuhrberg,"Bernulfstraße 43-45, 12524 Berlin",Treptow-Köpenick,11009009,Altglienicke,0906,re_ortsteil.0906,52.4127843,13.541714,POINT (13.541714 52.412784299999984),"Mo,Tu,Th,Fr 09:00-11:00,16:00-19:00; We 09:00-11:00; Sa 09:00-11:00",+49 30 6723384; https://www.tierarztpraxis-altglienicke.de/,no Grössere Treppe (abwärts) zum Eingang,"OSM amenity=veterinary, Berlin",node/2099577566,True
2132599964,Dr. med. vet. Ulrich Bemm,"Krummenseer Straße 10, 12685 Berlin",Marzahn-Hellersdorf,11010010,Marzahn,1001,re_ortsteil.1001,52.541678,13.5721215,POINT (13.5721215 52.541678),"Mo 13:00-18:00, Tu 10:00-15:00; We 10:00-15:00; Th 13:00-18:00; Fr 10:00-15:00",+49 30 54378250; https://www.tierarzt-bemm.de/,yes,"OSM amenity=veterinary, Berlin",node/2132599964,True
2136188609,Tierarztpraxis Vesmes,"Blumberger Damm 158, 12685 Berlin",Marzahn-Hellersdorf,11010010,Marzahn,1001,re_ortsteil.1001,52.54542,13.5719026,POINT (13.5719026 52.54542),"Mo 09:00-12:00, 16:00-20:00; Tu 09:00-12:00, 16:00-20:00; We 16:00-20:00; Th 09:00-12:00, 16:00-20:00; Fr 09:00-12:00, 16:00-20:00",+49309340440; info@tierarztpraxis-vesmes.de; https://www.tierarztpraxis-vesmes.de,yes,"OSM amenity=veterinary, Berlin",node/2136188609,True
2303053618,,"Neumeisterstraße, Neustadt, Spandau, Berlin, 13585, Deutschland",Spandau,11005005,Spandau,0501,re_ortsteil.0501,52.5477287,13.2022574,POINT (13.2022574 52.5477287),,,no,"OSM amenity=veterinary, Berlin",node/2303053618,False
2332698000,Flick,"Flick, Lindenstraße, Lichterfelde Süd, Lichterfelde, Steglitz-Zehlendorf, Berlin, 12207, Deutschland",Steglitz-Zehlendorf,11006006,Lichterfelde,0602,re_ortsteil.0602,52.4178034,13.3061609,POINT (13.3061609 52.4178034),Mo-Sa 17:00-19:00,,,"OSM amenity=veterinary, Berlin",node/2332698000,True
2420872095,Dr. Wolfgang Hoffmann,"Dr. Wolfgang Hoffmann, Wilhelmshavener Straße, Alt-Moabit, Moabit, Mitte, Berlin, 10551, Deutschland",Mitte,11001001,Moabit,0102,re_ortsteil.0102,52.5286363,13.3412782,POINT (13.3412782 52.52863629999999),"Mo-Fr 10:00-12:00,15:00-18:00",,no,"OSM amenity=veterinary, Berlin",node/2420872095,True
2444304869,Kleintierpraxis Dr. Jana Pohlenz,"Sabinensteig 15, 13053 Berlin",Lichtenberg,11011011,Alt-Hohenschönhausen,1110,re_ortsteil.1110,52.5490713,13.4937991,POINT (13.4937991 52.5490713),,http://www.kleintierpraxis-pohlenz.de,,"OSM amenity=veterinary, Berlin",node/2444304869,True
2444308316,Tierarzt Dr. Niels Lösch,"Am Faulen See 54, 13053 Berlin",Lichtenberg,11011011,Alt-Hohenschönhausen,1110,re_ortsteil.1110,52.5535045,13.49705,POINT (13.49705 52.5535045),,,,"OSM amenity=veterinary, Berlin",node/2444308316,True
2509134926,Praxis im Märchenviertel,"Praxis im Märchenviertel, 11, Janitzkystraße, Märchenviertel, Köpenick, Treptow-Köpenick, Berlin, 12555, Deutschland",Treptow-Köpenick,11009009,Köpenick,0910,re_ortsteil.0910,52.4617784,13.5859364,POINT (13.5859364 52.4617784),"Mo 14:00-18:00, Tu,Th 09:00-12:00, We 15:00-19:00; PH off",+49 30 6574725; tierarzt@tierpraxis-rudelt.de; http://www.tierpraxis-rudelt.de/,no,"OSM amenity=veterinary, Berlin",node/2509134926,True
2525117416,Medivet Berlin Pankow,"Pasewalker Straße 25, 13127 Berlin",Pankow,11003003,Französisch Buchholz,0310,re_ortsteil.0310,52.5883891,13.429743,POINT (13.429743 52.5883891),Mo-Fr 09:00-19:00; Sa 09:00-16:00; Su 11:00-13:00,+49 30 47469232; https://www.medivetgroup.com/de-de/tierarzt/berlin-pankow,yes,"OSM amenity=veterinary, Berlin",node/2525117416,True
2674384521,Tierarztpraxis Tempelhof,"Tierarztpraxis Tempelhof, Eisenacher Straße, Wohnpark Mariendorf, Mariendorf, Tempelhof-Schöneberg, Berlin, 12109, Deutschland",Tempelhof-Schöneberg,11007007,Mariendorf,0704,re_ortsteil.0704,52.4478307,13.3865847,POINT (13.3865847 52.4478307),,,,"OSM amenity=veterinary, Berlin",node/2674384521,True
2746780787,Dr. med. vet. Jeanette Sagawe,"Steglitzer Damm 30, 12169 Berlin",Steglitz-Zehlendorf,11006006,Steglitz,0601,re_ortsteil.0601,52.4505337,13.3410324,POINT (13.3410324 52.45053369999999),"Mo-Fr 09:00-13:00,16:00-20:00; Sa 10:00-16:00",+49 30 7951435; info@tieraerzte-steglitz.de; https://www.tieraerzte-steglitz.de,,"OSM amenity=veterinary, Berlin",node/2746780787,True
2952593533,Bania,"Kremnitzufer 2,  Berlin",Steglitz-Zehlendorf,11006006,Wannsee,0607,re_ortsteil.0607,52.396095,13.161149,POINT (13.161149 52.396095),,+49308051172,,"OSM amenity=veterinary, Berlin",node/2952593533,True
3065368552,Tierarztpraxis Dr. Koch,"Lichtenrader Damm 39, 12305 Berlin",Tempelhof-Schöneberg,11007007,Lichtenrade,0706,re_ortsteil.0706,52.4107877,13.403669,POINT (13.403669 52.4107877),"Mo,We,Fr 09:00-14:00; Tu,Th 15:00-20:00",+49 30 67 03 76 57; koch@tierarztpraxis-koch.de; http://www.tierarztpraxis-koch.de/,no,"OSM amenity=veterinary, Berlin",node/3065368552,True
3080776284,Tierärzliche Praxis am Lützowufer,"Lützowufer 26, 10787 Berlin",Mitte,11001001,Tiergarten,0104,re_ortsteil.0104,52.5061832,13.3494203,POINT (13.3494203 52.5061832),,,,"OSM amenity=veterinary, Berlin",node/3080776284,True
3098125229,Kleintierpraxis in der Torstraße,"Kleintierpraxis in der Torstraße, Torstraße, Rosenthaler Vorstadt, Mitte, Berlin, 10119, Deutschland",Mitte,11001001,Mitte,0101,re_ortsteil.0101,52.5288283,13.4082068,POINT (13.4082068 52.52882829999998),,,,"OSM amenity=veterinary, Berlin",node/3098125229,True
3133634694,Praxis Tierzuliebe,"Edisonstraße 63, 12459 Berlin",Treptow-Köpenick,11009009,Oberschöneweide,0909,re_ortsteil.0909,52.4614933,13.5131144,POINT (13.5131144 52.4614933),"Mo,Tu,Th,Fr 10:00-18:00; Sa 10:00-14:00; Su 11:00-13:00",+49 30 535 38 00; https://tierarztinberlin.de/,yes,"OSM amenity=veterinary, Berlin",node/3133634694,True
3178164316,Dirk Trimpe,"Bahnhofstraße 3, 12159 Berlin",Tempelhof-Schöneberg,11007007,Schöneberg,0701,re_ortsteil.0701,52.4699319,13.3395083,POINT (13.3395083 52.469931899999985),"Mo-Sa 10:00-12:30, Mo,Tu,Th,Fr 17:00-19:00",+49 30 8521920; http://www.tierarztpraxis-trimpe.de/,no,"OSM amenity=veterinary, Berlin",node/3178164316,True
3284006061,Tierarztpraxis Andrea Reich,"Holländerstraße 95, 13407 Berlin",Mitte,11001001,Wedding,0105,re_ortsteil.0105,52.561957,13.353401,POINT (13.353401 52.561957),"Mo 10:00-18:00; Th,Fr 10:00-16:00; Tu 10:00-14:00; We 14:00-18:00",+49304557051; https://www.tierarztpraxis-reinickendorf.de/,no,"OSM amenity=veterinary, Berlin",node/3284006061,True
3393786475,Tierarztpraxis,"Tierarztpraxis, Emstaler Platz, Tegel-Süd, Tegel, Reinickendorf, Berlin, 13507, Deutschland",Reinickendorf,11012012,Tegel,1202,re_ortsteil.1202,52.5769899,13.2792318,POINT (13.2792318 52.5769899),"Mo,We,Th 09:30-13:00; Tu,Fr 15:00-19:00; Sa 09:00-11:00",+49 30 40534618,,"OSM amenity=veterinary, Berlin",node/3393786475,True
3444597275,Tierarztpraxis am Südkreuz,"Gustav-Müller-Straße 19, 10829 Berlin",Tempelhof-Schöneberg,11007007,Schöneberg,0701,re_ortsteil.0701,52.4807694,13.3623013,POINT (13.3623013 52.4807694),"Mo-Fr 10:00-12:00, Mo,We 16:00-19:00, Tu,Th,Fr 16:00-18:00",https://www.tierarztpraxis-am-suedkreuz.de/,no,"OSM amenity=veterinary, Berlin",node/3444597275,True
3649210316,Tierarztpraxis an den Allee-Arcaden,"Greifenhagener Straße 45, 10437 Berlin",Pankow,11003003,Prenzlauer Berg,0301,re_ortsteil.0301,52.5496022,13.4168501,POINT (13.4168501 52.5496022),"Mo,Tu,Th 09:00-12:00,16:00-18:00; Fr 09:00-12:00",https://www.tierarztpraxis-allee-arcaden.de/,limited Mobile Rampe vorhanden; bei Bedarf klingeln,"OSM amenity=veterinary, Berlin",node/3649210316,True
3694035418,Tierarztpraxis Dr. med. vet. Gerald Schmid,"Eisenacher Straße 40, 10781 Berlin",Tempelhof-Schöneberg,11007007,Schöneberg,0701,re_ortsteil.0701,52.4897742,13.3488645,POINT (13.3488645 52.4897742),"Mo-We,Fr 10:00-14:00; Th 15:00-18:00",+49 30 211 17 79; http://doctor-dolittle.de,yes,"OSM amenity=veterinary, Berlin",node/3694035418,True
3754655246,Tierarzt Dr. Ferencz,"Elberfelder Straße 3, 10555 Berlin",Mitte,11001001,Moabit,0102,re_ortsteil.0102,52.5241824,13.3359576,POINT (13.3359576 52.5241824),"""'Weiter Terminsprechstunde. Bitte rufen Sie an 030-3988 9278'""",http://www.tierarztpraxis-moabit.de,no,"OSM amenity=veterinary, Berlin",node/3754655246,True
3786067403,Tierarztpraxis Tierlieb,"Preußenallee 40, 14052 Berlin",Charlottenburg-Wilmersdorf,11004004,Westend,0405,re_ortsteil.0405,52.5154998,13.2608183,POINT (13.2608183 52.5154998),"Mo-Fr 09:00-13:00, Mo,Tu,Th 14:00-18:00; Sa 09:30-11:00",,,"OSM amenity=veterinary, Berlin",node/3786067403,True
3826013974,Tierarztpraxis am Nollendorfplatz,"Nollendorfstraße 20, 10777 Berlin",Tempelhof-Schöneberg,11007007,Schöneberg,0701,re_ortsteil.0701,52.4976524,13.3504475,POINT (13.3504475 52.4976524),"Mo-Tu 10:00-12:00,17:00-19:00; We 17:00-19:00; Th 10:00-12:00,16:00-18:00; Fr 10:00-14:00; Sa ""by appointment""",,no,"OSM amenity=veterinary, Berlin",node/3826013974,True
3905732054,Tierarztpraxis Tobias Krause,"Tierarztpraxis Tobias Krause, Sedanstraße, Steglitz, Steglitz-Zehlendorf, Berlin, 12167, Deutschland",Steglitz-Zehlendorf,11006006,Steglitz,0601,re_ortsteil.0601,52.4459974,13.3307775,POINT (13.3307775 52.44599739999999),"Mo-Fr 09:30-12:00,16:30-19:00; Sa 10:00-12:00",,,"OSM amenity=veterinary, Berlin",node/3905732054,True
3906998156,Tierheilpraxis Kreuzberg,"Warschauer Straße 29, 10243 Berlin",Friedrichshain-Kreuzberg,11002002,Friedrichshain,0201,re_ortsteil.0201,52.5097882,13.4509749,POINT (13.4509749 52.5097882),"Mo,We,Fr 11:00-17:00; Tu,Th 14:00-20:00",,no,"OSM amenity=veterinary, Berlin",node/3906998156,True
3911381119,Katharina Andreas,"Hampsteadstraße 7, 14167 Berlin",Steglitz-Zehlendorf,11006006,Zehlendorf,0604,re_ortsteil.0604,52.433136,13.2749799,POINT (13.2749799 52.433136),,,,"OSM amenity=veterinary, Berlin",node/3911381119,True
4014948628,Tierarztpraxis am Wildrosengehölz,"Hönower Straße 263,  Berlin",Marzahn-Hellersdorf,11010010,Mahlsdorf,1004,re_ortsteil.1004,52.5278578,13.6243765,POINT (13.6243765 52.5278578),"Mo-Sa 08-20, So (Notfall) 10-16",+49 30 99285501; info@tierarztpraxis-mahlsdorf.de; https://www.tierarztpraxis-mahlsdorf.de/,yes,"OSM amenity=veterinary, Berlin",node/4014948628,True
4080579671,Dr. med. vet. Susann Zimmer,"Weerthstraße 10, 12489 Berlin",Treptow-Köpenick,11009009,Adlershof,0907,re_ortsteil.0907,52.4346817,13.544154,POINT (13.544154 52.4346817),"Mo 10:00-12:00,16:00-18:00, Tu 10:00-12:00,16:00-19:00, We 10:00-12:00, Th 16:00-19:00, Fr 10:00-12:00,16:00-18:00; PH off",+49 30 67 132 67,,"OSM amenity=veterinary, Berlin",node/4080579671,True
4137973040,Tierpraxis Dr. Gerriets,"Morgensternstraße 16, 12207 Berlin",Steglitz-Zehlendorf,11006006,Lichterfelde,0602,re_ortsteil.0602,52.4259329,13.3186185,POINT (13.3186185 52.425932899999985),"Mo 10:00-13:00,17:00-19:00; Tu 10:00-12:00; We 17:00-19:00; Th 10:00-12:00; Fr 10:00-12:00",+49 30 7724027; https://www.tierpraxis-drgerriets.de/,,"OSM amenity=veterinary, Berlin",node/4137973040,True
4174131466,Tierarztpraxis Dr. med. vet. Joachim Kirchner,"Florastraße 43, 13187 Berlin",Pankow,11003003,Pankow,0307,re_ortsteil.0307,52.5661672,13.4090789,POINT (13.4090789 52.5661672),"Mo-Fr 14:00-18:00; Tu,Th 09:00-12:00,14:00-18:00",+49 30 49 50 09 49; info@tierarzt-in-pankow.de; http://www.tierarzt-in-pankow.de/,no,"OSM amenity=veterinary, Berlin",node/4174131466,True
4366353588,Tierarztpraxis Am Westend,"Tierarztpraxis Am Westend, Sophie-Charlotten-Straße, Danckelmannkiez, Charlottenburg, Charlottenburg-Wilmersdorf, Berlin, 14059, Deutschland",Charlottenburg-Wilmersdorf,11004004,Charlottenburg,0401,re_ortsteil.0401,52.5179456,13.2866144,POINT (13.2866144 52.5179456),"Mo,Tu,Th,Fr 10:00-13:00,17:00-19:00; We,Sa 10:00-13:00",+4930 3228 247; info@tierarztamwestend.de; https://www.tierarztamwestend.de/,,"OSM amenity=veterinary, Berlin",node/4366353588,True
4412304406,Tierarztpraxis Alexandra Sypitzki,"Sesenheimer Straße 15, 10627 Berlin",Charlottenburg-Wilmersdorf,11004004,Charlottenburg,0401,re_ortsteil.0401,52.5105206,13.3075345,POINT (13.3075345 52.5105206),Mo-Fr 08:30+,+49 30 78957110; https://www.tierarztpraxis-sypitzki.de/,no,"OSM amenity=veterinary, Berlin",node/4412304406,True
4686885506,Tierarztpraxis Dr. Dorothea Werning,"Lindenthaler Allee 6, 14163 Berlin",Steglitz-Zehlendorf,11006006,Zehlendorf,0604,re_ortsteil.0604,52.4358777,13.2310121,POINT (13.2310121 52.4358777),"Mo, Tu, Th 10:00-13:00, 17:00-19:00; We 10:00-13:00, 17:00-20:00; Fr 10:00-17:00",+49 30 8025009; https://www.tierarztpraxis-mexikoplatz.de/de/index.html,,"OSM amenity=veterinary, Berlin",node/4686885506,True
4709401189,Tiergesundheitszentrum,"Tiergesundheitszentrum, Heinrich-Dathe-Platz, Sewanviertel, Friedrichsfelde, Lichtenberg, Berlin, 10319, Deutschland",Lichtenberg,11011011,Friedrichsfelde,1101,re_ortsteil.1101,52.4981659,13.5208894,POINT (13.5208894 52.4981659),"Mo-Sa 10:00-12:00, Mo-Fr 15:00-19:00, Sa 10:00-12:00; PH off",,yes,"OSM amenity=veterinary, Berlin",node/4709401189,True
4715820728,Kleintierpraxis Jan Schneider,"Großbeerenstraße 169-171, 12277 Berlin",Tempelhof-Schöneberg,11007007,Mariendorf,0704,re_ortsteil.0704,52.428896,13.3758384,POINT (13.3758384 52.428896),"Mo,We,Fr 10:00-13:00,15:00-19:00; Tu,Th 17:00-21:00; Sa-Su 11:00-14:00",+49 30 29032092; https://www.kleintierpraxis-schneider.com/,no,"OSM amenity=veterinary, Berlin",node/4715820728,True
4789962778,Tierarztpraxis Oldenburger Straße,"Oldenburger Straße 44, 10551 Berlin",Mitte,11001001,Moabit,0102,re_ortsteil.0102,52.5289464,13.3357023,POINT (13.3357023 52.5289464),"Mo 10:00-12:00,15:00-18:00; Tu 10:00-14:00,18:00-20:00; We 10:00-12:00,15:00-18:00; Th 10:00-14:00,18:00-20:00; Fr 10:00-12:00,15:00-18:00; Sa 09:00-11:00",+49303951555; https://www.tierarztpraxis-oldenburger-strasse.de,no,"OSM amenity=veterinary, Berlin",node/4789962778,True
4809992565,Tierarztpraxis am Burgerpark,"Wilhelm-Kuhr-Straße 1, 13187 Berlin",Pankow,11003003,Pankow,0307,re_ortsteil.0307,52.5694182,13.4001258,POINT (13.4001258 52.56941819999999),"Mo,We 14:00-19:00; Tu,Th 09:00-14:00; Fr 10:00-15:00",+49 30 48479400; https://www.tierarzt-pankow.de/,no,"OSM amenity=veterinary, Berlin",node/4809992565,True
5029362624,Wattstraße 10,"Wattstraße 10, 13629 Berlin",Spandau,11005005,Siemensstadt,0503,re_ortsteil.0503,52.5373732,13.2664047,POINT (13.2664047 52.5373732),,,,"OSM amenity=veterinary, Berlin",node/5029362624,True
5090019016,Tierarztpraxis,"Max-Steinke-Straße 2, 13086 Berlin",Pankow,11003003,Weißensee,0302,re_ortsteil.0302,52.5488636,13.4513273,POINT (13.4513273 52.5488636),"Mo-Fr 09:00-11:00, Mo,Tu,Th,Fr 16:00-18:00, Sa 10:00-12:00",+49 30 9252160,yes,"OSM amenity=veterinary, Berlin",node/5090019016,True
5166206721,Kleintierpraxis Ralf Boxhammer,"Zingster Straße 5, 13051 Berlin",Lichtenberg,11011011,Neu-Hohenschönhausen,1109,re_ortsteil.1109,52.5640461,13.5033148,POINT (13.5033148 52.5640461),,+49 30 9206644; http://www.ta-boxhammer.de,no,"OSM amenity=veterinary, Berlin",node/5166206721,True
5190500390,Tierarztpraxis Ralf Neuer,"Fischerinsel 2, 10179 Berlin",Mitte,11001001,Mitte,0101,re_ortsteil.0101,52.5140108,13.408851,POINT (13.408851 52.5140108),,,,"OSM amenity=veterinary, Berlin",node/5190500390,True
5297162644,Vets for cats,"Bayerischer Platz 2, 10779 Berlin",Tempelhof-Schöneberg,11007007,Schöneberg,0701,re_ortsteil.0701,52.4897098,13.3392413,POINT (13.3392413 52.4897098),"Mo-Fr 09:00-20:00; We 09:00-14:00; Sa,Su 10:00-12:00; PH off",,limited,"OSM amenity=veterinary, Berlin",node/5297162644,True
5326151790,Tierarztpraxis Lenk,"Schönfließer Straße 1,  Berlin",Pankow,11003003,Prenzlauer Berg,0301,re_ortsteil.0301,52.5502349,13.408248,POINT (13.408248 52.5502349),"Mo-Fr 08:00-19:00, Sa 09:00-18:00, Su 10:00-18:00",+49304469769; info@tierarztpraxis-lenk.de; https://tierarztpraxis-lenk.de/,no,"OSM amenity=veterinary, Berlin",node/5326151790,True
5357470034,Tierarztpraxis am Mauerpark,"Tierarztpraxis am Mauerpark, Gleimstraße, Gleimviertel, Prenzlauer Berg, Pankow, Berlin, 10437, Deutschland",Pankow,11003003,Prenzlauer Berg,0301,re_ortsteil.0301,52.5470756,13.4082736,POINT (13.4082736 52.5470756),Mo-Fr 09:00-19:00,,limited,"OSM amenity=veterinary, Berlin",node/5357470034,True
5424941690,Chung & Wahle,"Hauptstraße 89, 12159 Berlin",Tempelhof-Schöneberg,11007007,Schöneberg,0701,re_ortsteil.0701,52.4751968,13.3401022,POINT (13.3401022 52.4751968),"Mo,Fr 09:00-18:00; Tu,Th 09:00-20:00; We,Sa 09:00-14:00",+49 30 8593215; info@tierarztpraxis-chung-wahle.com; https://tierarztpraxis-chung-wahle.com/,limited,"OSM amenity=veterinary, Berlin",node/5424941690,True
5514404517,Tierarztpraxis Dr. Klaus Lendner,"Tierarztpraxis Dr. Klaus Lendner, Fuggerstraße, Winterfeldtkiez, Nollendorfkiez, Schöneberg, Tempelhof-Schöneberg, Berlin, 10777, Deutschland",Tempelhof-Schöneberg,11007007,Schöneberg,0701,re_ortsteil.0701,52.4990938,13.344571,POINT (13.344571 52.4990938),"Mo,Tu,Th,Fr 09:00-12:00,16:00-19:00; We,Sa 09:00-12:00",,yes,"OSM amenity=veterinary, Berlin",node/5514404517,True
5554342322,Martyna Pohnke Tierarzt,"Ostpreußendamm 65,  Berlin",Steglitz-Zehlendorf,11006006,Lichterfelde,0602,re_ortsteil.0602,52.4212925,13.3101216,POINT (13.3101216 52.421292499999986),"Mo-Fr 09:00-12:00, Mo 16:00-19:00, Th 16:00-20:00",+49 30 75765970,,"OSM amenity=veterinary, Berlin",node/5554342322,True
5733901242,Dr. Miriam Oczipka,"Mindener Straße 22, 10589 Berlin",Charlottenburg-Wilmersdorf,11004004,Charlottenburg,0401,re_ortsteil.0401,52.5247542,13.3008749,POINT (13.3008749 52.5247542),"Mo-Fr 09:00-12:00,16:00-19:00; Sa 11:00-13:00",+49303441864,no,"OSM amenity=veterinary, Berlin",node/5733901242,True
5762374254,Dr. med. vet. Sven Albrecht,"Baumschulenstraße 34, 12437 Berlin",Treptow-Köpenick,11009009,Baumschulenweg,0903,re_ortsteil.0903,52.4637752,13.4852571,POINT (13.4852571 52.4637752),"Mo,We,Fr 09:00-12:00,15:00-19:00; Tu,Th 09:00-12:00,13:00-15:00",,no,"OSM amenity=veterinary, Berlin",node/5762374254,True
6270311794,Dr. Wegeler,"Dr. Wegeler, Rangsdorfer Straße, John-Locke-Siedlung, Lichtenrade, Tempelhof-Schöneberg, Berlin, Teltow, 12307, Deutschland",Tempelhof-Schöneberg,11007007,Lichtenrade,0706,re_ortsteil.0706,52.3889212,13.3905608,POINT (13.3905608 52.3889212),"""nach Vereinbarung""",+49 307956044,,"OSM amenity=veterinary, Berlin",node/6270311794,True
6344954141,Tierarztpraxis Hohenzollerndamm 3,"Hohenzollerndamm 3, 10717 Berlin",Charlottenburg-Wilmersdorf,11004004,Wilmersdorf,0402,re_ortsteil.0402,52.4954404,13.3293192,POINT (13.3293192 52.4954404),"Mo-Tu,Th-Fr 10:00-12:30,17:00-19:00; We 18:00-20:00; Sa 11:00-13:00",,no,"OSM amenity=veterinary, Berlin",node/6344954141,True
6449519970,Tierarztpraxis Anke Meeuw,"Tierarztpraxis Anke Meeuw, 23, Ehrlichstraße, Heimatviertel, Prinzenviertel, Karlshorst, Lichtenberg, Berlin, 10318, Deutschland",Lichtenberg,11011011,Karlshorst,1102,re_ortsteil.1102,52.4800707,13.5205309,POINT (13.5205309 52.4800707),"Mo,We 09:00-19:00; Tu 07:30-14:00; Th 10:00-21:00; Fr 09:00-12:00; Sa 10:00-15:00",+49 30 96 59 96 52; praxis@tierarzt-karlshorst.info; http://www.tierarzt-karlshorst.info/willkommen.html,yes,"OSM amenity=veterinary, Berlin",node/6449519970,True
6470421529,Tierarztpraxis Sonnenallee,"Sonnenallee 204, 12059 Berlin",Neukölln,11008008,Neukölln,0801,re_ortsteil.0801,52.4748376,13.4534973,POINT (13.4534973 52.4748376),"Mo-Fr 09:00-12:00,16:00-20:00; Sa 11:00-13:00 || ""und nach Vereinbarung""",,no,"OSM amenity=veterinary, Berlin",node/6470421529,True
6509362833,Tierarztpraxis Laskawy,"Bänschstraße 58,  Berlin",Friedrichshain-Kreuzberg,11002002,Friedrichshain,0201,re_ortsteil.0201,52.5177488,13.4661107,POINT (13.4661107 52.5177488),"Mo,We 14:00-19:00; Tu,Th 08:00-13:00; Fr 08:00-13:00,14:00-19:00",+49 30 4267684; http://www.laskawy-berlin.de,yes,"OSM amenity=veterinary, Berlin",node/6509362833,True
6603772445,neko Tiergesundheit,"Provinzstraße 47,  Berlin",Reinickendorf,11012012,Reinickendorf,1201,re_ortsteil.1201,52.5687932,13.3794234,POINT (13.3794234 52.5687932),"Mo 15:00-18:00, Tu 10:00-13:00, We 10:00-15:00, Fr 10:00-15:00, Tu 15:00-19:00, Th 15:00-19:00",+49 30 54814390; https://www.neko-tiergesundheit.de,no,"OSM amenity=veterinary, Berlin",node/6603772445,True
6705031970,Kleintierpraxis Dirk Oschika,"Krossener Straße 35A, 10245 Berlin",Friedrichshain-Kreuzberg,11002002,Friedrichshain,0201,re_ortsteil.0201,52.5094514,13.4645357,POINT (13.4645357 52.5094514),"Mo,Tu,Th 09:00-11:00,15:00-19:00",,no,"OSM amenity=veterinary, Berlin",node/6705031970,True
6982811309,Vogelpraxis,"Mierendorffstraße 23, 10589 Berlin",Charlottenburg-Wilmersdorf,11004004,Charlottenburg,0401,re_ortsteil.0401,52.5241017,13.3024823,POINT (13.3024823 52.5241017),,,limited,"OSM amenity=veterinary, Berlin",node/6982811309,True
7211094992,Rex Tierarztpraxis,"Greifswalder Straße 204, 10405 Berlin",Pankow,11003003,Prenzlauer Berg,0301,re_ortsteil.0301,52.5333026,13.4292251,POINT (13.4292251 52.5333026),Mo-Fr 08:00-20:00; Sa 09:00-16:00,,no,"OSM amenity=veterinary, Berlin",node/7211094992,True
7227468226,Fahrpraxis Feske,"Allmendeweg 116, 13509 Berlin",Reinickendorf,11012012,Tegel,1202,re_ortsteil.1202,52.6047279,13.298452,POINT (13.298452 52.604727899999986),"Mo-Fr 08:00-20:00 open ""telefonisch erreichbar""",,,"OSM amenity=veterinary, Berlin",node/7227468226,True
7310483025,Tierarztpraxis Claudia Handke,"Danziger Straße 15, 10435 Berlin",Pankow,11003003,Prenzlauer Berg,0301,re_ortsteil.0301,52.5407903,13.4154364,POINT (13.4154364 52.5407903),"Mo,Th,Fr 10:00-12:00, Tu,We 10:00-15:00, Mo 16:00-20:00, Th 16:00-19:00, Fr 16:00-18:00, Sa 11:00-13:00",+49 30 4421760; post@tierarztpraxis-prenzlauerberg.de; https://www.tierarztpraxis-prenzlauerberg.de,no,"OSM amenity=veterinary, Berlin",node/7310483025,True
7326193661,Dr. Angelika Block,"Dr. Angelika Block, Westfälische Straße, Halensee, Charlottenburg-Wilmersdorf, Berlin, 10709, Deutschland",Charlottenburg-Wilmersdorf,11004004,Halensee,0407,re_ortsteil.0407,52.4955514,13.2968989,POINT (13.2968989 52.4955514),"Mo-Tu 10:00-12:00,16:00-18:30; We 16:00-18:30; Th-Fr 10:00-12:00,16:00-18:30; Sa 10:00-12:00",http://ta-block.weebly.com,limited,"OSM amenity=veterinary, Berlin",node/7326193661,True
7478178484,Lorenz,"Lorenz, Oberhofer Weg, Lichterfelde Ost, Lichterfelde, Steglitz-Zehlendorf, Berlin, 12209, Deutschland",Steglitz-Zehlendorf,11006006,Lichterfelde,0602,re_ortsteil.0602,52.4183404,13.3320075,POINT (13.3320075 52.4183404),,https://www.tierarzt-lichterfelde.de/,,"OSM amenity=veterinary, Berlin",node/7478178484,True
7546074503,Wolf & Tiger,"Lauterstraße 12, 12159 Berlin",Tempelhof-Schöneberg,11007007,Friedenau,0702,re_ortsteil.0702,52.4726236,13.33503,POINT (13.33503 52.4726236),,+49 175 7366718; https://www.wolfandtiger.de/,,"OSM amenity=veterinary, Berlin",node/7546074503,True
7609585407,Tierarztpraxis Denisse Barrera,"Karl-Marx-Straße 133, 12043 Berlin",Neukölln,11008008,Neukölln,0801,re_ortsteil.0801,52.4774124,13.439113,POINT (13.439113 52.4774124),Mo-Sa 16:00-20:00,,no,"OSM amenity=veterinary, Berlin",node/7609585407,True
7617449010,Angelika Weber,"Kundrystraße 2, 12159 Berlin",Tempelhof-Schöneberg,11007007,Friedenau,0702,re_ortsteil.0702,52.4741292,13.3293259,POINT (13.3293259 52.474129199999986),"Mo-Sa 10:00-12:00, Tu 16:00-19:00, Su 13:00-14:00",,,"OSM amenity=veterinary, Berlin",node/7617449010,True
7623775572,Tierarztpraxis S. Lattermann,"Transvaalstraße 14, 13351 Berlin",Mitte,11001001,Wedding,0105,re_ortsteil.0105,52.5519001,13.3411969,POINT (13.3411969 52.5519001),"Mo,We 08:00-14:00,13:30-18:30; Tu,Th-Fr 14:00-20:00; PH closed",,yes,"OSM amenity=veterinary, Berlin",node/7623775572,True
7643245687,Tierarztpraxis Otto Suhr,"Tierarztpraxis Otto Suhr, Otto-Suhr-Allee, Alt-Lietzow, Charlottenburg, Charlottenburg-Wilmersdorf, Berlin, 10587, Deutschland",Charlottenburg-Wilmersdorf,11004004,Charlottenburg,0401,re_ortsteil.0401,52.5150531,13.3130502,POINT (13.3130502 52.51505310000001),Mo-Fr 09:00-19:00,,no,"OSM amenity=veterinary, Berlin",node/7643245687,True
7746191786,,"Goethestraße, Wilhelmsruh, Pankow, Berlin, 13158, Deutschland",Pankow,11003003,Wilhelmsruh,0313,re_ortsteil.0313,52.5877876,13.3651552,POINT (13.3651552 52.5877876),,,,"OSM amenity=veterinary, Berlin",node/7746191786,False
7747019462,Tierarztpraxis B. Migdal,"Grazer Platz 12, 12157 Berlin",Tempelhof-Schöneberg,11007007,Schöneberg,0701,re_ortsteil.0701,52.4667894,13.3465937,POINT (13.3465937 52.4667894),"Mo,We 10:00-16:00; Tu,Th 16:00-20:00; Fr 12:00-18:00",,,"OSM amenity=veterinary, Berlin",node/7747019462,True
7776123991,Silke Sanft,"Florastraße 6, 12163 Berlin",Steglitz-Zehlendorf,11006006,Steglitz,0601,re_ortsteil.0601,52.4613066,13.3269746,POINT (13.3269746 52.4613066),"Mo,Tu,Th,Fr 09:00-19:00; We,Sa 09:00-12:00",http://www.tierarztpraxis-sanft.de,,"OSM amenity=veterinary, Berlin",node/7776123991,True
7777530635,Tierarztpraxis Rex,"Südwestkorso 11a, 12161 Berlin",Tempelhof-Schöneberg,11007007,Friedenau,0702,re_ortsteil.0702,52.474559,13.3227841,POINT (13.3227841 52.474559),"""Sprechzeiten nach Vereinbarung""",https://www.rex.app/,no,"OSM amenity=veterinary, Berlin",node/7777530635,True
7813575354,Tierarztpraxis am Schlachtensee,"Breisgauer Straße 3, 14129 Berlin",Steglitz-Zehlendorf,11006006,Zehlendorf,0604,re_ortsteil.0604,52.4391475,13.215708,POINT (13.215708 52.43914749999998),"Mo-Th 09:00-13:00; We,Fr 14:00-18:00; Sa 10:00-14:00",info@tierarztpraxis-am-schlachtensee.de,,"OSM amenity=veterinary, Berlin",node/7813575354,True
7937984201,Tierarztpraxis am Hermannplatz,"Lucy-Lameck-Straße 1, 12049 Berlin",Neukölln,11008008,Neukölln,0801,re_ortsteil.0801,52.4863263,13.4233555,POINT (13.4233555 52.4863263),,,,"OSM amenity=veterinary, Berlin",node/7937984201,True
7978440760,Dr. L. Chelminski,"Dr. L. Chelminski, Residenzstraße, Siedlung Paddenpuhl, Reinickendorf, Berlin, 13409, Deutschland",Reinickendorf,11012012,Reinickendorf,1201,re_ortsteil.1201,52.5691003,13.3612016,POINT (13.3612016 52.5691003),"Mo-Tu,Th-Fr,Su 08:30-11:00,15:30-17:30",+49 30 4954038,no,"OSM amenity=veterinary, Berlin",node/7978440760,True
8000786185,Tierarztpraxis PD Dr. med. vet. Thomas Göbel,"Blissestraße 68, 10713 Berlin",Charlottenburg-Wilmersdorf,11004004,Wilmersdorf,0402,re_ortsteil.0402,52.4789701,13.3200646,POINT (13.3200646 52.4789701),,https://www.tierarzt-goebel.de/,,"OSM amenity=veterinary, Berlin",node/8000786185,True
8068408243,Berliner Tierarztpraxis,"Mansfelder Straße 19, 10713 Berlin",Charlottenburg-Wilmersdorf,11004004,Wilmersdorf,0402,re_ortsteil.0402,52.4888413,13.3110131,POINT (13.3110131 52.4888413),,https://www.berliner-tierarztpraxis.de/,,"OSM amenity=veterinary, Berlin",node/8068408243,True
8068513185,Naturheilkunde für Tiere,"Bornimer Straße 6, 10711 Berlin",Charlottenburg-Wilmersdorf,11004004,Halensee,0407,re_ortsteil.0407,52.4961991,13.2853794,POINT (13.2853794 52.496199099999984),,,,"OSM amenity=veterinary, Berlin",node/8068513185,True
8330198884,Tierärztliche Gemeinschaftspraxis Blessing & Richter,"Quickborner Straße 76, 13439 Berlin",Reinickendorf,11012012,Märkisches Viertel,1210,re_ortsteil.1210,52.6045044,13.3664162,POINT (13.3664162 52.6045044),Mo-Fr 09:00-19:00; Sa 09:00-11:00; Su off,,,"OSM amenity=veterinary, Berlin",node/8330198884,True
8330236501,Katharina Dralle,"Rotdornstraße 7, 12161 Berlin",Tempelhof-Schöneberg,11007007,Friedenau,0702,re_ortsteil.0702,52.4709098,13.3254977,POINT (13.3254977 52.4709098),,,,"OSM amenity=veterinary, Berlin",node/8330236501,True
8357625079,Tierarztpraxis Matthias Müller,"Berliner Straße 11, 13467 Berlin",Reinickendorf,11012012,Hermsdorf,1206,re_ortsteil.1206,52.6139984,13.316783,POINT (13.316783 52.6139984),"Mo-Fr 11:00-13:00, 18:00-20:00; Sa-Su11:00-13:00; PH 11:00-13:00",+49 30 4034440; https://tierarzt-matthiasmueller.de/,yes,"OSM amenity=veterinary, Berlin",node/8357625079,True
8579480418,Tierarztpraxis Galina Schirow GmbH,"Bartningallee 5, 10557 Berlin",Mitte,11001001,Hansaviertel,0103,re_ortsteil.0103,52.5189471,13.3427257,POINT (13.3427257 52.5189471),"Mo-Fr 10:00-13:00,16:00-19:00",+49 30 39886966; https://www.vetpraxis-schirow.de/,limited,"OSM amenity=veterinary, Berlin",node/8579480418,True
8691573555,Dr. Kurt Helmich;Dr. Dieter Oelke,"Kufsteiner Straße 22, 10825 Berlin",Charlottenburg-Wilmersdorf,11004004,Wilmersdorf,0402,re_ortsteil.0402,52.4854474,13.3367552,POINT (13.3367552 52.4854474),,https://tiermedizinzentrum.de/,,"OSM amenity=veterinary, Berlin",node/8691573555,True
8844721918,Am Schlosspark,"Am Schlosspark, 28, Dietzgenstraße, Niederschönhausen, Pankow, Berlin, 13156, Deutschland",Pankow,11003003,Niederschönhausen,0311,re_ortsteil.0311,52.5826045,13.40387,POINT (13.40387 52.5826045),"Mo-Fr 10:00-12:00,16:00-19:00; Sa 10:00-12:00",,,"OSM amenity=veterinary, Berlin",node/8844721918,True
8850856432,Tierärztliche Gemeinschaftspraxis für Kleintiere,"Birnhornweg 3, 12107 Berlin",Tempelhof-Schöneberg,11007007,Mariendorf,0704,re_ortsteil.0704,52.4240806,13.3948851,POINT (13.3948851 52.4240806),,,,"OSM amenity=veterinary, Berlin",node/8850856432,True
9038458603,Tierärzte-Kreuzberg,"Liegnitzer Straße 19, 10999 Berlin",Friedrichshain-Kreuzberg,11002002,Kreuzberg,0202,re_ortsteil.0202,52.4929733,13.4338357,POINT (13.4338357 52.4929733),"Mo-Fr 10:00-24:00,16:00-20:00; PH,Sa,Su 10:00-24:00",,,"OSM amenity=veterinary, Berlin",node/9038458603,True
9166121510,Tierarztpraxis Dr. Dirk Mauch,"Elsa-Brändström-Straße 13, 13189 Berlin",Pankow,11003003,Pankow,0307,re_ortsteil.0307,52.5600099,13.4154386,POINT (13.4154386 52.56000989999998),,+49 30 4710133; http://www.elsavet.de/,yes,"OSM amenity=veterinary, Berlin",node/9166121510,True
9221860122,Tierarztpraxis am Amalienpark,"Tierarztpraxis am Amalienpark, 2a, Breite Straße, Alt-Pankow, Pankow, Berlin, 13187, Deutschland",Pankow,11003003,Pankow,0307,re_ortsteil.0307,52.5721186,13.4135786,POINT (13.4135786 52.57211860000001),"Mo,Tu,Th 09:00-12:00,15:00-18:00; We 09:00-12:00; Fr 09:00-15:00",https://www.tierarztpraxis-amalienpark.de/,no,"OSM amenity=veterinary, Berlin",node/9221860122,True
9238314072,Tierarztpraxis Sarah Watson,"Altenbraker Straße 29, 12051 Berlin",Neukölln,11008008,Neukölln,0801,re_ortsteil.0801,52.468653,13.4330363,POINT (13.4330363 52.468653),"We,Fr 09:00-15:00; Sa 10:00-12:00; Mo 09:00-17:00; Tu,Th 11:00-19:00",,no,"OSM amenity=veterinary, Berlin",node/9238314072,True
9396508717,4 Pfoten,"Fanningerstraße 27, 10365 Berlin",Lichtenberg,11011011,Lichtenberg,1103,re_ortsteil.1103,52.5143907,13.4951561,POINT (13.4951561 52.5143907),"Mo 09:00-12:00,16:00-18:00; Tu 17:00-20:00; We 09:00-12:00; Th 09:00-12:00,16:00-18:00; Fr 09:00-12:00,14:00-16:00",+49 30 553 15 72; https://www.praxis4pfoten.de/,,"OSM amenity=veterinary, Berlin",node/9396508717,True
9400600599,Tierarztpraxis Friedrichshain,"Auerstraße 44, 10249 Berlin",Friedrichshain-Kreuzberg,11002002,Friedrichshain,0201,re_ortsteil.0201,52.5208823,13.4462478,POINT (13.4462478 52.5208823),Mo 09:00-15:00; Tu-We 12:00-15:00; Th 10:30-15:00; Fr 09:00-15:00,+49 30 78 08 34 85; https://www.tierarztpraxis-friedrichshain.de,,"OSM amenity=veterinary, Berlin",node/9400600599,True
9432134789,Praxis für Kleintiermedizin Janine Lenk,"Eschengraben 47, 13189 Berlin",Pankow,11003003,Pankow,0307,re_ortsteil.0307,52.556357,13.4245524,POINT (13.4245524 52.556357),"Mo,Tu,Th 13:00-19:00; We 17:00-21:00; Fr 10:00-14:00",,,"OSM amenity=veterinary, Berlin",node/9432134789,True
9456247850,Peter Vogel,"Finowstraße 14,  Berlin",Friedrichshain-Kreuzberg,11002002,Friedrichshain,0201,re_ortsteil.0201,52.5111185,13.4668484,POINT (13.4668484 52.5111185),"Tu, We 10:00-15:00; Th 10:00-12:00; Mo, Fr 10:00-12:00, 16:00-19:00",+49 30 29776835; https://www.drpetervogel.de/,,"OSM amenity=veterinary, Berlin",node/9456247850,True
9461140241,Dr. Karin Block,"Zimmermannstraße 16, 12163 Berlin",Steglitz-Zehlendorf,11006006,Steglitz,0601,re_ortsteil.0601,52.4607219,13.3195225,POINT (13.3195225 52.46072189999999),,,,"OSM amenity=veterinary, Berlin",node/9461140241,True
9516282788,Tierarztpraxis im Komponistenviertel,"Bizetstraße 48, 13088 Berlin",Pankow,11003003,Weißensee,0302,re_ortsteil.0302,52.5476848,13.4541052,POINT (13.4541052 52.547684799999985),Mo-Sa 10:00-12:00; Mo-Tu 16:00-19:00; Th-Fr 16:00-19:00,+49309273441; https://www.tierarztpraxis-peters-weissensee.de/,,"OSM amenity=veterinary, Berlin",node/9516282788,True
9653871480,Tierarztpraxis Lankwitz,"Bruchwitzstraße 30, 12247 Berlin",Steglitz-Zehlendorf,11006006,Lankwitz,0603,re_ortsteil.0603,52.4370703,13.349587,POINT (13.349587 52.4370703),"Mo-Tu,Th-Fr 10:00-13:00,15:00-18:00; We,Sa 09:00-12:00",+49 30 77208260; info@tierarztpraxis-lankwitz.de; https://www.tierarztpraxis-lankwitz.de/,limited,"OSM amenity=veterinary, Berlin",node/9653871480,True
9786575482,Tierärztliche Praxis Beck,"Weichselstraße 25, 12045 Berlin",Neukölln,11008008,Neukölln,0801,re_ortsteil.0801,52.4870325,13.4368022,POINT (13.4368022 52.4870325),"Mo-Fr 09:00-11:00,15:00-19:00",,no,"OSM amenity=veterinary, Berlin",node/9786575482,True
9880855648,Tierarztpraxis Marion Bickert,"Marchandstraße 38, 12249 Berlin",Steglitz-Zehlendorf,11006006,Lankwitz,0603,re_ortsteil.0603,52.4227865,13.3566908,POINT (13.3566908 52.4227865),"Mo-Fr 09:00-11:00,16:00-18:00; Sa 09:30-10:30",,,"OSM amenity=veterinary, Berlin",node/9880855648,True
10003860025,Teresa Lankes,"Teresa Lankes, Knobelsdorffstraße, Danckelmannkiez, Charlottenburg, Charlottenburg-Wilmersdorf, Berlin, 14059, Deutschland",Charlottenburg-Wilmersdorf,11004004,Charlottenburg,0401,re_ortsteil.0401,52.5133005,13.2937818,POINT (13.2937818 52.5133005),"Mo,We,Fr 09:00-11:00, Mo-Fr 16:00-18:00",,,"OSM amenity=veterinary, Berlin",node/10003860025,True
10169596123,Patrick O. Bolz,"Patrick O. Bolz, Britzer Damm, Siedlung der Düfte, Britz, Neukölln, Berlin, 12347, Deutschland",Neukölln,11008008,Britz,0802,re_ortsteil.0802,52.4564344,13.4367908,POINT (13.4367908 52.4564344),"Mo-Fr 10:00-12:00,16:00-19:00; PH,Sa,Su 10:00-12:00",,,"OSM amenity=veterinary, Berlin",node/10169596123,True
10169838053,Tierarztpraxis Kaulsdorf-Süd,"Tierarztpraxis Kaulsdorf-Süd, Chemnitzer Straße, Kaulsdorf Süd, Kaulsdorf, Marzahn-Hellersdorf, Berlin, 12621, Deutschland",Marzahn-Hellersdorf,11010010,Kaulsdorf,1003,re_ortsteil.1003,52.486422,13.5746936,POINT (13.5746936 52.486422),"Tu,Th,Sa 10:00-12:00, Mo,Tu,Th 15:00-20:00, We,Fr 15:00-19:00; PH off",+49 30 5666176; juraske@tierarztpraxis-kaulsdorf-sued.de; https://tierarztpraxis-kaulsdorf-sued.de/,,"OSM amenity=veterinary, Berlin",node/10169838053,True
10180980038,Tierarztpraxis Gasteiner Straße,"Gasteiner Straße 33, 10717 Berlin",Charlottenburg-Wilmersdorf,11004004,Wilmersdorf,0402,re_ortsteil.0402,52.4872926,13.3259046,POINT (13.3259046 52.4872926),,https://tierarztpraxis-gasteiner-strasse.de/,,"OSM amenity=veterinary, Berlin",node/10180980038,True
10781978832,,"Hultschiner Damm, Mahlsdorf Süd, Mahlsdorf, Marzahn-Hellersdorf, Berlin, 12623, Deutschland",Marzahn-Hellersdorf,11010010,Mahlsdorf,1004,re_ortsteil.1004,52.4873166,13.6046801,POINT (13.6046801 52.4873166),,,,"OSM amenity=veterinary, Berlin",node/10781978832,False
10816474165,Valera,"Valera, 23, Potsdamer Straße, Zehlendorf, Steglitz-Zehlendorf, Berlin, 14163, Deutschland",Steglitz-Zehlendorf,11006006,Zehlendorf,0604,re_ortsteil.0604,52.4338095,13.2466898,POINT (13.2466898 52.4338095),24/7,https://valera.vet/,,"OSM amenity=veterinary, Berlin",node/10816474165,True
10944187119,Tierarztpraxis am Tierheim Berlin,"Hausvaterweg 39,  Berlin",Lichtenberg,11011011,Falkenberg,1104,re_ortsteil.1104,52.5743133,13.5465736,POINT (13.5465736 52.574313299999986),"Mo-Fr 10:00-20:00; Sa,Su 10:00-17:00; PH 11:00-14:00",+493093662200; info@tierarztpraxis-am-tierheim.de; https://tierarztpraxis-am-tierheim.de/,,"OSM amenity=veterinary, Berlin",node/10944187119,True
10946259246,Praxis für Tierzahnheilkunde,"Soorstraße 76, 14050 Berlin",Charlottenburg-Wilmersdorf,11004004,Westend,0405,re_ortsteil.0405,52.5134999,13.2774866,POINT (13.2774866 52.5134999),"""nach Vereinbarung""",https://rux.vet/,,"OSM amenity=veterinary, Berlin",node/10946259246,True
10956712577,Tierarztpraxis Birkenstein  Dr. med. vet H. Fuhrmann und Team,"Tierarztpraxis Birkenstein  Dr. med. vet H. Fuhrmann und Team, Terwestenstraße, Mahlsdorf, Marzahn-Hellersdorf, Berlin, 12623, Deutschland",Marzahn-Hellersdorf,11010010,Mahlsdorf,1004,re_ortsteil.1004,52.5211838,13.6465809,POINT (13.6465809 52.5211838),"Mo-Fr 09:30-11:00, Mo,Tu,Th,Fr 16:30-19:00, Sa 14:00-16:00",,,"OSM amenity=veterinary, Berlin",node/10956712577,True
11008683231,Tierarztpraxis Alt-Buch,"Alt-Buch 57, 13125 Berlin",Pankow,11003003,Buch,0309,re_ortsteil.0309,52.636563,13.5022262,POINT (13.5022262 52.636563),"Mo,Fr 09:00-16:00; Tu-Th 09:00-12:00, Tu,Th 16:00-19:00; Sa[1] 10:00-12:00; PH off",+4930 911 42 778; https://www.tierarztpraxis-alt-buch.de/,,"OSM amenity=veterinary, Berlin",node/11008683231,True
11052551506,Ute Teutenberg,"Ute Teutenberg, Falkenseer Chaussee, Falkenhagener Feld, Spandau, Berlin, 13589, Deutschland",Spandau,11005005,Falkenhagener Feld,0508,re_ortsteil.0508,52.5507862,13.1685048,POINT (13.1685048 52.5507862),"Mo-Fr 08:00-12:00,15:00-18:00; We 08:00-12:00,17:00-20:00",+49 30 37588910,no,"OSM amenity=veterinary, Berlin",node/11052551506,True
11101616402,Tierarzt Bello & Co.,"Tierarzt Bello & Co., 261, Neuköllner Straße, Rudow, Neukölln, Berlin, 12357, Deutschland",Neukölln,11008008,Rudow,0804,re_ortsteil.0804,52.425741,13.4838753,POINT (13.4838753 52.425741),,https://belloundco.de/,,"OSM amenity=veterinary, Berlin",node/11101616402,True
11201794003,Tierarztpraxis Dr. Pollmann,"Berliner Straße 17,  Berlin",Steglitz-Zehlendorf,11006006,Zehlendorf,0604,re_ortsteil.0604,52.4361962,13.2660844,POINT (13.2660844 52.43619619999998),"Tu, Th 09:00-15:00; We, Fr 13:00-19:00; Sa 11:00-16:00",+493081099440; https://tierarztpraxis-pollmann.de,,"OSM amenity=veterinary, Berlin",node/11201794003,True
11313866984,Dr. Fenina + Burwieck,"Manteuffelstraße 74, 12103 Berlin",Tempelhof-Schöneberg,11007007,Tempelhof,0703,re_ortsteil.0703,52.4678078,13.3783605,POINT (13.3783605 52.46780780000001),,+493063314227; https://meintierarzt.berlin,,"OSM amenity=veterinary, Berlin",node/11313866984,True
11345799891,Rex,"Rex, Revaler Straße, Boxhagener Kiez, Friedrichshain, Friedrichshain-Kreuzberg, Berlin, 10245, Deutschland",Friedrichshain-Kreuzberg,11002002,Friedrichshain,0201,re_ortsteil.0201,52.5073508,13.4569833,POINT (13.4569833 52.5073508),Mo-Fr 08:00-20:00,https://www.rex.app/,yes,"OSM amenity=veterinary, Berlin",node/11345799891,True
11556295677,Tierärztliche Gemeinschaftspraxis,"Hohenzollerndamm 185, 10713 Berlin",Charlottenburg-Wilmersdorf,11004004,Wilmersdorf,0402,re_ortsteil.0402,52.491509,13.3183436,POINT (13.3183436 52.491509),,https://www.tierarztpraxis-berlin.net/,,"OSM amenity=veterinary, Berlin",node/11556295677,True
11717159971,Rex Tierarztpraxis,"Hermannstraße 227, 12049 Berlin",Neukölln,11008008,Neukölln,0801,re_ortsteil.0801,52.4807206,13.425592,POINT (13.425592 52.4807206),Mo-Sa 08:00-20:00,,,"OSM amenity=veterinary, Berlin",node/11717159971,True
11847097396,Kleintierkardiologie Tempelhof,"Burgemeisterstraße 34, 12103 Berlin",Tempelhof-Schöneberg,11007007,Tempelhof,0703,re_ortsteil.0703,52.4583689,13.3734169,POINT (13.3734169 52.4583689),Mo-Th 08:00-18:00; PH off,+49 30 47006869; https://www.kardiobewegt.berlin/,yes,"OSM amenity=veterinary, Berlin",node/11847097396,True
11985547873,Tierarztpraxis Kutzner,"Zum Kappgraben 13, 13125 Berlin",Pankow,11003003,Karow,0305,re_ortsteil.0305,52.6164598,13.4890268,POINT (13.4890268 52.6164598),"Mo-We,Fr 09:00-12:00,16:30-19:30; Th,Sa 09:00-12:00",+49 30 94382030; https://tierarzt-kutzner.de/,,"OSM amenity=veterinary, Berlin",node/11985547873,True
12108668170,"Tierarztpraxis - Dr. med. vet. Dirk Emmelmann, Dr. med. vet. Albrecht Fengler","Max-Beer-Straße 7,  Berlin",Mitte,11001001,Mitte,0101,re_ortsteil.0101,52.5251722,13.408013,POINT (13.408013 52.5251722),"Mo, Tu, Th, Fr 09:00-12:00, 15:00-19:00; We 15:00-19:00",+49 30 2426512; https://www.augentierarzt-berlin.de,no,"OSM amenity=veterinary, Berlin",node/12108668170,True
12219145454,Tierarztpraxis & Katzenbetreuung am Botanischen Garten,"Tietzenweg 23,  Berlin",Steglitz-Zehlendorf,11006006,Lichterfelde,0602,re_ortsteil.0602,52.4456015,13.3020665,POINT (13.3020665 52.4456015),"Mo, We 10:00-19:00; Tu, Th 08:30-14:00; Sa 10:00-12:00; Fr 10:00-14:00",+49 30 32294480; https://www.tierarztpraxis-botanischergarten.de,,"OSM amenity=veterinary, Berlin",node/12219145454,True
12238881093,Janine Bräuer,"Krüllsstraße 5, 12435 Berlin",Treptow-Köpenick,11009009,Alt-Treptow,0901,re_ortsteil.0901,52.4922101,13.447823,POINT (13.447823 52.4922101),"Mo 10:00-12:00,13:00-16:00; Tu 16:00-19:00; We 12:00-17:00; Fr,Sa 10:00-12:00; Th,Su off",,,"OSM amenity=veterinary, Berlin",node/12238881093,True
12793397931,Tierärztezentrum Birte Nannen,"Schlierbacher Weg 5, 12349 Berlin",Neukölln,11008008,Buckow,0803,re_ortsteil.0803,52.4160917,13.4047411,POINT (13.4047411 52.41609169999999),,+49 30 25 92 17 88; https://www.tieraerztezentrum-nannen.de,,"OSM amenity=veterinary, Berlin",node/12793397931,True
12849196704,Praxis für Kleine Haustiere Dr. Niels Lösch,"Praxis für Kleine Haustiere Dr. Niels Lösch, Konrad-Wolf-Straße, Flusspferdhofsiedlung, Alt-Hohenschönhausen, Lichtenberg, Berlin, 13055, Deutschland",Lichtenberg,11011011,Alt-Hohenschönhausen,1110,re_ortsteil.1110,52.5399544,13.4849492,POINT (13.4849492 52.5399544),"Mo-We, Fr 10:00-12:00; Mo, Tu, Th 16:00-19:00; Fr 16:00-18:00; Sa 11:00-12:30",+49309866411; https://tierarzt-drloesch.de,,"OSM amenity=veterinary, Berlin",node/12849196704,True
12851066023,Dr. Pastor,"Brüsseler Straße 52a, 13353 Berlin",Mitte,11001001,Wedding,0105,re_ortsteil.0105,52.5486928,13.3531883,POINT (13.3531883 52.54869279999998),"Mo-Fr 09:00-11:00,16:00-19:00; Sa,Su 14:00-16:00",https://www.tierarztpraxis-pastor.de/,,"OSM amenity=veterinary, Berlin",node/12851066023,True
12877756489,Sonnenberg,"Sonnenberg, Seestraße, Rahnsdorf-Mühle, Rahnsdorf, Treptow-Köpenick, Berlin, 12589, Deutschland",Treptow-Köpenick,11009009,Rahnsdorf,0912,re_ortsteil.0912,52.4406394,13.6866147,POINT (13.6866147 52.4406394),,,,"OSM amenity=veterinary, Berlin",node/12877756489,True
12989186501,Tierarztpraxis am Wasserturm,"Rykestraße 4, 10405 Berlin",Pankow,11003003,Prenzlauer Berg,0301,re_ortsteil.0301,52.5350637,13.419688,POINT (13.419688 52.5350637),,https://www.tierarztpraxis-wasserturm.de/,,"OSM amenity=veterinary, Berlin",node/12989186501,True
13169469903,Haveldüne,"Gatower Straße 131,  Berlin",Spandau,11005005,Wilhelmstadt,0509,re_ortsteil.0509,52.508699,13.180438,POINT (13.180438 52.508699),,+49 30 362 91 07; https://www.tierarztpraxis-havelduene.de,,"OSM amenity=veterinary, Berlin",node/13169469903,True
13188941112,Praxis für Vögel & Reptilien,"Berliner Str. 69, 14169 Berlin",Steglitz-Zehlendorf,11006006,Zehlendorf,0604,re_ortsteil.0604,52.4399433,13.2754078,POINT (13.2754078 52.4399433),"Mo 09:00-13:00; Tu 15:00-19:00; We 09:00-13:00,15:00-19:00; Th 09:00-13:00; Fr 09:00-13:00,15:00-19:00",+4930 847 257 38; https://www.vogel-tierarzt.de,,"OSM amenity=veterinary, Berlin",node/13188941112,True
13344679483,Tierartzpraxis Sybille Schickert,"Tierartzpraxis Sybille Schickert, Eichborndamm, Alt-Wittenau, Wittenau, Reinickendorf, Berlin, 13437, Deutschland",Reinickendorf,11012012,Wittenau,1209,re_ortsteil.1209,52.5937039,13.3282999,POINT (13.3282999 52.5937039),,,,"OSM amenity=veterinary, Berlin",node/13344679483,True
13358308355,Roux,"Roux, Sakrower Landstraße, Alt-Kladow, Kladow, Spandau, Berlin, Teltow, 14089, Deutschland",Spandau,11005005,Kladow,0506,re_ortsteil.0506,52.452648,13.139175,POINT (13.139175 52.452648),,https://www.tierarztpraxis-roux.de/,,"OSM amenity=veterinary, Berlin",node/13358308355,True
24921047,Das Veterinärmedizinische Zentrum Berlin,"Scharnweberstraße 136, 13405 Berlin",Reinickendorf,11012012,Reinickendorf,1201,re_ortsteil.1201,52.56383603380803,13.325898385003244,POINT (13.325898385003244 52.56383603380803),24/7,+49 30 4127357; info@vetzentrum-berlin.de; https://www.vetzentrum-berlin.de/,,"OSM amenity=veterinary, Berlin",way/24921047,True
28608972,Zete Marton,"Alt-Reinickendorf 37, 13407 Berlin",Reinickendorf,11012012,Reinickendorf,1201,re_ortsteil.1201,52.57484167749068,13.351276845633086,POINT (13.351276845633086 52.57484167749068),"Mo-Fr 09:00-12:00, Mo,Th 16:00-19:00, Tu,We,Fr 15:00-18:00",,no,"OSM amenity=veterinary, Berlin",way/28608972,True
71173694,Tierärztlichen Klinik für Kleintiere,"Märkische Allee 258, 12679 Berlin",Marzahn-Hellersdorf,11010010,Marzahn,1001,re_ortsteil.1001,52.55555539479237,13.553247578348108,POINT (13.553247578348108 52.55555539479237),24/7,https://www.tierklinik-in-berlin.de/,yes,"OSM amenity=veterinary, Berlin",way/71173694,True
89101208,Tierarztpraxis Kathrin Böhm,"Robert-Siewert-Straße 90, 10318 Berlin",Lichtenberg,11011011,Karlshorst,1102,re_ortsteil.1102,52.49264998370056,13.536918159788865,POINT (13.536918159788863 52.49264998370056),"Th 10:00-18:00; Tu,We 10:00-19:00; Fr 10:00-15:00; Mo 10:00-17:00",+49 30 32669736,limited,"OSM amenity=veterinary, Berlin",way/89101208,True
117230559,Tierartzpraxis Gotthardt,"Winkler Straße 21, 14193 Berlin",Charlottenburg-Wilmersdorf,11004004,Grunewald,0404,re_ortsteil.0404,52.487615697246845,13.266615867092089,POINT (13.266615867092089 52.487615697246845),,,,"OSM amenity=veterinary, Berlin",way/117230559,True
163836866,Tierklinik Berlin-Biesdorf,"Alt-Biesdorf 22, 12683 Berlin",Marzahn-Hellersdorf,11010010,Biesdorf,1002,re_ortsteil.1002,52.50873002300115,13.55573553414166,POINT (13.55573553414166 52.508730023001156),"Mo-Fr 08:00-13:00,15:00-20:00; Sa 09:00-12:00",+49 30 5143760; https://www.tierklinik-in-biesdorf.de/,no,"OSM amenity=veterinary, Berlin",way/163836866,True
286010852,Tierarztpraxis Dr. Christine Mueller,"Südekumzeile 26E, 13591 Berlin",Spandau,11005005,Staaken,0504,re_ortsteil.0504,52.53114943497109,13.148550095436324,POINT (13.148550095436324 52.53114943497109),,,,"OSM amenity=veterinary, Berlin",way/286010852,True
