type,id,lat,lon,tags.addr:city,tags.addr:country,tags.addr:housenumber,tags.addr:postcode,tags.addr:street,tags.addr:suburb,tags.amenity,tags.check_date:opening_hours,tags.compressed_air,tags.fuel:adblue,tags.fuel:biodiesel,tags.fuel:diesel,tags.fuel:e10,tags.fuel:octane_95,tags.fuel:octane_98,tags.name,tags.opening_hours,tags.operator,tags.shop,tags.wheelchair,tags.brand,tags.brand:wikidata,tags.brand:wikipedia,tags.fuel:GTL_diesel,tags.fuel:biogas,tags.fuel:cng,tags.fuel:lpg,tags.fuel:octane_102,tags.surveillance,tags.website,tags.check_date,tags.dog,tags.email,tags.fax,tags.phone,tags.start_date,tags.indoor_seating,tags.organic,tags.outdoor_seating,tags.smoking,tags.opening_hours:signed,tags.diet:halal,tags.level,tags.payment:credit_cards,tags.payment:debit_cards,tags.payment:apple_pay,tags.payment:cards,tags.payment:cash,tags.payment:google_pay,tags.payment:paypal,tags.drink:club-mate,tags.entrance,tags.FIXME,tags.created_by,tags.name:signed,tags.toilets:wheelchair,tags.wheelchair:description,tags.noname,tags.post_office,tags.post_office:service_provider,tags.lottery,tags.post_office:brand,tags.post_office:ref,tags.origin,tags.alt_name,tags.cuisine,tags.ref:vatin,tags.name:de,tags.name:en,tags.addr:floor,tags.air_conditioning,tags.contact:instagram,tags.contact:website,tags.internet_access,tags.stroller,tags.toilets,tags.access:covid19,tags.delivery:covid19,tags.post_office:type,tags.contact:fax,tags.contact:phone,tags.name:ru,tags.opening_hours:covid19,tags.takeaway:covid19,tags.internet_access:fee,tags.atm,tags.atm:operator,tags.note:de,tags.ref:Hermes,tags.description,tags.coffee,tags.tobacco,tags.post_office:brand:wikidata,tags.note,tags.operator:wikidata,tags.ref,tags.currency:EUR,tags.source,tags.diet:gluten_free,tags.leisure,tags.cafe,tags.payment:coins,tags.vending:sweets,tags.vending:toys,tags.service:phone,tags.type,tags.diet:kosher,tags.diet:vegetarian,tags.post_box,tags.operator:wikipedia,tags.changing_table,tags.payment:mastercard,tags.payment:visa,tags.second_hand,tags.toilets:menstrual_products,tags.takeaway,tags.toilets:access,tags.parcel_pickup,tags.drink:coffee,tags.sells:tobacco,tags.name:zh,tags.addr:housename,tags.fixme,tags.contact:mobile,tags.dry_cleaning,tags.ice_cream,tags.drink:beer,tags.tickets:public_transport,tags.diet:vegan,tags.branch,tags.bulk_purchase,tags.diet:organic,tags.frozen_yogurt,tags.reusable_packaging:offer,tags.contact:email,tags.lgbtq,tags.post_office:letter,tags.post_office:parcel_to,tags.addr:place,tags.post_office:parcel_from,tags.post_office:parcel_pickup,tags.ref:deutsche_post,tags.tourism,tags.fair_trade,tags.payment:contactless,tags.payment:maestro,tags.payment:v_pay,tags.payment:app,tags.mapillary,tags.opening_date,tags.disused:name,tags.contact:facebook,tags.post_office:operator,tags.cash_in,tags.survey:date,tags.post_office:letter_from,tags.post_office:packaging,tags.post_office:stamps,tags.payment:girocard,tags.description:en,tags.old_name,tags.old_addr:housenumber,tags.old_addr:street,tags.reusable_packaging:accept,tags.wikidata,tags.wikipedia,tags.zero_waste,tags.not:brand:wikidata,tags.post_office:post_bank,tags.building,tags.roof:material,tags.roof:shape,tags.vending,tags.layer,tags.disused:shop,tags.service:copy,tags.service:fax,tags.service:scan,tags.self_checkout,tags.payment:american_express,tags.payment:notes,tags.payment:telephone_cards,tags.check_date:diet:gluten_free,tags.check_date:diet:halal,tags.payment:credit_cards:min_payment,tags.loc_name,tags.delivery,tags.bicycle,tags.craft,tags.indoor:level,tags.name:bg,tags.name:fa,tags.ramp:wheelchair,tags.toilets:charge,tags.smoking:outside,tags.description:name,tags.name:ar,tags.post_office:service_provider:wikidata,tags.wheelchair:description:de,tags.wheelchair:description:en,tags.payment:account_cards,tags.payment:alipay,tags.payment:bancomat,tags.payment:blik,tags.payment:cheque,tags.payment:clipper,tags.payment:cryptocurrencies,tags.payment:diners_club,tags.payment:discover_card,tags.payment:dkv,tags.payment:electronic_purses,tags.payment:ep_easycard,tags.payment:ep_geldkarte,tags.payment:ep_ipass,tags.payment:jcb,tags.payment:mastercard_contactless,tags.payment:prepaid_ticket,tags.payment:unionpay,tags.payment:uta,tags.payment:visa_debit,tags.payment:visa_electron,tags.payment:wechat,tags.check_date:currency:XBT,tags.currency:XBT,tags.payment:lightning,tags.payment:lightning_contactless,tags.payment:onchain,tags.description:de,tags.payment:ec,tags.payment:ec_cards,tags.safety:hand_sanitizer:covid19,tags.sells:lottery,tags.sells:public_transport_tickets,tags.description:pl,tags.ref:DeutschePost,tags.golf,tags.cash_withdrawal:type,tags.post_office:opening_hours,tags.money_transfer,tags.mobile,tags.fuel:HGV_diesel,tags.fuel:octane_100,tags.post_office:id_check,tags.name:ko,tags.public_transport,tags.ticket
node,26867411,52.5019744,13.2944957,Berlin,DE,14,10711,Heilbronner Straße,Halensee,fuel,2022-04-01,yes,yes,yes,yes,yes,yes,yes,Bavaria petrol,Mo-Fr 07:00-22:00; Sa 08:00-22:00,Bavaria Petrol,kiosk,no,,,,,,,,,,,,,,,,,,,,,,,,,,,,,,,,,,,,,,,,,,,,,,,,,,,,,,,,,,,,,,,,,,,,,,,,,,,,,,,,,,,,,,,,,,,,,,,,,,,,,,,,,,,,,,,,,,,,,,,,,,,,,,,,,,,,,,,,,,,,,,,,,,,,,,,,,,,,,,,,,,,,,,,,,,,,,,,,,,,,,,,,,,,,,,,,,,,,,,,,,,,,,,,,,,,,,,,,,,,,,,,,,,
node,29997723,52.5083702,13.2809474,Berlin,DE,8-10,14057,Messedamm,,fuel,,yes,yes,,yes,yes,yes,,Aral,24/7,Anne Notzke,kiosk,yes,Aral,Q565734,en:Aral AG,yes,yes,yes,yes,yes,outdoor,https://tankstelle.aral.de/tankstelle/berlin/messedamm-6/28601500/,,,,,,,,,,,,,,,,,,,,,,,,,,,,,,,,,,,,,,,,,,,,,,,,,,,,,,,,,,,,,,,,,,,,,,,,,,,,,,,,,,,,,,,,,,,,,,,,,,,,,,,,,,,,,,,,,,,,,,,,,,,,,,,,,,,,,,,,,,,,,,,,,,,,,,,,,,,,,,,,,,,,,,,,,,,,,,,,,,,,,,,,,,,,,,,,,,,,,,,,,,,,,,,,,,,,,,,,
node,63253672,52.4993218,13.2961178,Berlin,DE,39,10711,Joachim-Friedrich-Straße,Halensee,,,,,,,,,,Späti Joe,24/7,,convenience,,,,,,,,,,,,2025-05-11,,,,,,,,,,,,,,,,,,,,,,,,,,,,,,,,,,,,,,,,,,,,,,,,,,,,,,,,,,,,,,,,,,,,,,,,,,,,,,,,,,,,,,,,,,,,,,,,,,,,,,,,,,,,,,,,,,,,,,,,,,,,,,,,,,,,,,,,,,,,,,,,,,,,,,,,,,,,,,,,,,,,,,,,,,,,,,,,,,,,,,,,,,,,,,,,,,,,,,,,,,,,,,,,,,,,,,,
node,253616592,52.5110467,13.4626981,,,,,,,,2025-09-04,,,,,,,,Mein Markt Pham,Mo-Fr 08:00-20:00; Sa 08:00-19:00,,convenience,limited,,,,,,,,,,,,no,,,,,,,,,,,,,,,,,,,,,,,,,,,,,,,,,,,,,,,,,,,,,,,,,,,,,,,,,,,,,,,,,,,,,,,,,,,,,,,,,,,,,,,,,,,,,,,,,,,,,,,,,,,,,,,,,,,,,,,,,,,,,,,,,,,,,,,,,,,,,,,,,,,,,,,,,,,,,,,,,,,,,,,,,,,,,,,,,,,,,,,,,,,,,,,,,,,,,,,,,,,,,,,,,,,,,,
node,266629404,52.5092086,13.5874999,Berlin,DE,45,12621,Mädewalder Weg,Kaulsdorf,,,,,,,,,,...nah und gut,Mo-Fr 07:00-19:00; Sa 07:00-13:00; PH off,Heinz Vollack,convenience,no,EDEKA,Q701755,,,,,,,,,,,e-markt-vollack@t-online.de,+49 30 56698089,+49 30 5677706,1977,,,,,,,,,,,,,,,,,,,,,,,,,,,,,,,,,,,,,,,,,,,,,,,,,,,,,,,,,,,,,,,,,,,,,,,,,,,,,,,,,,,,,,,,,,,,,,,,,,,,,,,,,,,,,,,,,,,,,,,,,,,,,,,,,,,,,,,,,,,,,,,,,,,,,,,,,,,,,,,,,,,,,,,,,,,,,,,,,,,,,,,,,,,,,,,,,,,,,,,,,,,,,,,,,,
node,268424318,52.5966222,13.2909504,,,,,,,,,,,,,,,,,,,kiosk,yes,,,,,,,,,,,,,,,,,,,,,,,,,,,,,,,,,,,,,,,,,,,,,,,,,,,,,,,,,,,,,,,,,,,,,,,,,,,,,,,,,,,,,,,,,,,,,,,,,,,,,,,,,,,,,,,,,,,,,,,,,,,,,,,,,,,,,,,,,,,,,,,,,,,,,,,,,,,,,,,,,,,,,,,,,,,,,,,,,,,,,,,,,,,,,,,,,,,,,,,,,,,,,,,,,,,,,,,,,,,,,,,,,,
node,269475044,52.501786,13.4165373,Berlin,DE,20,10999,Dresdener Straße,Kreuzberg,fast_food,2022-04-19,,,,,,,,Milchladen,Mo-Fr 11:00-18:00; Su 13:00-18:00,,convenience,no,,,,,,,,,,,,,,,,,yes,only,yes,no,,,,,,,,,,,,,,,,,,,,,,,,,,,,,,,,,,,,,,,,,,,,,,,,,,,,,,,,,,,,,,,,,,,,,,,,,,,,,,,,,,,,,,,,,,,,,,,,,,,,,,,,,,,,,,,,,,,,,,,,,,,,,,,,,,,,,,,,,,,,,,,,,,,,,,,,,,,,,,,,,,,,,,,,,,,,,,,,,,,,,,,,,,,,,,,,,,,,,,,,,,,,,,
node,270719151,52.4346233,13.3424786,Berlin,,14a,12247,Dillgesstraße,,,,,,,,,,,Zeitungskiosk Bagci,,,kiosk,limited,,,,,,,,,,,,,,,,,,,,,,,,,,,,,,,,,,,,,,,,,,,,,,,,,,,,,,,,,,,,,,,,,,,,,,,,,,,,,,,,,,,,,,,,,,,,,,,,,,,,,,,,,,,,,,,,,,,,,,,,,,,,,,,,,,,,,,,,,,,,,,,,,,,,,,,,,,,,,,,,,,,,,,,,,,,,,,,,,,,,,,,,,,,,,,,,,,,,,,,,,,,,,,,,,,,,,,,,,,,,,,,,,,
node,271419848,52.5289708,13.3159246,Berlin,DE,,,,Moabit,,2025-10-16,,,,,,,,Berlin Tag und Nacht 2,,,kiosk,limited,,,,,,,,,,,,,,,,,,,,no,no,,,,,,,,,,,,,,,,,,,,,,,,,,,,,,,,,,,,,,,,,,,,,,,,,,,,,,,,,,,,,,,,,,,,,,,,,,,,,,,,,,,,,,,,,,,,,,,,,,,,,,,,,,,,,,,,,,,,,,,,,,,,,,,,,,,,,,,,,,,,,,,,,,,,,,,,,,,,,,,,,,,,,,,,,,,,,,,,,,,,,,,,,,,,,,,,,,,,,,,,,,,,,
node,277681454,52.4990942,13.3931869,,,,,,,,,,,,,,,,Bagdad Lebensmittel,,,convenience,no,,,,,,,,,,,,,,,,,,,,,,,,,,,,,,,,,,,,,,,,,,,,,,,,,,,,,,,,,,,,,,,,,,,,,,,,,,,,,,,,,,,,,,,,,,,,,,,,,,,,,,,,,,,,,,,,,,,,,,,,,,,,,,,,,,,,,,,,,,,,,,,,,,,,,,,,,,,,,,,,,,,,,,,,,,,,,,,,,,,,,,,,,,,,,,,,,,,,,,,,,,,,,,,,,,,,,,,,,,,,,,,,,,
node,277836772,52.4690861,13.4672713,,,,,,,,,,,,,,,,Bistro,,,kiosk,,,,,,,,,,,,,,,,,,,,,,,,,,,,,,,,,,,,,,,,,,,,,,,,,,,,,,,,,,,,,,,,,,,,,,,,,,,,,,,,,,,,,,,,,,,,,,,,,,,,,,,,,,,,,,,,,,,,,,,,,,,,,,,,,,,,,,,,,,,,,,,,,,,,,,,,,,,,,,,,,,,,,,,,,,,,,,,,,,,,,,,,,,,,,,,,,,,,,,,,,,,,,,,,,,,,,,,,,,,,,,,,,,,
node,278124916,52.5083609,13.4530076,Berlin,DE,9,10245,Revaler Straße,Friedrichshain,,2023-11-27,,,,,,,,Drinks & more,,,convenience,yes,,,,,,,,,,,2024-04-18,,,,,,,,,,no,no,0,no,no,,,,,,,,,,,,,,,,,,,,,,,,,,,,,,,,,,,,,,,,,,,,,,,,,,,,,,,,,,,,,,,,,,,,,,,,,,,,,,,,,,,,,,,,,,,,,,,,,,,,,,,,,,,,,,,,,,,,,,,,,,,,,,,,,,,,,,,,,,,,,,,,,,,,,,,,,,,,,,,,,,,,,,,,,,,,,,,,,,,,,,,,,,,,,,,,,,,,,,,,,
node,280244277,52.5563326,13.3432159,,,,,,,,,,,,,,,,Mini-Laden,Mo-Sa 06:00-19:00,,kiosk,limited,,,,,,,,,,,,,,,,,,,,,,,,,,,,,,,,,,,,,,,,,,,,,,,,,,,,,,,,,,,,,,,,,,,,,,,,,,,,,,,,,,,,,,,,,,,,,,,,,,,,,,,,,,,,,,,,,,,,,,,,,,,,,,,,,,,,,,,,,,,,,,,,,,,,,,,,,,,,,,,,,,,,,,,,,,,,,,,,,,,,,,,,,,,,,,,,,,,,,,,,,,,,,,,,,,,,,,,,,,,,,,,,,,
node,281413022,52.452062,13.5784714,Berlin,DE,4,,Friedrichshagener Straße,Köpenick,fuel,,yes,,yes,yes,yes,yes,yes,Spreves,Mo-Su 00:00-24:00,,kiosk,,,,,,,,yes,,,,,,,,,,,,,,,,,,,,,,,,,,,,,,,,,,,,,,,,,,,,,,,,,,,,,,,,,,,,,,,,,,,,,,,,,,,,,,,,,,,,,,,,,,,,,,,,,,,,,,,,,,,,,,,,,,,,,,,,,,,,,,,,,,,,,,,,,,,,,,,,,,,,,,,,,,,,,,,,,,,,,,,,,,,,,,,,,,,,,,,,,,,,,,,,,,,,,,,,,,,,,,,,,,,,,,,,,,,
node,282406641,52.5108993,13.4611651,Berlin,DE,14,10245,Gärtnerstraße,Friedrichshain,,2023-11-23,,,,,,,,Drink Oase,,,convenience,no,,,,,,,,,,,,,,,,,,,,,no,,,,,,,,,,,,,,,,,,,,,,,,,,,,,,,,,,,,,,,,,,,,,,,,,,,,,,,,,,,,,,,,,,,,,,,,,,,,,,,,,,,,,,,,,,,,,,,,,,,,,,,,,,,,,,,,,,,,,,,,,,,,,,,,,,,,,,,,,,,,,,,,,,,,,,,,,,,,,,,,,,,,,,,,,,,,,,,,,,,,,,,,,,,,,,,,,,,,,,,,,,,,,
node,285079008,52.5125022,13.4602102,Berlin,DE,102,10245,Boxhagener Straße,Friedrichshain,,,,,,,,,,Drinkbox,,,convenience,,,,,,,,,,,,,,,,,,,,,,,,,,,,,,,,,,,,,,,,,,,,,,,,,,,,,,,,,,,,,,,,,,,,,,,,,,,,,,,,,,,,,,,,,,,,,,,,,,,,,,,,,,,,,,,,,,,,,,,,,,,,,,,,,,,,,,,,,,,,,,,,,,,,,,,,,,,,,,,,,,,,,,,,,,,,,,,,,,,,,,,,,,,,,,,,,,,,,,,,,,,,,,,,,,,,,,,,,,,,,,,,,,,
node,285096511,52.5114694,13.4490353,Berlin,DE,43,10243,Gubener Straße,Friedrichshain,,,,,,,,,,Späti am Comenius,"Mo-Th 08:00-00:00, Fr 08:00-01:00, Sa 08:00-01:00, So 08:00-23:00",H.Y. Soysüren,kiosk,limited,,,,,,,,,,,,,,,,,,,,,,,,,,yes,yes,yes,yes,yes,,,,,,,,,,,,,,,,,,,,,,,,,,,,,,,,,,,,,,,,,,,,,,,,,,,,,,,,,,,,,,,,,,,,,,,,,,,,,,,,,,,,,,,,,,,,,,,,,,,,,,,,,,,,,,,,,,,,,,,,,,,,,,,,,,,,,,,,,,,,,,,,,,,,,,,,,,,,,,,,,,,,,,,,,,,,,,,,,,,,,,,,,,,,,,,,,,,,
node,286210165,52.4992044,13.4635638,,,,,,,,2023-10-29,,,,,,,,Spätverkauf,"Mo-Fr 08:00-23:00; Sa,Su 09:00-23:00",,convenience,yes,,,,,,,,,,,,,,,,,,,,,,,,,,,,,,,yes,,,,,,,,,,,,,,,,,,,,,,,,,,,,,,,,,,,,,,,,,,,,,,,,,,,,,,,,,,,,,,,,,,,,,,,,,,,,,,,,,,,,,,,,,,,,,,,,,,,,,,,,,,,,,,,,,,,,,,,,,,,,,,,,,,,,,,,,,,,,,,,,,,,,,,,,,,,,,,,,,,,,,,,,,,,,,,,,,,,,,,,,,,,,,,,,,,,
node,287297820,52.5291171,13.4094976,Berlin,,188,10119,Schönhauser Allee,,,2025-09-30,,,,,,,,Midnight Shop,"Su-Th 08:00-04:00, Fr,Sa 08:00-05:00",,convenience,yes,,,,,,,,,,,2025-09-30,,,,,,,,,,,,0,,,,,,,,,,,,,,,,,,,,,,,,,,,,,,,,,,,,,,,,,,,,,,,,,,,,,,,,,,,,,,,,,,,,,,,,,,,,,,,,,,,,,,,,,,,,,,,,,,,,,,,,,,,,,,,,,,,,,,,,,,,,,,,,,,,,,,,,,,,,,,,,,,,,,,,,,,,,,,,,,,,,,,,,,,,,,,,,,,,,,,,,,,,,,,,,,,,,,,,,,,,
node,291256974,52.5099551,13.4552692,Berlin,DE,23,10245,Libauer Straße,Friedrichshain,,,,,,,,,,Kiez Kiosk,,,kiosk,yes,,,,,,,,,,,2024-09-10,,,,,,,,,,no,,,,,,,,,,,yes,,,,,,,,,,,,,,,,,,,,,,,,,,,,,,,,,,,,,,,,,,,,,,,,,,,,,,,,,,,,,,,,,,,,,,,,,,,,,,,,,,,,,,,,,,,,,,,,,,,,,,,,,,,,,,,,,,,,,,,,,,,,,,,,,,,,,,,,,,,,,,,,,,,,,,,,,,,,,,,,,,,,,,,,,,,,,,,,,,,,,,,,,,,,,,,,,,
node,292909486,52.4996912,13.3304422,Berlin,DE,24a,10719,Joachimsthaler Straße,Wilmersdorf,,,,,,,,,,tabak & presse,Mo-Fr 10:00-19:00; Sa 10:00-17:00,,kiosk,limited,,,,,,,,,,,,,,,,,,,,,,,,,,,,,,,,,,,,,,,,,,,,,,,,,,,,,,,,,,,,,,,,,,,,,,,,,,,,,,,,,,,,,,,,,,,,,,,,,,,,,,,,,,,,,,,,,,,,,,,,,,,,,,,,,,,,,,,,,,,,,,,,,,,,,,,,,,,,,,,,,,,,,,,,,,,,,,,,,,,,,,,,,,,,,,,,,,,,,,,,,,,,,,,,,,,,,,,,,,,,,,,,,,
node,307640296,52.6378223,13.2050876,,,,,,,,2024-03-20,,,,,,,,Eckert,Mo-Fr 04:30-21:00; Sa 06:00-21:00; Su 07:00-21:00,,kiosk,yes,,,,,,,,,,,,,,,,,,,,,,,,,,,,,,,,,name,,,,,,,,,,,,,,,,,,,,,,,,,,,,,,,,,,,,,,,,,,,,,,,,,,,,,,,,,,,,,,,,,,,,,,,,,,,,,,,,,,,,,,,,,,,,,,,,,,,,,,,,,,,,,,,,,,,,,,,,,,,,,,,,,,,,,,,,,,,,,,,,,,,,,,,,,,,,,,,,,,,,,,,,,,,,,,,,,,,,,,,,,,,,,,,,,
node,310267641,52.492463,13.4177005,Berlin,DE,55,10967,Dieffenbachstraße,Kreuzberg,,,,,,,,,,E-Kiezmarkt,Mo-Sa 07:00-20:00,,convenience,no,,,,,,,,,,,2025-04-17,,,,,,,,,,,,,,,,,,,,,,,,,,,,,,,,,,,,,,,,,,,,,,,,,,,,,,,,,,,,,,,,,,,,,,,,,,,,,,,,,,,,,,,,,,,,,,,,,,,,,,,,,,,,,,,,,,,,,,,,,,,,,,,,,,,,,,,,,,,,,,,,,,,,,,,,,,,,,,,,,,,,,,,,,,,,,,,,,,,,,,,,,,,,,,,,,,,,,,,,,,,,,,,,,,,,,,,
node,310377176,52.4808992,13.3430964,Berlin,DE,37,10825,Innsbrucker Straße,Schöneberg,,2020-09-26,,,,,,,,Mein Markt,Mo-Fr 08:00-20:00; Sa 08:00-16:00,,convenience,no,,,,,,,,,,,,,,,,,,,,,,,,,,,,,,,,,,,,,,,,,,,,,,,,,,,,,,,,,,,,,,,,,,,,,,,,,,,,,,,,,,,,,,,,,,,,,,,,,,,,,,,,,,,,,,,,,,,,,,,,,,,,,,,,,,,,,,,,,,,,,,,,,,,,,,,,,,,,,,,,,,,,,,,,,,,,,,,,,,,,,,,,,,,,,,,,,,,,,,,,,,,,,,,,,,,,,,,,,,,,,,,,,,
node,312698855,52.4956016,13.4017916,,,,,,,,,,,,,,,,,Mo-Fr 06:00-19:00; Sa 06:00-15:00; Su 07:00-14:00,,kiosk,limited,,,,,,,,,,,2025-10-31,,,,,,,,,,,,,,,,,,,,,,,Potlatch 0.10f,no,no,Stufen am Eingang,,,,,,,,,,,,,,,,,,,,,,,,,,,,,,,,,,,,,,,,,,,,,,,,,,,,,,,,,,,,,,,,,,,,,,,,,,,,,,,,,,,,,,,,,,,,,,,,,,,,,,,,,,,,,,,,,,,,,,,,,,,,,,,,,,,,,,,,,,,,,,,,,,,,,,,,,,,,,,,,,,,,,,,,,,,,,,,,,,,,,,,,,,,,,
node,312820851,52.5429183,13.376473,Berlin,DE,78,13347,Gerichtstraße,Gesundbrunnen,,,,,,,,,,Spätkauf,Mo-Sa 07:30-23:00; Su 14:00-20:00,,convenience,no,,,,,,,,,,,2025-01-17,,,,,,,,,,,,,,,,,,,,,,,,,,,yes,post_partner,DHL,,,,,,,,,,,,,,,,,,,,,,,,,,,,,,,,,,,,,,,,,,,,,,,,,,,,,,,,,,,,,,,,,,,,,,,,,,,,,,,,,,,,,,,,,,,,,,,,,,,,,,,,,,,,,,,,,,,,,,,,,,,,,,,,,,,,,,,,,,,,,,,,,,,,,,,,,,,,,,,,,,,,,,,,,,,,,,,,,,,,,,,,,,
node,313011082,52.5646647,13.4214042,Berlin,DE,18,13189,Neumannstraße,Pankow,,2025-11-02,,,,,,,,,"Mo-Fr 09:30-13:00,14:00-18:30; Sa 10:00-13:00",,kiosk,limited,,,,,,,,,,,,,,,,,,,,,,,,,,,,,,,,,,,,,,yes,post_partner,,yes,DHL;Deutsche Post,562,,,,,,,,,,,,,,,,,,,,,,,,,,,,,,,,,,,,,,,,,,,,,,,,,,,,,,,,,,,,,,,,,,,,,,,,,,,,,,,,,,,,,,,,,,,,,,,,,,,,,,,,,,,,,,,,,,,,,,,,,,,,,,,,,,,,,,,,,,,,,,,,,,,,,,,,,,,,,,,,,,,,,,,,,,,,,,,,,,,,,,,
node,313874489,52.5257591,13.4519646,,,,,,,,,,,,,,,,Asia Supermarket,Mo-Sa 10:00-23:00,,convenience,no,,,,,,,,,,,,,,,,,,,,,,,,,,,,,,,,,,,,,,,,,,,,asian,,,,,,,,,,,,,,,,,,,,,,,,,,,,,,,,,,,,,,,,,,,,,,,,,,,,,,,,,,,,,,,,,,,,,,,,,,,,,,,,,,,,,,,,,,,,,,,,,,,,,,,,,,,,,,,,,,,,,,,,,,,,,,,,,,,,,,,,,,,,,,,,,,,,,,,,,,,,,,,,,,,,,,,,,,,,,,,,,,,,,,
node,313874493,52.5262878,13.4516579,Berlin,DE,52,10249,Ebertystraße,Friedrichshain,,,,,,,,,,Eren,Mo-Sa 08:00-24:00,,convenience,no,,,,,,,,,,,,,,,,,,,,,,,,,,,,,,,,,,,,,,,,,,,,,,,,,,,,,,,,,,,,,,,,,,,,,,,,,,,,,,,,,,,,,,,,,,,,,,,,,,,,,,,,,,,,,,,,,,,,,,,,,,,,,,,,,,,,,,,,,,,,,,,,,,,,,,,,,,,,,,,,,,,,,,,,,,,,,,,,,,,,,,,,,,,,,,,,,,,,,,,,,,,,,,,,,,,,,,,,,,,,,,,,,,
node,314401614,52.5231705,13.4531781,Berlin,DE,41,10249,Straßmannstraße,Friedrichshain,,2024-07-22,,,,,,,,Asia Lebensmittel,,,convenience,no,,,,,,,,,,,,,,,,,,,,,no,,,,,,,,,,,,,,,,,,,,,,,asian,,,,,,,,,,,,,,,,,,,,,,,,,,,,,,,,,,,,,,,,,,,,,,,,,,,,,,,,,,,,,,,,,,,,,,,,,,,,,,,,,,,,,,,,,,,,,,,,,,,,,,,,,,,,,,,,,,,,,,,,,,,,,,,,,,,,,,,,,,,,,,,,,,,,,,,,,,,,,,,,,,,,,,,,,,,,,,,,,,,,,,
node,314401618,52.5227042,13.4513021,,,,,,,,2024-01-30,,,,,,,,Mini Markt 25,Mo-Sa 10:00-21:30,,convenience,no,,,,,,,,,,,,,,,,,,,,,,,,,,,,,,,,,,,,,,,,,,,,,,,,,,,,,,,,,,,,,,,,,,,,,,,,,,,,,,,,,,,,,,,,,,,,,,,,,,,,,,,,,,,,,,,,,,,,,,,,,,,,,,,,,,,,,,,,,,,,,,,,,,,,,,,,,,,,,,,,,,,,,,,,,,,,,,,,,,,,,,,,,,,,,,,,,,,,,,,,,,,,,,,,,,,,,,,,,,,,,,,,,,
node,314401620,52.5223054,13.4509232,Berlin,DE,45,10249,Petersburger Straße,Friedrichshain,cafe,2024-07-19,,,,,,,,Ja Dilo,,,convenience,no,,,,,,,,,,,,,,,,,yes,,yes,outside,no,,,yes,yes,,,,,,,,,,,,,,,,,,,,Café More,cake,,,,,,,,,,,,,,,,,,,,,,,,,,,,,,,,,,,,,,,,,,,,,,,,,,,,,,,,,,,,,,,,,,,,,,,,,,,,,,,,,,,,,,,,,,,,,,,,,,,,,,,,,,,,,,,,,,,,,,,,,,,,,,,,,,,,,,,,,,,,,,,,,,,,,,,,,,,,,,,,,,,,,,,,,,,,,,,,,,,,
node,314401622,52.5231896,13.4503447,,,,,,,,2023-07-07,,,,,,,,Asia Shop,,,convenience,no,,,,,,,,,,,,,,,,,,,,,no,,,,,,,,,,,,,,,,,,,,,,,asian,,,,,,,,,,,,,,,,,,,,,,,,,,,,,,,,,,,,,,,,,,,,,,,,,,,,,,,,,,,,,,,,,,,,,,,,,,,,,,,,,,,,,,,,,,,,,,,,,,,,,,,,,,,,,,,,,,,,,,,,,,,,,,,,,,,,,,,,,,,,,,,,,,,,,,,,,,,,,,,,,,,,,,,,,,,,,,,,,,,,,,
node,322153511,52.5270008,13.3983824,,,39,10115,Große Hamburger Straße,,,,,,,,,,,Kiezmarkt,Mo-Sa 08:00-22:00,Kiezmarkt LH GmbH,convenience,yes,Edeka,,,,,,,,,,2024-06-22,,,,+49 30 28388905,,,,,,,,0,yes,yes,,,yes,,,,,,,,,,,,,,,,,,,DE3009207988,,,,,,,,,,,,,,,,,,,,,,,,,,,,,,,,,,,,,,,,,,,,,,,,,,,,,,,,,,,,,,,,,,,,,,,,,,,,,,,,,,,,,,,,,,,,,,,,,,,,,,,,,,,,,,,,,,,,,,,,,,,,,,,,,,,,,,,,,,,,,,,,,,,,,,,,,,,,,,,,,,,,,,,,,,,,,,,,,,,
node,324227451,52.5165439,13.382678,,,67,,Unter den Linden,,,,,,,,,,,Linden Grill,,,kiosk,yes,,,,,,,,,,,,,,,,,,,,,,,,,,,,,,,,,,,,,,,,,,,,,,,,Linden Grill,Linden Grill,,,,,,,,,,,,,,,,,,,,,,,,,,,,,,,,,,,,,,,,,,,,,,,,,,,,,,,,,,,,,,,,,,,,,,,,,,,,,,,,,,,,,,,,,,,,,,,,,,,,,,,,,,,,,,,,,,,,,,,,,,,,,,,,,,,,,,,,,,,,,,,,,,,,,,,,,,,,,,,,,,,,,,,,,,,,,,,,,
node,331347585,52.5087187,13.4616129,Berlin,DE,19,10245,Wühlischstraße,Friedrichshain,,2025-09-04,,,,,,,,Nice 2 See U,,,convenience,no,,,,,,,,,,,,,,,,,,,,,no,,,,,,,,,,,,,,,,,,,,,,,,,,,,,,,,,,,,,,,,,,,,,,,,,,,,,,,,,,,,,,,,,,,,,,,,,,,,,,,,,,,,,,,,,,,,,,,,,,,,,,,,,,,,,,,,,,,,,,,,,,,,,,,,,,,,,,,,,,,,,,,,,,,,,,,,,,,,,,,,,,,,,,,,,,,,,,,,,,,,,,,,,,,,,,,,,,,,,,,,,,,,,
node,345783262,52.4430926,13.2952128,Berlin,DE,1,12205,Baseler Straße,Lichterfelde,,,,,,,,,,Kiosk 24h,24/7,,kiosk,yes,,,,,,,,,,,2025-05-30,,,,,,,,,,,,,,,,,,,,,,,,,,,,,,,,,,,,,,,,,,,,,,,,,,,,,,,,,,,,,,,,,,,,,,,,,,,,,,,,,,,,,,,,,,,,,,,,,,,,,,,,,,,,,,,,,,,,,,,,,,,,,,,,,,,,,,,,,,,,,,,,,,,,,,,,,,,,,,,,,,,,,,,,,,,,,,,,,,,,,,,,,,,,,,,,,,,,,,,,,,,,,,,,,,,,,,,
node,364135228,52.4756969,13.4247724,,,,,,,,2022-12-27,,,,,,,,Orange,,,convenience,limited,,,,,,,,,,,,,,,,,,,,,no,,,,,,,,,,,,,,,,,,,,,,,,,,,,,,,,,,,,,,,,,,,,,,,,,,,,,,,,,,,,,,,,,,,,,,,,,,,,,,,,,,,,,,,,,,,,,,,,,,,,,,,,,,,,,,,,,,,,,,,,,,,,,,,,,,,,,,,,,,,,,,,,,,,,,,,,,,,,,,,,,,,,,,,,,,,,,,,,,,,,,,,,,,,,,,,,,,,,,,,,,,,,,
node,410135914,52.4956379,13.4364652,Berlin,DE,40,10999,Wiener Straße,Kreuzberg,,,,,,,,,,Multi-Kulti-Shop,"Su-Th 10:00-24:00, Fr,Sa 10:00-24:00+, Mo-Th 07:30-24:00, Fr 07:30-01:30, Sa 08:00-24:00",,kiosk,no,,,,,,,,,,,,,,,,,,,,,,,,,,,,,,,,,,,,,,,,,,,,,,,,,,,,,,,,,,,,,,,,,,,,,,,,,,,,,,,,,,,,,,,,,,,,,,,,,,,,,,,,,,,,,,,,,,,,,,,,,,,,,,,,,,,,,,,,,,,,,,,,,,,,,,,,,,,,,,,,,,,,,,,,,,,,,,,,,,,,,,,,,,,,,,,,,,,,,,,,,,,,,,,,,,,,,,,,,,,,,,,,,,
node,410135938,52.4946108,13.4291461,,,,,,,,,,,,,,,,,,,kiosk,no,,,,,,,,,,,,,,,,,,,,,,,,,,,,,,,,,,,no,,,,,,,,,,,,,,,,,,,,,,,,,,,,,,,,,,,,,,,,,,,,,,,,,,,,,,,,,,,,,,,,,,,,,,,,,,,,,,,,,,,,,,,,,,,,,,,,,,,,,,,,,,,,,,,,,,,,,,,,,,,,,,,,,,,,,,,,,,,,,,,,,,,,,,,,,,,,,,,,,,,,,,,,,,,,,,,,,,,,,,,,,,,,,,,
node,411666633,52.5090075,13.5879737,,,,,,,,,,,,,,,,"Lotto, Zeitungen, Tabak",Mo-Fr 07:00-18:00;Sa 07:00-13:00;PH off,,kiosk,,,,,,,,,,,,,,,,,,,,,,,,,,,,,,,,,,,,,,,,post_partner,Hermes Group,,Hermes PaketShop,,,,,,,,,,,,,,,,,,,,,,,,,,,,,,,,,,,,,,,,,,,,,,,,,,,,,,,,,,,,,,,,,,,,,,,,,,,,,,,,,,,,,,,,,,,,,,,,,,,,,,,,,,,,,,,,,,,,,,,,,,,,,,,,,,,,,,,,,,,,,,,,,,,,,,,,,,,,,,,,,,,,,,,,,,,,,,,,,,,,,,,,
node,411899540,52.5282633,13.3430149,,,,,,,,2025-03-29,,,,,,,,All in One Shop,,,convenience,no,,,,,,,,,,,,,,,,,,,,,no,,,yes,yes,,,,,,,,,,,,,,,,,,,,,,,,,,,,,,,,,,,,,,,,,,,,,,,,,,,,,,,,,,,,,,,,,,,,,,,,,,,,,,,,,,,,,,,,,,,,,,,,,,,,,,,,,,,,,,,,,,,,,,,,,,,,,,,,,,,,,,,,,,,,,,,,,,,,,,,,,,,,,,,,,,,,,,,,,,,,,,,,,,,,,,,,,,,,,,,,,,,,,,,,,
node,415551368,52.5430552,13.4165959,Berlin,DE,33,10437,Lychener Straße,Prenzlauer Berg,,,,,,,,,,KIOSK,,,kiosk,,,,,,,,,,,,,,,,,,,,,,,,,,,,,,,,,,,,,,,,,,,,,,,,,,,,,,,,,,,,,,,,,,,,,,,,,,,,,,,,,,,,,,,,,,,,,,,,,,,,,,,,,,,,,,,,,,,,,,,,,,,,,,,,,,,,,,,,,,,,,,,,,,,,,,,,,,,,,,,,,,,,,,,,,,,,,,,,,,,,,,,,,,,,,,,,,,,,,,,,,,,,,,,,,,,,,,,,,,,,,,,,,,,
node,420512359,52.4550699,13.375534,Berlin,,1,12105,Alarichstraße,,,,,,,,,,,Spätkauf am Atillaplatz,"Mo-Th 06:00-00:00, Fr 06:00-01:00, Sa 10:00-00:30, Su 11:00-22:00",Spätkauf,convenience,no,,,,,,,,,,,,,,,+49 30 63412121,,,,,,,,,,,,,yes,,,,,,,,,,,,,,,,,,,,,,,,,,,,,,,,,,,,,,,,,,,,,,,,,,,,,,,,,,,,,,,,,,,,,,,,,,,,,,,,,,,,,,,,,,,,,,,,,,,,,,,,,,,,,,,,,,,,,,,,,,,,,,,,,,,,,,,,,,,,,,,,,,,,,,,,,,,,,,,,,,,,,,,,,,,,,,,,,,,,,,,,,,,,,,,,,,,,,,
node,427670051,52.5120271,13.4964222,,,,,,,,,,,,,,,,Späti,"PH,Mo-Su 06:00-24:00",,convenience,,,,,,,,,,,,,,,,,,,,,,,,,,,,,,,,,,,,,,,,,,,,,,,,,,,,,,,,,,,,,,,,,,,,,,,,,,,,,,,,,,,,,,,,,,,,,,,,,,,,,,,,,,,,,,,,,,,,,,,,,,,,,,,,,,,,,,,,,,,,,,,,,,,,,,,,,,,,,,,,,,,,,,,,,,,,,,,,,,,,,,,,,,,,,,,,,,,,,,,,,,,,,,,,,,,,,,,,,,,,,,,,,,,
node,427670057,52.5120549,13.4970713,,,243,10365,Frankfurter Allee,,,,,,,,,,,Sheran Späti + Hermes Paketshop,Mo-Su 07:00-01:00,,convenience,no,,,,,,,,,,,,,,,,,yes,,yes,,,,,,,,,,,,,,,,,,,,,,,,,,,,,,,,,,,,,,,,,,,,,,,,,,,,,,,,,,,,,,,,,,,,,,,,,,,,,,,,,,,,,,,,,,,,,,,,,,,,,,,,,,,,,,,,,,,,,,,,,,,,,,,,,,,,,,,,,,,,,,,,,,,,,,,,,,,,,,,,,,,,,,,,,,,,,,,,,,,,,,,,,,,,,,,,,,,,,,,,,,,,,,,
node,427670062,52.5117432,13.4974878,,,246-248,,Frankfurter Allee,,,,,,,,,,,Kiez-Shop,,,convenience,no,,,,,,,,,,,2024-01-08,,,,,,,,,,no,,0,,,,,,,,,,,,,,,,,,,,,,,,,,,,,,,,,,,,,,,,,,,,,,,,,,,,,,,,,,,,,,,,,,,,,,,,,,,,,,,,,,,,,,,,,,,,,,,,,,,,,,,,,,,,,,,,,,,,,,,,,,,,,,,,,,,,,,,,,,,,,,,,,,,,,,,,,,,,,,,,,,,,,,,,,,,,,,,,,,,,,,,,,,,,,,,,,,,,,,,,,,,
node,428553725,52.4673608,13.3312565,Berlin,DE,49,12161,Rheinstraße,Friedenau,,,,,,,,,,Post & More,,,kiosk,no,,,,,,,,,,,,,,,,,,,,,,,,,,,,,,,,,,,,,,,post_partner,Deutsche Post,,,,,,,,,,,,,,,,,,,,,,,,,,,,,,,,,,,,,,,,,,,,,,,,,,,,,,,,,,,,,,,,,,,,,,,,,,,,,,,,,,,,,,,,,,,,,,,,,,,,,,,,,,,,,,,,,,,,,,,,,,,,,,,,,,,,,,,,,,,,,,,,,,,,,,,,,,,,,,,,,,,,,,,,,,,,,,,,,,,,,,,,,,
node,429729075,52.4899925,13.3602113,Berlin,DE,160,10827,Hauptstraße,Schöneberg,,,,,,,,,,City-Kiosk,,,convenience,yes,,,,,,,,,,,,,,,,,,,,,,,,,,,,,,,,,,,,,,,,,,,,,,,,,,,,,,,,,,,,,,,,,,,,,,,,,,,,,,,,,,,,,,,,,,,,,,,,,,,,,,,,,,,,,,,,,,,,,,,,,,,,,,,,,,,,,,,,,,,,,,,,,,,,,,,,,,,,,,,,,,,,,,,,,,,,,,,,,,,,,,,,,,,,,,,,,,,,,,,,,,,,,,,,,,,,,,,,,,,,,,,,,,
node,429772561,52.4478989,13.2808103,,,,,,,,,,,,,,,,,,,kiosk,,,,,,,,,,,,,,,,,,,,,,,,,,,,,,,,,,,,,,,,,,,,,,,,,,,,,,,,,,,,,,,,,,,,,,,,,,,,,,,,,,,,,,,,,,,,,,,,,,,,,,,,,,,,,,,,,,,,,,,,,,,,,,,,,,,,,,,,,,,,,,,,,,,,,,,,,,,,,,,,,,,,,,,,,,,,,,,,,,,,,,,,,,,,,,,,,,,,,,,,,,,,,,,,,,,,,,,,,,,,,,,,,,,
node,430126697,52.5028638,13.4543186,,,,,,,,,,,,,,,,Obst und Gemüse,"Mo-Su,PH 12:00-24:00",,convenience,limited,,,,,,,,,,,2023-10-29,,,,,,,,,,,,,,,,,,,,yes,,,,,,,,,,,,,,,,,,,,,,,,,,,,,,,,,,,,,,,,,,,,,,,,,,,,,,,,,,,,,,,,,,,,,,,,,,,,,,,,,,,,,,,,,,,,,,,,,,,,,,,,,,,,,,,,,,,,,,,,,,,,,,,,,,,,,,,,,,,,,,,,,,,,,,,,,,,,,,,,,,,,,,,,,,,,,,,,,,,,,,,,,,,,,,,,,,,
node,431655696,52.5098271,13.4622545,Berlin,DE,29,10245,Krossener Straße,Friedrichshain,,,,,,,,,,LPG,Mo-Fr 09:00-20:00; Sa 09:00-18:00,,convenience,yes,,,,,,,,,,,2025-09-08,,lpgbox@posteo.de,,030 29351437,,,only,,,no,,0,yes,yes,,,yes,,,,,,,,,,,,,,,,,,,,,,0,no,https://www.instagram.com/lpgboxi/,https://lpg-box.de,no,yes,no,,,,,,,,,,,,,,,,,,,,,,,,,,,,,,,,,,,,,,,,,,,,,,,,,,,,,,,,,,,,,,,,,,,,,,,,,,,,,,,,,,,,,,,,,,,,,,,,,,,,,,,,,,,,,,,,,,,,,,,,,,,,,,,,,,,,,,,,,,,,,,,,,,,,,,,,,,,,,,,,,,,,,,,,,,
node,434492758,52.5374568,13.2033126,,,,,,,,,,,,,,,,Supermarkt Rose,,,convenience,yes,,,,,,,,,,,,,,,,,,,,,,,,,,,,,,,,,,,,,,,,,,,,,,,,,,,,,,,,,,,,,,,,,,,,,,,,,,,,,,,,,,,,,,,,,,,,,,,,,,,,,,,,,,,,,,,,,,,,,,,,,,,,,,,,,,,,,,,,,,,,,,,,,,,,,,,,,,,,,,,,,,,,,,,,,,,,,,,,,,,,,,,,,,,,,,,,,,,,,,,,,,,,,,,,,,,,,,,,,,,,,,,,,,
node,438145041,52.5026134,13.4911077,,,,,,,,2023-05-18,,,,,,,,Postshop Lichtenberg,Mo-Fr 08:30-18:00; Sa 08:30-13:00,,kiosk,yes,,,,,,,,,,,2024-09-05,,,,,,,,,,,,,,,,,,,,,,,,,,,,,,,Deutsche Post,,,,,,,,,,,,,,,yes,no,post_partner,,,,,,,,,,,,,,,,,,,,,,,,,,,,,,,,,,,,,,,,,,,,,,,,,,,,,,,,,,,,,,,,,,,,,,,,,,,,,,,,,,,,,,,,,,,,,,,,,,,,,,,,,,,,,,,,,,,,,,,,,,,,,,,,,,,,,,,,,,,,,,,,,,,,,,,,,,,,,,,,,,,,,,,
node,438150623,52.503197,13.4914514,,,,,,,,,,,,,,,,Mini Markt,Mo-Sa 07:00-20:30,,convenience,limited,,,,,,,,,,,2024-09-05,,,,,,,,,,,,,,,,,,,,,,,,,,,,,,,,,,,,,,Mini Market,,,,,,,,,yes,,+49 30 51068868,+49 30 51068868,Продуктовый магазин,Mo-Su 07:00-20:30,no,,,,,,,,,,,,,,,,,,,,,,,,,,,,,,,,,,,,,,,,,,,,,,,,,,,,,,,,,,,,,,,,,,,,,,,,,,,,,,,,,,,,,,,,,,,,,,,,,,,,,,,,,,,,,,,,,,,,,,,,,,,,,,,,,,,,,,,,,,,,,,,,,,,,,,,,,,,,,,,,,,
node,440971671,52.5510932,13.3564031,,,,,,,,,,,,,,,,Mini Market Alper,Mo-Sa 07:00-00:00,,convenience,no,,,,,,,,,,,,,,,,,,,sidewalk,,,,,,,,,,,,,,,,,,,,,,,,,,,,,,,,,,,,,,,,,,,,,,,,,,,,,,,,,,,,,,,,,,,,,,,,,,,,,,,,,,,,,,,,,,,,,,,,,,,,,,,,,,,,,,,,,,,,,,,,,,,,,,,,,,,,,,,,,,,,,,,,,,,,,,,,,,,,,,,,,,,,,,,,,,,,,,,,,,,,,,,,,,,,,,,,,,,,,,,,,,,,,,,
node,441513730,52.4609503,13.4346275,,,,,,,,2024-02-18,,,,,,,,Hakim Gida,,,convenience,yes,,,,,,,,,,,,,,,,,,,,,no,,,,,,,,,,,,,,,,,,,,,,,,,,,,,,,,,,,,,,,,,,,,,,,,,,,,,,,,,,,,,,,,,,,,,,,,,,,,,,,,,,,,,,,,,,,,,,,,,,,,,,,,,,,,,,,,,,,,,,,,,,,,,,,,,,,,,,,,,,,,,,,,,,,,,,,,,,,,,,,,,,,,,,,,,,,,,,,,,,,,,,,,,,,,,,,,,,,,,,,,,,,,,
node,442749323,52.4673029,13.4403109,Berlin,DE,9,12051,Silbersteinstraße,Neukölln,,2023-04-19,,,,,,,,Spät-Shop,,,convenience,limited,,,,,,,,,,,,,,,,,,,,,no,,,,,,,,,,,,,,,,,,,,,,,,,,,,,,,,,,,,,,,,,,,,,,,,,,,,,,,,,,,,,,,,,,,,,,,,,,,,,,,,,,,,,,,,,,,,,,,,,,,,,,,,,,,,,,,,,,,,,,,,,,,,,,,,,,,,,,,,,,,,,,,,,,,,,,,,,,,,,,,,,,,,,,,,,,,,,,,,,,,,,,,,,,,,,,,,,,,,,,,,,,,,,
node,448594622,52.5010985,13.441111,,,,,,,,2024-03-29,,,,,,,,Späti am Schlesi,,,convenience,no,,,,,,,,,,,2024-12-23,,,,,,,,sidewalk,,no,,0,,,,,,,,,,,,,,,,,,,,,,,,,,,,,,,,,,,,,,,,,,,,,,,,,,,,,,,,,,,,,,,,,,,,,,,,,,,,,,,,,,,,,,,,,,,,,,,,,,,,,,,,,,,,,,,,,,,,,,,,,,,,,,,,,,,,,,,,,,,,,,,,,,,,,,,,,,,,,,,,,,,,,,,,,,,,,,,,,,,,,,,,,,,,,,,,,,,,,,,,,,,
node,452385593,52.5509168,13.5100245,,,,,,,,,,,,,,,,Multi Spätkauf,Mo-Sa 07:00-01:00,,convenience,,,,,,,,,,,,,,,,,,,,,,,,0,,,,,,,,,,,,,,,,,,,,,,,,,,,,,,,,,,,,,,,,,,,,,,,,,,,,,,,,,,,,,,,,,,,,,,,,,,,,,,,,,,,,,,,,,,,,,,,,,,,,,,,,,,,,,,,,,,,,,,,,,,,,,,,,,,,,,,,,,,,,,,,,,,,,,,,,,,,,,,,,,,,,,,,,,,,,,,,,,,,,,,,,,,,,,,,,,,,,,,,,,,,
node,454251024,52.4860909,13.4351467,Berlin,DE,54,12045,Weichselstraße,Neukölln,,,,,,,,,,Spätcampus,24/7,,convenience,limited,,,,,,,,,,,,,,,+4915731666909,,,,,,,,,,,,,,,,,,,,,,,,,,,,,,,,,,,,,,,,,,,,,,,,,,,,,,,,,,,,,,,,,,,,,,,,,,,,,,,,,,,,,,,,,,,,,,,,,,,,,,,,,,,,,,,,,,,,,,,,,,,,,,,,,,,,,,,,,,,,,,,,,,,,,,,,,,,,,,,,,,,,,,,,,,,,,,,,,,,,,,,,,,,,,,,,,,,,,,,,,,,,,,,,,,,
node,458138650,52.5211339,13.4465218,,,,,,,,,,,,,,,,Spätkauf Olive,"Mo-Fr 07:00-01:00, Sa,Su 08:00-01:00",,convenience,limited,,,,,,,,,,,2023-10-21,,,,,,,,,,,,,,,,,,,,,,,,,,,,,,,,,,,,,,,,,,,wlan,,,,,,,,,,,no,,,,,,,,,,,,,,,,,,,,,,,,,,,,,,,,,,,,,,,,,,,,,,,,,,,,,,,,,,,,,,,,,,,,,,,,,,,,,,,,,,,,,,,,,,,,,,,,,,,,,,,,,,,,,,,,,,,,,,,,,,,,,,,,,,,,,,,,,,,,,,,,,,,,,,,,,,,,,,,,,
node,458752207,52.4405026,13.3878363,,,,,,,,,,,,,,,,Mariendorfer back & spätkauf,,,convenience,,,,,,,,,,,,2024-01-09,,,,,,,,,,,,,,,,,,,,,,,,,,,,,,,,,,,,,,,,,,,,,,,,,,,,,,,,,,,,,,,,,,,,,,,,,,,,,,,,,,,,,,,,,,,,,,,,,,,,,,,,,,,,,,,,,,,,,,,,,,,,,,,,,,,,,,,,,,,,,,,,,,,,,,,,,,,,,,,,,,,,,,,,,,,,,,,,,,,,,,,,,,,,,,,,,,,,,,,,,,,,,,,,,,,,,,,
node,466481626,52.4676578,13.4308106,,,,,,,,,,,,,,,,DB Service Point,"Mo-Fr 06:00-19:30; Sa,Su 08:00-19:00",,kiosk,yes,,,,,,,,,,,,,,,,,,,,,,,,,,,,,,,,,,,,,,,,,,,,,,,,,,,,,,,,,,,,,,,,,,,,,,,,,,,,,,,,,,,,,,,,,,,,,,,,,,,,,,,,,,,,,,,,,,,,,,,,,,,,,,,,,,,,,,,,,,,,,,,,,,,,,,,,,,,,,,,,,,,,,,,,,,,,,,,,,,,,,,,,,,,,,,,,,,,,,,,,,,,,,,,,,,,,,,,,,,,,,,,,,,
node,473066908,52.4220522,13.2992739,,,,,,,,,,,,,,,,Gino´s Späti,,,convenience,,,,,,,,,,,,,,,,,,,,,,,,,,,,,,,,,,,,,,,,,,,,,,,,,,,,,,,,,,,,,,,,,,,,,,,,,,,,,,,,,,,,,,,,,,,,,,,,,,,,,,,,,,,,,,,,,,,,,,,,,,,,,,,,,,,,,,,,,,,,,,,,,,,,,,,,,,,,,,,,,,,,,,,,,,,,,,,,,,,,,,,,,,,,,,,,,,,,,,,,,,,,,,,,,,,,,,,,,,,,,,,,,,,
node,473629401,52.5578099,13.3900362,Berlin,DE,14,13359,Soldiner Straße,Gesundbrunnen,,,,,,,,,,Soldiner Späti,Mo-Sa 06:00-02:00,,convenience,,,,,,,,,,,,,,,,,,,,,,,,,,,,,,,,,,,,,,,,post_partner,,,Hermes PaketShop;GLS PaketShop;DPD Pickup Paketshop,,,,,,,,,,,,,,,,,,,,,,,,,,,,,,,,,,,,,,,,,,,,,,,,,,,,,,,,,,,,,,,,,,,,,,,,,,,,,,,,,,,,,,,,,,,,,,,,,,,,,,,,,,,,,,,,,,,,,,,,,,,,,,,,,,,,,,,,,,,,,,,,,,,,,,,,,,,,,,,,,,,,,,,,,,,,,,,,,,,,,,,,
node,476259949,52.4816447,13.4441313,Berlin,DE,9,12045,Innstraße,Neukölln,,,,,,,,,,Heimgetränke,,,convenience,limited,,,,,,,,,,,,,,,,,,,,,,,,,,,,,,,,,,,,,,,,,,DHL,,,,,,,,,,,,,,,,,post_partner,,,,,,,no,Euronet,,,,,,,,,,,,,,,,,,,,,,,,,,,,,,,,,,,,,,,,,,,,,,,,,,,,,,,,,,,,,,,,,,,,,,,,,,,,,,,,,,,,,,,,,,,,,,,,,,,,,,,,,,,,,,,,,,,,,,,,,,,,,,,,,,,,,,,,,,,,,,,,,,,,,,,,,,,,,,,
node,477454198,52.4679126,13.4427173,,,,,,,,,,,,,,,,Steh-Cafe,,,kiosk,limited,,,,,,,,,,,,,,,,,,,,,,,,,,,,,,,,,,,,,,,,,,,,,,,,,,,,,,,,,,,,,,,,,,,,,,,,,,,,,,,,,,,,,,,,,,,,,,,,,,,,,,,,,,,,,,,,,,,,,,,,,,,,,,,,,,,,,,,,,,,,,,,,,,,,,,,,,,,,,,,,,,,,,,,,,,,,,,,,,,,,,,,,,,,,,,,,,,,,,,,,,,,,,,,,,,,,,,,,,,,,,,,,,,
node,497835260,52.4823539,13.4539374,Berlin,DE,32,,Treptower Straße,Neukölln,,,,,,,,,,Lotto Zeitungen Uray,"Mo-Fr 06:00-22:00; Sa 07:00-22:00; PH,Su off",,kiosk,no,,,,,,,,,,,,,,,,,,,,,,,,yes,yes,,,,,,,,,,,,,,,,,,,,,,,,,,,,,,,,,,,,,,,,,,,Hermes Paket Shop,,,,,,,,,,,,,,,,,,,,,,,,,,,,,,,,,,,,,,,,,,,,,,,,,,,,,,,,,,,,,,,,,,,,,,,,,,,,,,,,,,,,,,,,,,,,,,,,,,,,,,,,,,,,,,,,,,,,,,,,,,,,,,,,,,,,,,,,,,,,,,,,,,,,,,,,,,,,,,
node,502357232,52.4663305,13.4702327,,,,,,,,,,,,,,,,,,,kiosk,,,,,,,,,,,,,,,,,,,,,,,,,,,,,,,,,,,,,,,,,,,,,,,,,,,,,,,,,,,,,,,,,,,,,,,,,,,,,,,,,,,,,,,,,,,,,,,,,,,,,,,,,,,,,,,,,,,,,,,,,,,,,,,,,,,,,,,,,,,,,,,,,,,,,,,,,,,,,,,,,,,,,,,,,,,,,,,,,,,,,,,,,,,,,,,,,,,,,,,,,,,,,,,,,,,,,,,,,,,,,,,,,,,
node,506197795,52.544033,13.4242868,Berlin,DE,50,10437,Stargarder Straße,Prenzlauer Berg,,2025-02-04,,,,,,,,Lateshop Café Roj,,,convenience,no,,,,,,,,,,,,,,,,,,,,,no,,,,,,,,,,retail,,,,,,,,,,,,,,,,,,,,,,,,,,,,,,,,,,,,,,,,,,,,,,,,,,,,,,,,,,,,,,,,,,,,,,,,,,,,,,,,,,,,,,,,,,,,,,,,,,,,,,,,,,,,,,,,,,,,,,,,,,,,,,,,,,,,,,,,,,,,,,,,,,,,,,,,,,,,,,,,,,,,,,,,,,,,,,,,,,,,,,,,,,,,,,,,,,,
node,522780551,52.5548991,13.38937,Berlin,DE,30,13357,Stettiner Straße,Gesundbrunnen,,,,,,,,,,Presse Tabak / Hermes Paket Shop,Mo-Fr 06:00-18:00; Sa-Su 07:00-18:00,,kiosk,limited,,,,,,,,,,,2024-05-15,,,,,,,,,,,,,,,,,,,,,,,,,,,,post_partner,,,Hermes PaketShop,,,,,,,,,,,,,,,,,,,+49 30 49004795,,,,,,,,647250,,,,,,,,,,,,,,,,,,,,,,,,,,,,,,,,,,,,,,,,,,,,,,,,,,,,,,,,,,,,,,,,,,,,,,,,,,,,,,,,,,,,,,,,,,,,,,,,,,,,,,,,,,,,,,,,,,,,,,,,,,,,,,,,,,,,,,,,,,,,,,,,,,,,,,,,,,,,,
node,524769051,52.5891787,13.2803819,Berlin,,14,13507,Alt-Tegel,,,,,,,,,,,Minimarkt Tegel,Mo-Sa 10:00-22:00,,convenience,,,,,,,,,,,,,,,,,,,,,,,,,,,,,,,,,,,,,,,,,,,,,,,,,,,,,,,,,,,,,,,,,,,,,,,,,,,,,,,,,,,,,,,,,,,,,,,,,,,,,,,,,,,,,,,,,,,,,,,,,,,,,,,,,,,,,,,,,,,,,,,,,,,,,,,,,,,,,,,,,,,,,,,,,,,,,,,,,,,,,,,,,,,,,,,,,,,,,,,,,,,,,,,,,,,,,,,,,,,,,,,,,,,
node,530715886,52.541734,13.3575427,,,,,,,,,,,,,,,,,,,convenience,,,,,,,,,,,,2023-08-28,,,,,,,,,,,,,,,,,,,,,,,,no,,,,,,,,,,,,,,,,,,,,,,,,,,,,,,,,,,,,,,,,,,,,,,,,,,,,,,,,,,,,,,,,,,,,,,,,,,,,,,,,,,,,,,,,,,,,,,,,,,,,,,,,,,,,,,,,,,,,,,,,,,,,,,,,,,,,,,,,,,,,,,,,,,,,,,,,,,,,,,,,,,,,,,,,,,,,,,,,,,,,,,,,,,,,,,,
node,530715910,52.542862,13.3590534,,,2,,Sprengelstraße,,,,,,,,,,,Spätkauf & Backwaren,,,convenience,no,,,,,,,,,,,2023-04-29,,,,,,,,,,,,0,,,,,,,,,,,,,,,,,,,,,,,,,,,,,,,,,,,,,,,,,,,,,,,,,,,,,,,,,,,,,,,,,,,,,,,,,,,,,,,,,,,,,,,,,,,,,,,,,,,,,,,,,,,,,,,,,,,,,,,,,,,,,,,,,,,,,,,,,,,,,,,,,,,,,,,,,,,,,,,,,,,,,,,,,,,,,,,,,,,,,,,,,,,,,,,,,,,,,,,,,,,
node,534120307,52.555733,13.3422335,Berlin,DE,113,13349,Müllerstraße,Wedding,,,,,,,,,,,Mo-Sa 06:00-20:00,,kiosk,yes,,,,,,,,,,,2025-07-19,,,,,,,,,,,,,,,,,,,,,,,,,,,yes,,,,,554,,,,,,,,,,,,,,,,,,,,,,,,,,,,,,,,,,,,,,,,,,,,,,,,,,,,,,,,,,,,,,,,,,,,,,,,,,,,,,,,,,,,,,,,,,,,,,,,,,,,,,,,,,,,,,,,,,,,,,,,,,,,,,,,,,,,,,,,,,,,,,,,,,,,,,,,,,,,,,,,,,,,,,,,,,,,,,,,,,,,,,,
node,539491913,52.4672572,13.4893514,Berlin,DE,9,12437,Baumschulenstraße,Baumschulenweg,,2024-01-27,,,,,,,,Spätkauf,,,convenience,no,,,,,,,,,,,2025-01-13,,,,,,,,,,no,,,yes,yes,,,,,,,,,,,,,,,,,,,,,,,,,,,,,,,,,,,,,,,,,,,,,,,,,,,,,,,,,,,,,,,,,,,,,,,,,,,,,,,,,,,,,,,,,,,,,,,,,,,,,,,,,,,,,,,,,,,,,,,,,,,,,,,,,,,,,,,,,,,,,,,,,,,,,,,,,,,,,,,,,,,,,,,,,,,,,,,,,,,,,,,,,,,,,,,,,,,,,,,,,
node,541077709,52.5406899,13.4161081,Berlin,DE,19,10435,Danziger Straße,Prenzlauer Berg,,,,,,,,,,Spätkauf 19,,,convenience,,,,,,,,,,,,,,,,,,,,,,,,,,,,,,,,,,,,,,,,,,,,,,,,,,,,,,,,,,,,,,,,,,,,,,,,,,,,,,,,,,,,,,,,,,,,,,,,,,,,,,,,,,,,,,,,,,,,,,,,,,,,,,,,,,,,,,,,,,,,,,,,,,,,,,,,,,,,,,,,,,,,,,,,,,,,,,,,,,,,,,,,,,,,,,,,,,,,,,,,,,,,,,,,,,,,,,,,,,,,,,,,,,,
node,546677907,52.5484756,13.5043404,,,,,,,,,,,,,,,,,Mo-Fr 07:00-19:00; Sa 07:00-16:00,,kiosk,limited,,,,,,,,,,,,,,,,,,,,,,,,,,,,,,,,,,,,,,yes,,,,,,,,,,,,,,,,,,,,,,,,,,,,,,,,,,,,,,,,,,,,,,,,,,,,,,,,,,,,,,,,,,,,,,,,,,,,,,,,,,,,,,,,,,,,,,,,,,,,,,,,,,,,,,,,,,,,,,,,,,,,,,,,,,,,,,,,,,,,,,,,,,,,,,,,,,,,,,,,,,,,,,,,,,,,,,,,,,,,,,,,,,,,
node,560524658,52.5472275,13.4157637,Berlin,DE,6,10437,Stargarder Straße,Prenzlauer Berg,,,,,,,,,,Asia Markt Frischekorb,Mo-Sa 08:00-21:00,,convenience,yes,,,,,,,,,,,2024-12-04,,,,,,,,,,,,0,,,,,,,,,,,,,,,,,,,,,,,,,,,,,,,,,,,,,,,,,,,,,,,,,,,,,,,,,,,,,,,,,,,,,,,,,,,,,,,,,,,,,,,,,,,,,,,,,,,,,,,,,,,,,,,,,,,,,,,,,,,,,,,,,,,,,,,,,,,,,,,,,,,,,,,,,,,,,,,,,,,,,,,,,,,,,,,,,,,,,,,,,,,,,,,,,,,,,,,,,,,
node,560525457,52.5454075,13.4204087,Berlin,DE,21,10437,Stargarder Straße,Prenzlauer Berg,,,,,,,,,,Verbrauchermarkt,,,convenience,yes,,,,,,,,,,,2025-09-19,,,,,,,,,,,,,,,,,,,,,,,,,,,,,,,,,,,,,,,,,,,,,,,,,,,,,,,,,,,,,,,,,,,,,,,,,,,,,,,,,,,,,,,,,,,,,,,,,,,,,,,,,,,,,,,,,,,,,,,,,,,,,,,,,,,,,,,,,,,,,,,,,,,,,,,,,,,,,,,,,,,,,,,,,,,,,,,,,,,,,,,,,,,,,,,,,,,,,,,,,,,,,,,,,,,,,,,
node,567546833,52.5227373,13.4496607,,,,,,,,2024-01-19,,,,,,,,Petersburger Getränke Shop,,,convenience,no,,,,,,,,,,,,,,,,,,,,,no,,,,,,,,,,,,,,,,,,,,,,,,,,,,,,,,,,,,,,,,,,,,,,,,,,,,,,,,,,,,,,,,,,,,,,,,,,,,,,,,,,,,,,,,,,,,,,,,,,,,,,,,,,,,,,,,,,,,,,,,,,,,,,,,,,,,,,,,,,,,,,,,,,,,,,,,,,,,,,,,,,,,,,,,,,,,,,,,,,,,,,,,,,,,,,,,,,,,,,,,,,,,,
node,567546844,52.523981,13.4527734,Berlin,DE,15,10249,Ebertystraße,Friedrichshain,,2023-10-01,,,,,,,,Eberty Point,,,convenience,limited,,,,,,,,,,,,,,,,,,,,,no,,,,,,,,,,,,,,,,,,,,,,,,,,,,,,,,,,,,,,,,,,,,,,,,,,,,,,,,,,,,,,,,,,,,,,,,,,,,,,,,,,,,,,,,,,,,,,,,,,,,,,,,,,,,,,,,,,,,,,,,,,,,,,,,,,,,,,,,,,,,,,,,,,,,,,,,,,,,,,,,,,,,,,,,,,,,,,,,,,,,,,,,,,,,,,,,,,,,,,,,,,,,,
node,573381061,52.5128191,13.4673128,Berlin,DE,20,10247,Scharnweberstraße,Friedrichshain,,2025-09-19,,,,,,,,Quang Loi,,,convenience,yes,,,,,,,,,,,,,,,,,,,,,no,,,,,,,,,,,,,,,,,,,,,,,,,,,,,,,,,,,,,,,,,,,,,,,,,,,,,,,,,,,,,,,,,,,,,,,,,,,,,,,,,,,,,,,,,,,,,,,,,,,,,,,,,,,,,,,,,,,,,,,,,,,,,,,,,,,,,,,,,,,,,,,,,,,,,,,,,,,,,,,,,,,,,,,,,,,,,,,,,,,,,,,,,,,,,,,,,,,,,,,,,,,,,
node,576051172,52.5129377,13.4658832,Berlin,DE,,10247,Kinzigstraße,Friedrichshain,,2024-12-21,,,,,,,,Lebensmittel,,,convenience,no,,,,,,,,,,,,,,,,,,,,,no,,,,,,,,,,,,,,,,,,,,,,,,,,,,,,,,,,,,,,,,,,,,,,,,,,,,,,,,,,,,,,,,,,,,,,,,,,,,,,,,,,,,,,,,,,,,,,,,,,,,,,,,,,,,,,,,,,,,,,,,,,,,,,,,,,,,,,,,,,,,,,,,,,,,,,,,,,,,,,,,,,,,,,,,,,,,,,,,,,,,,,,,,,,,,,,,,,,,,,,,,,,,,
node,576051178,52.514379,13.4659476,Berlin,DE,60,10247,Frankfurter Allee,Friedrichshain,,,,,,,,,,Euro Spätkauf,24/7,,convenience,no,,,,,,,,,,,2025-08-16,,,,,,,,,,,,,,,,,,,,,,,,,,,,,,,,,,,,,,,,,,,,,,,,,,,,,,,,,,,,,,,,,,,,,,,,,,,,,,,,,,,,,,,,,,,,,,,,,,,,,,,,,,,,,,,,,,,,,,,,,,,,,,,,,,,,,,,,,,,,,,,,,,,,,,,,,,,,,,,,,,,,,,,,,,,,,,,,,,,,,,,,,,,,,,,,,,,,,,,,,,,,,,,,,,,,,,,
node,577380846,52.5461354,13.4180767,Berlin,DE,,10437,Pappelallee,Prenzlauer Berg,,,,,,,,,,Papki,,,convenience,yes,,,,,,,,,,,2025-09-13,,,,,,,,,,,,,,,,,,,,,,,,,,,,,,,,,,,,,,,,,,,,,,,,,,,,,,,,,,,,,,,,,,,,,,,,,,,,,,,,,,,,,,,,,,,,,,,,,,,,,,,,,,,,,,,,,,,,,,,,,,,,,,,,,,,,,,,,,,,,,,,,,,,,,,,,,,,,,,,,,,,,,,,,,,,,,,,,,,,,,,,,,,,,,,,,,,,,,,,,,,,,,,,,,,,,,,,
node,586663202,52.5132812,13.4713536,,,,,,,,,,,,,,,,Minimarkt,"Mo-Su,PH 08:30-20:00",,convenience,,,,,,,,,,,,,,,,,,,,,,,,,,,,,,,,,,,,,,,,,,,,,,,,,,,,,,,,,,,,,,,,,,,,,,,,,,,,,,,,,,,,,,,,,,,,,,,,,,,,,,,,,,,,,,,,,,,,,,,,,,,,,,,,,,,,,,,,,,,,,,,,,,,,,,,,,,,,,,,,,,,,,,,,,,,,,,,,,,,,,,,,,,,,,,,,,,,,,,,,,,,,,,,,,,,,,,,,,,,,,,,,,,,
node,588552735,52.5494813,13.4555878,Berlin,DE,77,13088,Berliner Allee,Weißensee,,,,,,,,,,Insaf Supermarkt,Mo-Sa 08:00-21:00,Basharmal Sherzad,convenience,,,,,,,,,,,,,,,,+49-30-97008224,,,,,,,,,yes,yes,,,yes,,,,,,,,,,,,,,,,,,,,,,,,,,,,,,,,,,,,,,,,,,Bedientheke für frisches Fleisch (halal),,,,,,,,,,,,,,,,,,,,,,,,,,,,,,,,,,,,,,,,,,,,,,,,,,,,,,,,,,,,,,,,,,,,,,,,,,,,,,,,,,,,,,,,,,,,,,,,,,,,,,,,,,,,,,,,,,,,,,,,,,,,,,,,,,,,,,,,,,,,,,,,,,,,,,,,,,,,
node,615607323,52.4791724,13.449827,,,,,,,,,,,,,,,,Kiosk,"Mo-Fr 05:00-24:00, Sa 06:00-24:00",,kiosk,no,,,,,,,,,,,2025-06-12,,,,,,,,,,,,,,,,,,,,,,,,,,,,,,,,,,,,,,,,,,,,,,,,,,,,,,,,,,,,,,,,,,,,,,,,,,,,,,,,,,,,,,,,,,,,,,,,,,,,,,,,,,,,,,,,,,,,,,,,,,,,,,,,,,,,,,,,,,,,,,,,,,,,,,,,,,,,,,,,,,,,,,,,,,,,,,,,,,,,,,,,,,,,,,,,,,,,,,,,,,,,,,,,,,,,,,,
node,616284708,52.5200009,13.4793952,Berlin,DE,88,10367,Möllendorffstraße,Lichtenberg,,,,,,,,,,Kiezshop am Stadtpark,,,kiosk,no,,,,,,,,,,,,,,,,,,,,,,,,,,,,,,,,,,,,,,,yes,,yes,,,,,,,,,,,,,,,,,,,,,,,,,,,,,,yes,yes,,,,,,,,,,,,,,,,,,,,,,,,,,,,,,,,,,,,,,,,,,,,,,,,,,,,,,,,,,,,,,,,,,,,,,,,,,,,,,,,,,,,,,,,,,,,,,,,,,,,,,,,,,,,,,,,,,,,,,,,,,,,,,,,,,,,,,,,,,,,,,,,,,,,,,,,,,
node,618020078,52.4732403,13.455277,,,,,,,,,,,,,,,,AK44,"Mo-Th 10:00-22:00; Fr,Sa 11:30-23:30; PH,Su off",,kiosk,no,,,,,,,,,,,,,,,,,,,,,,,,no,no,,,,,,yes,,,,,,,,,,,,,,,,,,,,,,,,,,,,,,,,,,,,,,,,,,,,,,,,,,,,,,,,,,,,,,,,,,,,,,,,,,,,,,,,,,,,,,,,,,,,,,,,,,,,,,,,,,,,,,,,,,,,,,,,,,,,,,,,,,,,,,,,,,,,,,,,,,,,,,,,,,,,,,,,,,,,,,,,,,,,,,,,,,,,,,,,,,,,,,,,,,,
node,618021342,52.4682342,13.4672291,,,,,,,,,,,,,,,,MiniMarkt,,,convenience,,,,,,,,,,,,,,,,,,,,,,,,,,,,,,,,,,,,,,,,,,,,,,,,,,,,,,,,,,,,,,,,,,,,,,,,,,,,,,,,,,,,,,,,,,,,,,,,,,,,,,,,,,,,,,,,,,,,,,,,,,,,,,,,,,,,,,,,,,,,,,,,,,,,,,,,,,,,,,,,,,,,,,,,,,,,,,,,,,,,,,,,,,,,,,,,,,,,,,,,,,,,,,,,,,,,,,,,,,,,,,,,,,,
node,620704357,52.4825323,13.4409421,,,,,,,,2025-09-14,,,,,,,,laube shop,,,convenience,limited,,,,,,,,,,,,,,,,,,,,,no,,,,,,,,,,,,,,,,,,,,,,,,,,,,,,,,,,,,,,,,,,,,,,,,,,,,,,,,,,,,,,,,,,,,,,,,,,,,,,,,,,,,,,,,,,,,,,,,,,,,,,,,,,,,,,,,,,,,,,,,,,,,,,,,,,,,,,,,,,,,,,,,,,,,,,,,,,,,,,,,,,,,,,,,,,,,,,,,,,,,,,,,,,,,,,,,,,,,,,,,,,,,,
node,620704359,52.483436,13.4360938,,,,,,,,,,,,,,,,,,,convenience,no,,,,,,,,,,,,,,,,,,,,,,,,,,,,,,,,,,,,,,,,,,,,,,,,,,,,,,,,,,,,,,,,,,,,,,,,,,,,,,,,,,,,,,,,,,,,,,,,,,,,,,,,,,,,,,,,,,,,,,,,,,,,,,,,,,,,,,,,,,,,,,,,,,,,,,,,,,,,,,,,,,,,,,,,,,,,,,,,,,,,,,,,,,,,,,,,,,,,,,,,,,,,,,,,,,,,,,,,,,,,,,,,,,
node,620704361,52.4826695,13.4376011,,,,,,,,,,,,,,,,Orient Rösterei,Mo-Sa 10:00-20:00,,convenience,,,,,,,,,,,,,,,,,,,,,,,,,,,,,,,,,,,,,,,,,,,,,,,,,,,,,,,,,,,,,,,,,,,,,,,,,,,,,,,,,,,,,,,,,,,,,,,,,,,,,,,,,,,,,,,,,,,,,,,,,,,,,,,,,,,,,,,,,,,,,,,,,,,,,,,,,,,,,,,,,,,,,,,,,,,,,,,,,,,,,,,,,,,,,,,,,,,,,,,,,,,,,,,,,,,,,,,,,,,,,,,,,,,
node,626304112,52.5344555,13.4305661,,,197,10405,Greifswalder Straße,,,,,,,,,,,Corner,"Mo-Th 08:00-24:00; Fr,Sa 08:00-01:00",,convenience,no,,,,,,,,,,,,,,,,,,,,,,,,,,,,,,,,,,,,,,,,,,DPD;GLS,,,,,,,,,,,,,,,,,post_partner,,,,,,,,,,,,,,,,,,,,,,,,,,,,,,,,,,,,,,,,,,,,,,,,,,,,,,,,,,,,,,,,,,,,,,,,,,,,,,,,,,,,,,,,,,,,,,,,,,,,,,,,,,,,,,,,,,,,,,,,,,,,,,,,,,,,,,,,,,,,,,,,,,,,,,,,,,,,,,,,,,,,,,,
node,639566330,52.4933967,13.2958852,Berlin,DE,1,10711,Joachim-Friedrich-Straße,Halensee,,,,,,,,,,Backshop & Kiosk,Mo-Fr 07:00-19:00; Sa 07:30-17:00,,convenience,,,,,,,,,,,,,,,,,,,,,,,,,,,,,,,,,,,,,,,,post_partner,Hermes Group,,Hermes PaketShop,,,,,,,,,,,,,,,,,,,,,,,,,,,,,,,Q105702843,,,,,,,,,,,,,,,,,,,,,,,,,,,,,,,,,,,,,,,,,,,,,,,,,,,,,,,,,,,,,,,,,,,,,,,,,,,,,,,,,,,,,,,,,,,,,,,,,,,,,,,,,,,,,,,,,,,,,,,,,,,,,,,,,,,,,,,,,,,,,,,,,,,,,,,,,
node,644658972,52.5538775,13.383155,Berlin,DE,12,13357,Prinzenallee,Gesundbrunnen,,,,,,,,,,Tabak Getränke Kaffee,,,kiosk,,,,,,,,,,,,,,,,,,,,,,,,,,,,,,,,,,,,,,,,,,,,,,,,,,,,,,,,,,,,,,,,,,,,,,,,,,,Paket Shop ID: 2760192516,,,,,,,,,,,,,,,,,,,,,,,,,,,,,,,,,,,,,,,,,,,,,,,,,,,,,,,,,,,,,,,,,,,,,,,,,,,,,,,,,,,,,,,,,,,,,,,,,,,,,,,,,,,,,,,,,,,,,,,,,,,,,,,,,,,,,,,,,,,,,,,,,,,,,,,,
node,644659553,52.5504533,13.3788501,Berlin,DE,42,13357,Pankstraße,Gesundbrunnen,post_office,,,,,,,,,Zeitungsladen Parlak,Mo-Fr 05:00-20:00; Sa 06:00-20:00; Su 07:00-20:00,GLS,kiosk,no,,,,,,,,,,,2025-08-03,,,,,,,,,,,,0,,,,,,,,,,,,,,,,,,,,,,,,,,,,,,,,,,,,,,+49 30 41995526,,,,,,,,,,,,,Paket Shop ID: 2760190924,Q366182,2760190924,,,,,,,,,,,,,,,,,,,,,,,,,,,,,,,,,,,,,,,,,,,,,,,,,,,,,,,,,,,,,,,,,,,,,,,,,,,,,,,,,,,,,,,,,,,,,,,,,,,,,,,,,,,,,,,,,,,,,,,,,,,,,,,,,,,,,,,,,,,,,,,,,,,,,,
node,646577061,52.5029438,13.3428732,Berlin,DE,21,10787,Ansbacher Straße,Schöneberg,,,,,,,,,,S. Balz,Mo-Fr 06:00-20:00; Sa 07:00-20:00; Su off,,kiosk,no,,,,,,,,,,,,,,,,,,,,,,,,,,,,,,,,,,,,,,,,,,,,,,,,,,,,,,,,,,,,,,,,,,,,,,,,,,,,,,,,,,,,,,,,,,,,,,,,,,,,,,,,,,,,,,,,,,,,,,,,,,,,,,,,,,,,,,,,,,,,,,,,,,,,,,,,,,,,,,,,,,,,,,,,,,,,,,,,,,,,,,,,,,,,,,,,,,,,,,,,,,,,,,,,,,,,,,,,,,,,,,,,,,
node,652049362,52.4239422,13.4367583,,,,,,,,2024-02-16,,,,,,,,,,,kiosk,limited,,,,,,,,,,,,,,,,,,,,,no,,,,,,,,,,,,,,no,,,,,,,,,,,,,,,,,,,,,,,,,,,,,,,,,,,,,,,,,,,,,,,,,,,,,,,,,,,,,,,,,,,,,,,,,,,,,,,,,,,,,,,,,,,,,,,,,,,,,,,,,,,,,,,,,,,,,,,,,,,,,,,,,,,,,,,,,,,,,,,,,,,,,,,,,,,,,,,,,,,,,,,,,,,,,,,,,,,,,,,,,,,,,,,
node,661092203,52.5145945,13.304677,Berlin,DE,22,10585,Wilmersdorfer Straße,Charlottenburg,,,,,,,,,,,Mo-Fr 08:00-18:00; Sa 08:00-16:00; Su off,,kiosk,no,,,,,,,,,,,2023-12-01,,,,,,,,,,,,0,,,,,,,,,,,,,,,,,,,,,,,,,,,,,,,,,,,,,,,,,,,,,,,,,,,,,,,,,,,,,,,,,,,,,,,,,,,,,,,,,,,,,,,,,,,,,,,,,,,,,,,,,,,,,,,,,,,,,,,,,,,,,,,,,,,,,,,,,,,,,,,,,,,,,,,,,,,,,,,,,,,,,,,,,,,,,,,,,,,,,,,,,,,,,,,,,,,,,,,,,,,
node,667211374,52.5192234,13.2572358,,,,,,,,,,,,,,,,(& DHL-Pakete),Mo-Fr 06:00-18:30; Sa 06:30-13:30,,kiosk,limited,,,,,,,,,,,,,,,,,,,,,,,,,,,,,,,,,,,,,,,,,,,,,,,,Kiosk (& DHL-Pakete),Kiosk (& DHL drop-off),,,,,,,,,,,,,,,,,,,,,,,,,,,,,,,,,,,,,,,,,,,,,,,,,,,,,,,,,,,,,,,,,,,,,,,,,,,,,,,,,,,,,,,,,,,,,,,,,,,,,,,,,,,,,,,,,,,,,,,,,,,,,,,,,,,,,,,,,,,,,,,,,,,,,,,,,,,,,,,,,,,,,,,,,,,,,,,,,
node,667858504,52.5033965,13.4120065,Berlin,DE,54,10969,Oranienstraße,Kreuzberg,,2024-05-19,,,,,,,,Kiezkauf,,,convenience,,,,,,,,,,,,,,,,,,,,,,no,,,,,,,,,,,,,,,,,,,,,,,,,,,,,,,,,,,,,,,,,,,,,,,,,,,,,,,,,,,,,,,,,,,,,,,,,,,,,,,,,,,,,,,,,,,,,,,,,,,,,,,,,,,,,,,,,,,,,,,,,,,,,,,,,,,,,,,,,,,,,,,,,,,,,,,,,,,,,,,,,,,,,,,,,,,,,,,,,,,,,,,,,,,,,,,,,,,,,,,,,,,,,
node,668246079,52.449849,13.2513323,,,,,,,,,,,,,,,,Zeitungsoase,Mo-Fr 06:00-18:00; Sa 07:00-14:00; Su off,,kiosk,yes,,,,,,,,,,,,,,,,,,,,,,,,,,,,,,,,,,,,,,,,,,,,,,,,,,,,,,,,,,,,,,,,,,,,,,,,,,,,,,,,,,,,,,,,,,,,,,,,,,,,,,,,,,,,,,,,,,,,,,,,,,,,,,,,,,,,,,,,,,,,,,,,,,,,,,,,,,,,,,,,,,,,,,,,,,,,,,,,,,,,,,,,,,,,,,,,,,,,,,,,,,,,,,,,,,,,,,,,,,,,,,,,,,
node,674019820,52.5430615,13.3926865,,,,,,,post_office,,,,,,,,,Kiosk,,Deutsche Post,kiosk,limited,,,,,,,,,,,2023-03-16,,,,,,,,,,,,,,,,,,,,,,,,,,,,,,,,,,,,,,,,,,,,,,,,,,,,,,,,,,,,,,,,Q157645,,,,,,,,,,,,,,,,,,,,,,,,,,,,,,,,,,,,,,,,,,,,,,,,,,,,,,,,,,,,,,,,,,,,,,,,,,,,,,,,,,,,,,,,,,,,,,,,,,,,,,,,,,,,,,,,,,,,,,,,,,,,,,,,,,,,,,,,,,,,,,,,,,,,,,,
node,678967934,52.5514691,13.3578197,,,,,,,,2024-08-25,,,,,,,,Bonbonwasser,,,convenience,limited,,,,,,,,,,,2024-08-25,,,,,,,,,,no,,,,,,,,,,,,,,,,,,,,,,,,,,,,,,,,,,,,,,,,,,,,,,,,,,,,,,,,,,,,,,,,,,,,,,,,,,,,,,,,,,,,,,,,,,,,,,,,,,,,,,,,,,,,,,,,,,,,,,,,,,,,,,,,,,,,,,,,,,,,,,,,,,,,,,,,,,,,,,,,,,,,,,,,,,,,,,,,,,,,,,,,,,,,,,,,,,,,,,,,,,,,,
node,685354675,52.5094753,13.4985107,Berlin,,1,10317,Irenenstraße,,,2025-02-03,,,,,,,,Oma Wenda,Mo-Fr 09:00-20:00; Sa 09:30-20:00; PH closed,,convenience,no,,,,,,,,,,,2025-04-13,,,,,,,,,,,,0,yes,yes,,,yes,,,,,,,,,,,,,,,,,,bulgarian,,,,0,,,,,,,,,,,,,,,,,,,,Bulgarische Lebensmittel,,,,,,,yes,survey,,,,,,,,,,,,,,,,,,,,,,,,,,,,,,,,,,,,,,,,,,,,,,,,,,,,,,,,,,,,,,,,,,,,,,,,,,,,,,,,,,,,,,,,,,,,,,,,,,,,,,,,,,,,,,,,,,,,,,,,,,,,,,,,,,,,,,,,,,,,,,,,,,,,
node,697714204,52.5342305,13.4086992,Berlin,DE,17,10119,Schwedter Straße,Prenzlauer Berg,,,,,,,,,,La Bodega,Mo-Su 12:00-24:00,,convenience,yes,,,,,,,,,,,2024-06-10,,,,,,,,,,,,0,,,,,yes,,,,,,,,,,,,,,,,,,,,,,,,,,,,,,,,,,,,,,yes,,,,,,,,,,,,,,,,,,,,,,,,,,,,,,,,,,,,,,,,,,,,,,,,,,,,,,,,,,,,,,,,,,,,,,,,,,,,,,,,,,,,,,,,,,,,,,,,,,,,,,,,,,,,,,,,,,,,,,,,,,,,,,,,,,,,,,,,,,,,,,,,,,,,,,,,,,,,,,,,
node,697907411,52.5488264,13.4140802,Berlin,DE,72c,10437,Schönhauser Allee,Prenzlauer Berg,,,,,,,,,,Spätkauf -Late Shopping,,,convenience,yes,,,,,,,,,,,2023-07-02,,,,,,,,,,,,,,,,,,,,,,,,,,,,,,,,,,,,,,,,,,,,,,,,,,,,,,,,,,,,,,,,,,,,,,,,,,,,,,,,,,,,,,,,,,,,,,,,,,,,,,,,,,,,,,,,,,,,,,,,,,,,,,,,,,,,,,,,,,,,,,,,,,,,,,,,,,,,,,,,,,,,,,,,,,,,,,,,,,,,,,,,,,,,,,,,,,,,,,,,,,,,,,,,,,,,,,,
node,699713742,52.5082964,13.480045,Berlin,,35,10365,Schulze-Boysen-Straße,,,,,,,,,,,Boysen Späti,24/7,,convenience,yes,,,,,,,,,,,,,,,,,,,,,,,,,,,,,,,,,,,,,,,,,,,,,,,,,,,,,,,,,,,,,,,,,,,,,,,,,,,,,,,no,,,,,,,,,,,,,,,,,,,,,,,,,,,,,,,,,,,,,,,,,,,,,,,,,,,,,,,,,,,,,,,,,,,,,,,,,,,,,,,,,,,,,,,,,,,,,,,,,,,,,,,,,,,,,,,,,,,,,,,,,,,,,,,,,,,,,,,,,,,,,,,,,,,
node,700775293,52.5064642,13.4959683,Berlin,,54,10317,Weitlingstraße,,,2025-10-25,,,,,,,,Cleopatra's Oriental Food,Mo-Sa 08:30-22:00,,convenience,,,,,,,,,,,,2025-10-25,,,,,,,,,,,,0,,,,,,,,,,,,,,,,,,,,,,,,,,,,,,,,,,,,,,,,,,,,,,,,,,,,,,,,,,,,,,,,,,,,,,,,,,,,,,,,,,,,,,,,,,,,,,,,,,,,,,,,,,,,,,,,,,,,,,,,,,,,,,,,,,,,,,,,,,,,,,,,,,,,,,,,,,,,,,,,,,,,,,,,,,,,,,,,,,,,,,,,,,,,,,,,,,,,,,,,,,,
node,700775294,52.5067828,13.4965201,Berlin,,49,10317,Weitlingstraße,,,2025-10-21,,,,,,,,Trang Asia Supermarkt,"Mo-Fr 09:00-20:00, Sa 09:00-19:00",,convenience,yes,,,,,,,,,yes,,2025-10-21,,,,+49 152 36763353,,,,,,,,,no,no,,,yes,,,,,,,,,,,,,,,,,,asian,,,,,,,,,,,,,,,,,,,,,,,,,,,,,,,,,,,,,,,,,,,,,,,,,,,,,,,,,,,,,,,,,,,,,,,,,,,,,,,,,,,,,,,,,,,,,,,,,,,,,,,,,,,,,,,,,,,,,,,,,,,,,,,,,,,,,,,,,,,,,,,,,,,,,,,,,,,,,,,,,,,,,,,,,,,,,,,,,,,,
node,703744109,52.4031371,13.5072516,,,,,,,,,,,,,,,,,,,convenience,,,,,,,,,,,,,,,,,,,,,,,,,,,,,,,,,,,,,,,,,,,,,,,,,,,,,,,,,,,,,,,,,,,,,,,,,,,,,,,,,sports_centre,,,,,,,,,,,,,,,,,,,,,,,,,,,,,,,,,,,,,,,,,,,,,,,,,,,,,,,,,,,,,,,,,,,,,,,,,,,,,,,,,,,,,,,,,,,,,,,,,,,,,,,,,,,,,,,,,,,,,,,,,,,,,,,,,,,,,,,,,,,,,,,,,,
node,707353241,52.5508319,13.3787053,Berlin,,61,13357,Pankstraße,,,,,,,,,,,Spätkauf Öztep,Mo-Sa 09:00-23:00,,convenience,,,,,,,,,,,,2024-03-24,,,,,,,,,,,,,,,,,,,,,,,,,,,,,,,,,,,,,,,,,,,,,,,,,,,,,,,,,,,,,,,,,,,,,,,,,,,,,,,,,,,,,,,,,,,,,,,,,,,,,,,,,,,,,,,,,,,,,,,,,,,,,,,,,,,,,,,,,,,,,,,,,,,,,,,,,,,,,,,,,,,,,,,,,,,,,,,,,,,,,,,,,,,,,,,,,,,,,,,,,,,,,,,,,,,,,,,
node,707452472,52.5463987,13.3696159,Berlin,,26,13347,Reinickendorfer Straße,,,2025-11-21,,,,,,,,Backwaren,Mo-Sa 06:00-19:00; Su 07:00-14:00,,convenience,no,,,,,,,,,,,,,,,,,,,,,,,0,,,,,,,,,,,,,,,,,,yes,,,,,,,,,,,,,,,,,,,,,,,,,,,,,,,,,,,,,,,,yes,,,,,,,,,,,,,,,,,,,,,,,,,,,,,,,,,,,,,,,,,,,,,,,,,,,,,,,,,,,,,,,,,,,,,,,,,,,,,,,,,,,,,,,,,,,,,,,,,,,,,,,,,,,,,,,,,,,,,,,,,,,,,,,,,,,,,,,,,,,,,,,,,
node,707490367,52.552227,13.3821164,Berlin,DE,25,13357,Badstraße,Gesundbrunnen,,,,,,,,,,Kiosk,,,convenience,no,,,,,,,,,,,2025-04-28,,,,,,,,,,,,0,,,,,,,,,,,,,,,,,,,,,,,,,,,,,,,,,,,,,,,,,,,,,,,,,,,,,,,,,,,,,,,,,,,,,,,,,,,,,,,,,,,,,,,,,,,,,,,,,,,,,,,,,,,,,,,,,,,,,,,,,,,,,,,,,,,,,,,,,,,,,,,,,,,,,,,,,,,,,,,,,,,,,,,,,,,,,,,,,,,,,,,,,,,,,,,,,,,,,,,,,,,
node,715203874,52.4734336,13.2990118,Berlin,,1,14199,Breite Straße,,,2024-08-26,,,,,,,,Köker Kiosk,Mo-Su 05:30-21:00,Nevzat Köker,kiosk,no,,,,,,,,,,,,,,,+493082407726,,,,,,,,,,,,,yes,,,,,,,,,,,,,,,,,,,,,,,,,,,,,,,,,,,,,,,,,,,,,,,,,,,,,,,,,,,,,,,,,,,,,,,,,,,,,,,,,,,,,,,,,,,,,,,,,,,,,,,,,,,,,,,,,,,,,,,,,,,,,,,,,,,,,,,,,,,,,,,,,,,,,,,,,,,,,,,,,,,,,,,,,,,,,,,,,,,,,,,,,,,,,,,,,,,,,,
node,725621498,52.4727399,13.3140969,Berlin,DE,8,14197,Rüdesheimer Straße,Wilmersdorf,,,,,,,,,,Spætkauf am Rüdi,"Mo-Sa 08:00-24:00, Su 08:00-20:00",,convenience,limited,,,,,,,,,,,,,,,,,,,,,,,,yes,yes,,,,,,,,,,,,,,,,,,,,,,,,,,,,,,,,,,,,,,,,,,,,,,,,,,,,,,,,,,,,,,,,,,,,,,,,,,,,,,,,,,,,,,,,,,,,,,,,,,,,,,,,,,,,,,,,,,,,,,,,,,,,,,,,,,,,,,,,,,,,,,,,,,,,,,,,,,,,,,,,,,,,,,,,,,,,,,,,,,,,,,,,,,,,,,,,,,,,,,,,,
node,730172938,52.493188,13.3668589,Berlin,DE,15,10783,Goebenstraße,Schöneberg,,,,,,,,,,Spätshop,"Mo-Fr 05:30-24:00, Sa 06:30-01:00, Su,PH 07:30-01:00",Knauf Automaten,kiosk,limited,,,,,,,,,,,2022-11-14,,,,,,,,,,,,0,,,,,,,,,,,,,,,,,,,,,,,,,,,,,,,,,,,,,,,,,,,,,,,,,,,,,,,,,,,yes,yes,yes,,,,,,,,,,,,,,,,,,,,,,,,,,,,,,,,,,,,,,,,,,,,,,,,,,,,,,,,,,,,,,,,,,,,,,,,,,,,,,,,,,,,,,,,,,,,,,,,,,,,,,,,,,,,,,,,,,,,,,,,,,,,,,,,,,,,,,,,,,,,,,
node,731948133,52.500549,13.3637729,,,,,,,,,,,,,,,,Bodega,,,convenience,,,,,,,,,,,,,,,,,,,,,,,,,,,,,,,,,,,,,,,,,,,,,,,,,,,,,,,,,,,,,,,,,,,,,,,,,,,,,,,,,,,,,,,,,,,,,,,,,,,,,,,,,,,,,,,,,,,,,,,,,,,,,,,,,,,,,,,,,,,,,,,,,,,,,,,,,,,,,,,,,,,,,,,,,,,,,,,,,,,,,,,,,,,,,,,,,,,,,,,,,,,,,,,,,,,,,,,,,,,,,,,,,,,
node,735944510,52.4446383,13.5681553,,,,,,,,2025-01-05,,,,,,,,CAN KIOSK,Mo-Sa 07:00-01:00,,kiosk,no,,,,,,,,,,,2025-01-05,,,,,,,,,,,,0,yes,yes,,,,,,,,,,,,,,,,,,,,,,,,,,,,,,,,,,,,,,,,,,,,,,,,,,,,,,,,,,,,,,,,,,,,,,,,,,,,,,,,,,,,,,,,,,,,,,,,,,,,,,,,,,,,,,,,,,,,,,,,,,,,,,,,,,,,,,,,,,,,,,,,,,,,,,,,,,,,,,,,,,,,,,,,,,,,,,,,,,,,,,,,,,,,,,,,,,,,,,,,,
node,736620808,52.4746512,13.4232443,,,,,,,,2024-03-25,,,,,,,,Kiezladen,,,convenience,yes,,,,,,,,,,,,,,,,,,,,,no,,,,,,,,,,,,,,,,,,post_partner,Deutsche Post;DHL,,DHL-Paketshop,,,,,,,,,,,,,,,,,,,,,,,,,,,,,,,,,,,,,,,,,,,,,,,,,,,,,,,,,,,,,,,,,,,,,,,,,,,,,,,,,,,,,,,,,,,,,,,,,,,,,,,,,,,,,,,,,,,,,,,,,,,,,,,,,,,,,,,,,,,,,,,,,,,,,,,,,,,,,,,,,,,,,,,,,,,,,,,,,,,,,,,,
node,736787803,52.5278335,13.4100874,Berlin,DE,45,10178,Rosa-Luxemburg-Straße,Mitte,,2024-04-29,,,,,,,,Pi pa po,,,convenience,no,,,,,,,,,,,2024-12-20,,,,,,,,,,no,,,,,,,,,,,,,,,,,,,,,,,,,,,,,,,,,,,,,,,,,,,,,,,,,,,,,,,,,,,,,,,,,,,,,,,,,,,,,,,,,,,,,,,,,,,,,,,,,,,,,,,,,,,,,,,,,,,,,,,,,,,,,,,,,,,,,,,,,,,,,,,,,,,,,,,,,,,,,,,,,,,,,,,,,,,,,,,,,,,,,,,,,,,,,,,,,,,,,,,,,,,,,
node,745722560,52.4897193,13.4334928,Berlin,DE,41,12047,Pannierstraße,Neukölln,,,,,,,,,,Kiosk,"Mo,We-Sa 07:30-24:00, Tu 07:30-23:00",,kiosk,no,,,,,,,,,,,,,,,,,,,,,,,,,,,,,,,,,,,,,,,,,,,,,,,,,,,,,,,,,,,,,,,,,,,,,,Lotto,,,,,,,,,,,,,,,,,,,,,,,,,,,,,,,,,,,,,,,,,,,,,,,,,,,,,,,,,,,,,,,,,,,,,,,,,,,,,,,,,,,,,,,,,,,,,,,,,,,,,,,,,,,,,,,,,,,,,,,,,,,,,,,,,,,,,,,,,,,,,,,,,,,,,,,,,,,,
node,745729558,52.487789,13.431657,Berlin,DE,53a,12047,Pannierstraße,Neukölln,,,,,,,,,,Small All,,,kiosk,,,,,,,,,,,,,,,,,,,,,,,,,,,,,,,,,,,,,,,,,,,,,,,,,,,,,,,,,,,,,,,,,,,,,,,,,,,,,,,,,,,,,,,,,,,,,,,,,,,,,,,,,,,,,,,,,,,,,,,,,,,,,,,,,,,,,,,,,,,,,,,,,,,,,,,,,,,,,,,,,,,,,,,,,,,,,,,,,,,,,,,,,,,,,,,,,,,,,,,,,,,,,,,,,,,,,,,,,,,,,,,,,,,
node,745733025,52.4879348,13.430489,Berlin,DE,205,12047,Weserstraße,Neukölln,,,,,,,,,,small all,Mo-Sa 06:30-24:00,,convenience,limited,,,,,,,,,,,2023-06-18,,,,,,,,,,,,,,,,,,,,,,,,,,,,,,,,,,,,,,,,,,,,,,,,,,,,,,,,,,,,,,,,,,,,,,,,,,,,,,,,,,,,,,,,,,,,,,,,,,,,,,,,,,,,,,,,,,,,,,,,,,,,,,,,,,,,,,,,,,,,,,,,,,,,,,,,,,,,,,,,,,,,,,,,,,,,,,,,,,,,,,,,,,,,,,,,,,,,,,,,,,,,,,,,,,,,,,,
node,746478626,52.4875623,13.4375216,Berlin,DE,30,12045,Weichselstraße,Neukölln,,2025-10-10,,,,,,,,Honigbienchen Späti & Bakery,"Mo-Th 09:00-24:00, Fr,Sa 09:00-01:00",,convenience,yes,,,,,,,,,,,2025-10-10,,,,,,,,,,,,,yes,yes,,,,,,,,,,,,,,,,,,,,,,,,,,,,,,,,,,,,,,,,,,,,,,,,,,,,,,,,,,,,,,,,,,,,,,,,,,,,,,,,,,,,,,,,,,,,,,,,,,,,,,,,,,,,,,,,,,,,,,,,,,,,,,,,,,,,,,,,,,,,,,,,,,,,,,,,,,,,,,,,,,,,,,,,,,,,,,,,,,,,,,,,,,,,,,,,,,,,,,,,,
node,746853061,52.5802548,13.3988194,,,,,,,bar,2025-01-26,,,,,,,,Babylon Café Bar,,,convenience,limited,,,,,,,,,,,,,,,,,yes,,yes,,no,,,,,,,,,,,,,,,,,,,,,,,,,,,,,,,,,terminal,,,,,,,,,,,,,,,,,,,,,,,,,,,,,,,yes,,,,,,,,,,,,,,,,,,,,,,,,,,,,,,,,,,,,,,,,,,,,,,,,,,,,,,,,,,,,,,,,,,,,,,,,,,,,,,,,,,,,,,,,,,,,,,,,,,,,,,,,,,,,,,,,,,,,,,,,,,,,,,,,,,,,,,,,,,,,,
node,746901006,52.4880929,13.3397773,,,,,,,,,,,,,,,,,,,kiosk,limited,,,,,,,,,,,2024-07-24,,,,,,,,,,,,,,,,,,,,,,,,no,,,,,,,,,,,,,,,,,,,,,,,,,,,,,,,,,,,,,,,,,,,,,,,,,,,,,,,,,,,,,,,,,,,,,,,,,,,,,,,,,,,,,,,,,,,,,,,,,,,,,,,,,,,,,,,,,,,,,,,,,,,,,,,,,,,,,,,,,,,,,,,,,,,,,,,,,,,,,,,,,,,,,,,,,,,,,,,,,,,,,,,,,,,,,,,
node,747845608,52.4553748,13.5765726,Berlin,DE,49,12555,Bahnhofstraße,Köpenick,,2024-01-28,,,,,,,,Café Kiez,,,convenience,no,,,,,,,,,,,,,,,,,,,,,no,,,no,no,,,,,,retail,,,,,,,,,,,,,,,,,,,,,,,,,,,,,,,,,,,,,,,,,,,,,,,,,,,,,,,,,,,,,,,,,,,,,,,,,,,,,,,,,,,,,,,,,,,,,,,,,,,,,,,,,,,,,,,,,,,,,,,,,,,,,,,,,,,,,,,,,,,,,,,,,,,,,,,,,,,,,,,,,,,,,,,,,,,,,,,,,,,,,,,,,,,,,,,,,,,
node,750510981,52.5526259,13.4392796,Berlin,DE,,13086,Langhansstraße,Weißensee,,,,,,,,,,,,,kiosk,,,,,,,,,,,,,,,,,,,,,,,,,,,,,,,,,,,,,,,,,,,,,,,,,,,,,,,,,,,,,,,,,,,,,,,,,,,,,,,,,,,,,,,,,,,,,,,,,,,,,,,,,,,,,,,,,,,,,,,,,,,,,,,,,,,,,,,,,,,,,,,,,,,,,,,,,,,,,,,,,,,,,,,,,,,,,,,,,,,,,,,,,,,,,,,,,,,,,,,,,,,,,,,,,,,,,,,,,,,,,,,,,,,
node,752266387,52.4703259,13.4796229,,,,,,,,,,,,,,,,,,,kiosk,,,,,,,,,,,,,,,,,,,,,,,,,,,,,,,,,,,,,,,,,,,,,,,,,,,,,,,,,,,,,,,,,,,,,,,,,,,,,,,,,,,,,,,,,,,,,,,,,,,,,,,,,,,,,,,,,,,,,,,,,,,,,,,,,,,,,,,,,,,,,,,,,,,,,,,,,,,,,,,,,,,,,,,,,,,,,,,,,,,,,,,,,,,,,,,,,,,,,,,,,,,,,,,,,,,,,,,,,,,,,,,,,,,
node,752995887,52.4739877,13.4434343,,,,,,,,,,,,,,,,Rixdorfer Getränke,,,kiosk,no,,,,,,,,,,,,,,,,,,,,,,,,,,,,,,,,,,,,,,,,,,,,,,,,,,,,,,,,,,,,,,,,,,,,,,,,,,,,,,,,,,,,,,,,,,,,,,,,,,,,,,,,,,,,,,,,,,,,,,,,,,,,,,,,,,,,,,,,,,,,,,,,,,,,,,,,,,,,,,,,,,,,,,,,,,,,,,,,,,,,,,,,,,,,,,,,,,,,,,,,,,,,,,,,,,,,,,,,,,,,,,,,,,
node,753361458,52.5704399,13.410203,Berlin,DE,1,13187,Berliner Straße,Pankow,,,,,,,,,,Flick Flack,24/7,,convenience,no,,,,,,,,,,,2025-10-05,,,,,,,,,,no,,,,,,,,,,,,,,,,,,,,,,,,,,,,,,,,,,,,,,,,,,,,,,,,,,,,,,,,,,,,,,,,,,,,,,,,,,,,,,,,,,,,,,,,,,,,,,,,,,,,,,,,,,,,,,,,,,,,,,,,,,,,,,,,,,,,,,,,,,,,,,,,,,,,,,,,,,,,,,,,,,,,,,,,,,,,,,,,,,,,,,,,,,,,,,,,,,,,,,,,,,,,,
node,753467611,52.5712603,13.4102412,,,,,,,,2024-12-14,,,,,,,,,,,kiosk,limited,,,,,,,,,,,2024-12-14,,,,,,,,,,no,,,,,,,,,,,,,,,,,yes,,,,,,,,,,,,,,,,,,,,,,,,,,,,,,,,,,,,,,,,,,,,,,,,,,,,,,,,,,,,,,,,,,,,,,,,,,,,,,,,,,,,,,,,,,,,,,,,,,,,,,,,,,,,,,,,,,,,,,,,,,,,,,,,,,,,,,,,,,,,,,,,,,,,,,,,,,,,,,,,,,,,,,,,,,,,,,,,,,,,,,,,,,,,
node,760002896,52.4719128,13.4458503,,,,,,,,,,,,,,,,Muris Späti,,,kiosk,,,,,,,,,,,,,,,,,,,,,,,,,,,,,,,,,,,,,,,,,,,,,,,,,,,,,,,,,,,,,,,,,,,,,,,,,,,,,,,,,,,,,,,,,,,,,,,,,,,,,,,,,,,,,,,,,,,,,,,,,,,,,,,,,,,,,,,,,,,,,,,,,,,,,,,,,,,,,,,,,,,,,,,,,,,,,,,,,,,,,,,,,,,,,,,,,,,,,,,,,,,,,,,,,,,,,,,,,,,,,,,,,,,
node,760002901,52.4715943,13.4430406,Berlin,DE,,12055,Wipperstraße,Neukölln,,,,,,,,,,Dr. Billy's Getränke,,,kiosk,yes,,,,,,,,,,,,,,,,,,,,,,,,,,,,,,,retail,,,,,,,,,,,,,,,,,,,,,,,,,,,,,,,,,,,,,,,,,,,,,,,,,,,,,,,,,,,,,,,,,,,,,,,,,,,,,,,,,,,,,,,,,,,,,,,,,,,,,,,,,,,,,,,,,,,,,,,,,,,,,,,,,,,,,,,,,,,,,,,,,,,,,,,,,,,,,,,,,,,,,,,,,,,,,,,,,,,,,,,,,,,,,,,,,,,
node,765576017,52.42549,13.2528388,,,,,,,,,,,,,,,,,,,kiosk,yes,,,,,,,,,,,,,,,,,,,,,,,,,,,,,,,,,,,no,,,,,,,,,,,,,,,,,,,,,,,,,,,,,,,,,,,,,,,,,,,,,,,,,,,,,,,,,,,,,,,,,,,,,,,,,,,,,,,,,,,,,,,,,,,,,,,,,,,,,,,,,,,,,,,,,,,,,,,,,,,,,,,,,,,,,,,,,,,,,,,,,,,,,,,,,,,,,,,,,,,,,,,,,,,,,,,,,,,,,,,,,,,,,,,
node,769270131,52.5745998,13.357608,Berlin,DE,6,13407,Alt-Reinickendorf,Reinickendorf,,2023-08-15,,,,,,,,Naturkost,Mo-Fr 09:00-18:00; Sa 09:00-13:30,,convenience,yes,,,,,,,,,,,,,,,,,,only,,,,,,,,,,,,,,,,,,,,,,,,,,,,,,,,,,,,,,,,,,,,,,,,,,,,,,,,,,,,,,,,,,,,,,,,,,,,,,,,,,,,,,,,,,,,,,,,,,,,,,,,,,,,,,,,,,,,,,,,,,,,,,,,,,,,,,,,,,,,,,,,,,,,,,,,,,,,,,,,,,,,,,,,,,,,,,,,,,,,,,,,,,,,,,,,,,,,,,,,,,,,,,,,
node,769318432,52.5014489,13.4190952,Berlin,DE,30,10999,Oranienstraße,Kreuzberg,,2023-03-06,,,,,,,,,,,kiosk,no,,,,,,,,,,,2024-07-07,,,,,,,,,,no,,0,,,,,,,,,,,,no,,,,,,,,,,,,,,,0,,,,,,no,,,,,,,,,,,,,,,,,,,,,,survey,,,,,,,,,,,,,,,,,,,,,,,,,,,,,,,,,,,,,,,,,,,,,,,,,,,,,,,,,,,,,,,,,,,,,,,,,,,,,,,,,,,,,,,,,,,,,,,,,,,,,,,,,,,,,,,,,,,,,,,,,,,,,,,,,,,,,,,,,,,,,,,,,,,,
node,769849999,52.566405,13.3632915,,,,,,,,2024-03-28,,,,,,,,Resi's Spät Shop,Mo-Sa 06:00-02:00,,convenience,yes,,,,,,,,,,,,,,,,,,,,,,,,,,,,,,,,,,,,,,,,,,,,,,,,,,,,,,,,,,,,,,,,,,,,,,,,,,,,,,,,,,,,,,,,,,,,,,,,,,,,,,,,,,,,,,,,,,,,,,,,,,,,,,,,,,,,,,,,,,,,,,,,,,,,,,,,,,,,,,,,,,,,,,,,,,,,,,,,,,,,,,,,,,,,,,,,,,,,,,,,,,,,,,,,,,,,,,,,,,,,,,,,,,
node,778710944,52.537337,13.4081356,Berlin,DE,26,10435,Kastanienallee,Prenzlauer Berg,,,,,,,,,,Spätkauf,"Mo-Th 09:00-23:00, Su 10:00-24:00; Fr 09:00-24:00",,convenience,no,,,,,,,,,,,2024-06-11,,,,,,,,,,,,0,,,,,,,,,,,,,,,,,,,,,,,,,,,,,,,,,,,,,,,,,,,,,,,,,,,,,,,,,,,,,,,,,,,,,,,,,,,,,,,,,,,,,,,,,,,,,,,,,,,,,,,,,,,,,,,,,,,,,,,,,,,,,,,,,,,,,,,,,,,,,,,,,,,,,,,,,,,,,,,,,,,,,,,,,,,,,,,,,,,,,,,,,,,,,,,,,,,,,,,,,,,
node,778710967,52.5401664,13.4111403,Berlin,DE,5,10435,Kastanienallee,Prenzlauer Berg,,,,,,,,,,Polat's Minimarkt,,,convenience,limited,,,,,,,,,,,2025-04-12,,,,,,,,,,no,,0,,,,,,,,,,,,,,,,,,,,,,,turkish,,,,,,,,,,,,,,,+49-177-7198831,,,,,,,,,,,,,,,,,,,,,,,,,,,,,,,,,,,,,,,,,,,,,,,,,,,,,,,,,,,,,,,,,,,,,,,,,,,,,,,,,,,,,,,,,,,,,,,,,,,,,,,,,,,,,,,,,,,,,,,,,,,,,,,,,,,,,,,,,,,,,,,,,,,,,,,,,,,,,,,,,,,,,
node,783442851,52.5409467,13.4136963,,,,,,,,,,,,,,,,Späti,,,convenience,,,,,,,,,,,,,,,,,,,,,,,,,,,,,,,,,,,,,,,,,,,,,,,,,,,,,,,,,,,,,,,,,,,,,,,,,,,,,,,,,,,,,,,,,,,,,,,,,,,,,,,,,,,,,,,,,,,,,,,,,,,,,,,,,,,,,,,,,,,,,,,,,,,,,,,,,,,,,,,,,,,,,,,,,,,,,,,,,,,,,,,,,,,,,,,,,,,,,,,,,,,,,,,,,,,,,,,,,,,,,,,,,,,
node,784381069,52.5745181,13.3548337,,,,,,,,2023-08-15,,,,,,,,Lotto,,,kiosk,limited,,,,,,,,,,,,,,,,,,,,,no,,,,,,,,,,,,,,,,,,,,,,,,,,,,,,,,,,,,,,,,,,,,,,,,,,,,,,,,,,,,,,,,,,,,,,,,,,,,,,,,,,,,,,,,,,,,,,,,,,,,,,,,,,,,,,,,,,,,,,,,,,,,,,,,,,,,,,,,,,,,,,,,,,,,,,,,,,,,,,,,,,,,,,,,,,,,,,,,,,,,,,,,,,,,,,,,,,,,,,,,,,,,,
node,790502632,52.532597,13.4207405,Berlin,DE,26,10405,Prenzlauer Allee,Prenzlauer Berg,,,,,,,,,,Dilek,,,convenience,limited,,,,,,,,,,,,,,,,,,,,,,,,,,,,,,,,,,,,,,,,,,,,,,,,,,,,,,,,,,,,,,,,,,,,,,,,,,,,,,,,,,,,,,,,,,,,,,,,,,,,,,,,,,,,,,,,,,,,,,,,,,,,,,,,,,,,,,,,,,,,,,,,,,,,,,,,,,,,,,,,,,,,,,,,,,,,,,,,,,,,,,,,,,,,,,,,,,,,,,,,,,,,,,,,,,,,,,,,,,,,,,,,,,
node,803582040,52.5496181,13.45622,Berlin,DE,83,13088,Berliner Allee,Weißensee,,2025-06-12,,,,,,,,Brra Späti,,,convenience,,,,,,,,,,,,,,,,,,,,,,no,,,,,,,,,,,,,,,,,,,,,,,,,,,,,,,,,,,,,,,,,,,,,,,,,,,,,,,,,,,,,,,,,,,,,,,,,,,,,,,,,,,,,,,,,,,,,,,,,,,,,,,,,,,,,,,,,,,,,,,,,,,,,,,,,,,,,,,,,,,,,,,,,,,,,,,,,,,,,,,,,,,,,,,,,,,,,,,,,,,,,,,,,,,,,,,,,,,,,,,,,,,,,
node,811203054,52.5323146,13.3498902,,,,,,,,,,,,,,,,Backshop & Kiosk,,,kiosk,,,,,,,,,,,,,,,,,,,,,,,,,,,,,,,,,,,,,,,,,,,,,,,,,,,,,,,,,,,,,,,,,,,,,,,,,,,,,,,,,,,,,,,,,,,,,,,,,,,,,,,,,,,,,,,,,,,,,,,,,,,,,,,,,,,,,,,,,,,,,,,,,,,,,,,,,,,,,,,,,,,,,,,,,,,,,,,,,,,,,,,,,,,,,,,,,,,,,,,,,,,,,,,,,,,,,,,,,,,,,,,,,,,
node,838429741,52.506133,13.4655484,Berlin,DE,28,10245,Sonntagstraße,Friedrichshain,,2025-01-11,,,,,,,,Käptn Kiez,"Mo 09:00-24:00; Tu-Th 00:00-02:00,09:00-24:00; Fr 00:00-02:00,10:00-24:00; Sa 00:00-04:00,10:00-24:00; Su 00:00-04:00",,convenience,limited,,,,,,,,,,,,,,,,,,,,,,,,,,,,,,,,,,,,,,,,,,,,,,,,,,,,,,,,,,,,,,,,,,,,,,,,,,,,,,,,,,,,,,,,,,,,,,,,,,,,,,,,,,,,,,,,,,,,,,,,,,,,,,,,,,,,,,,,,,,,,,,,,,,,,,,,,,,,,,,,,,,,,,,,,,,,,,,,,,,,,,,,,,,,,,,,,,,,,,,,,,,,,,,,,,,,,,,,,,,,,,,,,,
node,838429759,52.5049744,13.4674633,,,,,,,,,,,,,,,,Kiosk 24,Su-Th 10:00-00:00; Fr-Sa 10:00-02:00,,convenience,yes,,,,,,,,,,,2025-03-09,,,,,,,,,,,,,,,,,,,,,,,,,,,,,,,,,,,,,,,,,,,,,,,,,,,,,,,,,,,,,,,,,,,,,,,,,,,kiosk,,,,,,,,,,,,,,,,,,,,,,,,,,,,,,,,,,,,,,,,,,,,,,,,,,,,,,,,,,,,,,,,,,,,,,,,,,,,,,,,,,,,,,,,,,,,,,,,,,,,,,,,,,,,,,,,,,,,,,,,,,,,,,,,,,,,,,,,,,,,
node,838429794,52.5046457,13.4678618,Berlin,DE,2,10245,Sonntagstraße,Friedrichshain,,2023-12-18,,,,,,,,Die Späti Brüder,,,convenience,no,,,,,,,,,,,,,,,,,,,,,no,no,,yes,yes,,,,,,,,,,,,,,,,,,,,,,,,,,,,,,,,,,,,,,,,,,,,,,,,,,,,,,,,,,,,,kiosk,no,,,,,,,,,,,,,,,,,,,,,,,,,,,,,,,,,,,,,,,,,,,,,,,,,,,,,,,,,,,,,,,,,,,,,,,,,,,,,,,,,,,,,,,,,,,,,,,,,,,,,,,,,,,,,,,,,,,,,,,,,,,,,,,,,,,,,,,,,,,
node,845055641,52.6892438,13.2803171,,,,,,,,,,,,,,,,,,,kiosk,,,,,,,,,,,,,,,,,,,,,,,,,,,,,,,,,,,,,,,,,,,,,,,,,,,,,,,,,,,,,,,,,,,,,,,,,,,,,,,,,,,,,,,,,,,,,,,,,,,,,,,,,,,,,,,,,,,,,,,,,,,,,,,,,,,,,,,,,,,,,,,,,,,,,,,,,,,,,,,,,,,,,,,,,,,,,,,,,,,,,,,,,,,,,,,,,,,,,,,,,,,,,,,,,,,,,,,,,,,,,,,,,,,
node,846251052,52.4713935,13.3231813,Berlin,DE,82,12161,Wiesbadener Straße,Friedenau,,2025-06-15,,,,,,,,Bio Grande,Mo-Fr 09:00-19:00; Sa 09:00-14:00,Dirk Ludwig,convenience,limited,,,,,,,,,,https://bio-grande.de/,,,,,+493085103648,,,only,,,,,,,,,,,,,,,,,,,,,,,,,,,,,,,,,,,,,,,,,,,,,,,,,,,,,,,,,,,,,,,,,,,,,,,,,,,,,,,,,,,,,,,,,,,,,,,,,,,,,,,,,,,,,,,,,,,,,,,,,,,,,,,,,,,,,,,,,,,,,,,,,,,,,,,,,,,,,,,,,,,,,,,,,,,,,,,,,,,,,,,,,,,,,,,,,,,,,,,,,,,,,,,,
node,847906246,52.4675348,13.5130053,Berlin,DE,36B,12459,Edisonstraße,Oberschöneweide,fast_food,2023-04-23,,,,,,,,Bistro Edison,Mo-Su 09:00-01:00,,kiosk,yes,,,,,,,,,,,,,,,+49 176 66668659,,yes,,yes,,no,,,,,,,,,,,,,,,,,,,,,,,,,international,,,,,,,,,,,,,,,,,,,,,,,,,,,,,,,,,,,,,,,,,,yes,,,,,,,,,,,,,,,,,,,,,,,,,,,,,,,,,,,,,,,,,,,,,,,,,,,,,,,,,,,,,,,,,,,,,,,,,,,,,,,,,,,,,,,,,,,,,,,,,,,,,,,,,,,,,,,,,,,,,,,,,,,,,,,,,,,,,,,,,,
node,847907650,52.4669419,13.5133836,Berlin,DE,29 A,12459,Edisonstraße,Oberschöneweide,,,,,,,,,,Spätkauf 63,Mo-Su 07:00-00:00,,convenience,no,,,,,,,,,,,,,,,,,,,,,no,,,,,,,,,,,,,,,no,,,,,,,,,,asian,,,,,,,,,,,,,,,+49 180 6 882663,,,,,,,,,,,,,,,,,,,,,,,,,,,,,,,,,,,,,,,,,,,,,,,,,,,,,,,,,,,,,,,,,,,,,,,,,,,,,,,,,,,,,,,,,,,,,,,,,,,,,,,,,,,,,,,,,,,,,,,,,,,,,,,,,,,,,,,,,,,,,,,,,,,,,,,,,,,,,,,,,,,,,
node,848169211,52.4668756,13.3198096,Berlin,,7,14197,Kreuznacher Straße,,,,,,,,,,,Kreuznacher Markt,,,convenience,no,,,,,,,,,,,,,,,,,,,,,,,,,,,,,,,,,,,,,,,,,,,,,,,,,,,,,,,,,,,,,,,,,,,,,,,,,,,,,,,,,,,,,,,,,,,,,,,,,,,,,,,,,,,,,,,,,,,,,,,,,,,,,,,,,,,,,,,,,,,,,,,,,,,,,,,,,,,,,,,,,,,,,,,,,,,,,,,,,,,,,,,,,,,,,,,,,,,,,,,,,,,,,,,,,,,,,,,,,,,,,,,,,,
node,854535872,52.4769516,13.419938,Berlin,DE,13,12049,Herrfurthstraße,Neukölln,,,,,,,,,,Zum Freund,,,kiosk,limited,,,,,,,,,,,2023-09-28,,,,,,,,,,,,,,,,,,,,,,,,,,,,,,,,,,,,,,,,,,,,,,,,,,,,,,,,,,,,,,,,,,,,,,,,,,,,,,,,,,,,,,,,,,,,,,,,,,,,,,,,,,,,,,,,,,,,,,,,,,,,,,,,,,,,,,,,,,,,,,,,,,,,,,,,,,,,,,,,,,,,,,,,,,,,,,,,,,,,,,,,,,,,,,,,,,,,,,,,,,,,,,,,,,,,,,,
node,861837755,52.4575426,13.3843486,Berlin,DE,207,12099,Tempelhofer Damm,Tempelhof,,,,,,,,,,Karam Al-Sham,Mo-Fr 08:30-20:00; Sa 08:30-19:00,,convenience,,,,,,,,,,,,2023-08-04,,,,,,,,,,,,,,,,,,,,,,,,,,,,,,,,,lebanese,,,,,,,,,,,,,,,,,,,,,,,,,,,,,,,,,,,,,,,,,,,,,,,,,,,,,,,,,,,,,,,,,,,,,,,,,,,,,,,,,,,,,,,,,,,,,,,,,,,,,,,,,,,,,,,,,,,,,,,,,,,,,,,,,,,,,,,,,,,,,,,,,,,,,,,,,,,,,,,,,,,,,,,,,,,,,,,,,,,,,,
node,863962594,52.5058829,13.4703076,,,,,,,,2023-08-15,,,,,,,,Kiez Shop,,,convenience,limited,,,,,,,,,,,2024-09-05,,,,,,,,,,no,,,,,,,,,,,,,,,,,,,,,,,,,,,,,,,,,,,,,,,,,,,,,,,,,,,,,,,,,,,,,,,,,,,,yes,,,,,,,,,,,,,,,,,,,,,,,,,,,,,,,,,,,,,,,,,,,,,,,,,,,,,,,,,,,,,,,,,,,,,,,,,,,,,,,,,,,,,,,,,,,,,,,,,,,,,,,,,,,,,,,,,,,,,,,,,,,,,,,,,,,,,,,,,
node,863962795,52.5072131,13.4684572,Berlin,,,,Boxhagener Straße,,,,,,,,,,,Boxi Spätshop,,,convenience,no,,,,,,,,,,,2024-09-05,,,,,,,,,,no,,,,,,,,,,,,,,,,,,,,,,,,,,,,,,,,,,,,,,,,,,,,,,,,,,,,,,,,,,,,,,,,,,,,,,,,,,,,,,,,,,,,,,,,,,,,,,,,,,,,,,,,,,,,,,,,,,,,,,,,,,,,,,,,,,,,,,,,,,,,,,,,,,,,,,,,,,,,,,,,,,,,,,,,,,,,,,,,,,,,,,,,,,,,,,,,,,,,,,,,,,,,,
node,863962912,52.5055336,13.4699372,,,,,,,,,,,,,,,,Svenni's Nachtshop,,,convenience,,,,,,,,,,,,2024-09-26,,,,,,,,,,,,,,,,,,,,,,,,,,,,,,,,,,,,,,,,,,,,,,,,,,,,,,,,,,,,,,,,,,,,,,,,,,,,,,,,,,,,,,,,,,,,,,,,,,,,,,,,,,,,,,,,,,,,,,,,,,,,,,,,,,,,,,,,,,,,,,,,,,,,,,,,,,,,,,,,,,,,,,,,,,,,,,,,,,,,,,,,,,,,,,,,,,,,,,,,,,,,,,,,,,,,,,,
node,867497539,52.5255327,13.3303661,Berlin,DE,30,10555,Gotzkowskystraße,Moabit,,,,,,,,,,Back und Späti Zwang,,,convenience,,,,,,,,,,,,,,,,,,,,,,,,,,,,,,,,,,,,,,,,post_partner,,,DHL,,,,,,,,,,,,,,,,,,,,,,,,,,,,,,,,,,,,,,,,,,,,,,,,,,,,,,,,,,,,,,,,,,,,,,,,,,,,,,,,,,,,,,,,,,,,,,,,,,,,,,,,,,,,,,,,,,,,,,,,,,,,,,,,,,,,,,,,,,,,,,,,,,,,,,,,,,,,,,,,,,,,,,,,,,,,,,,,,,,,,,,,
node,871561403,52.5017703,13.4179467,,,36,,Oranienstraße,,,,,,,,,,,#mein Spätkauf,,,kiosk,,,,,,,,,,,,2023-02-12,,,,,,,,,,,,,,,,,,,,,,,,,,,,,,,,,,,,,,,,,,,,,,,,,,,,,,,,,,,,,,,,,,,,,,,,,,,,,,,,,,,,,,,,,,,,,,,,,,,,,,,,,,,,,,,,,,,,,,,,,,,,,,,,,,,,,,,,,,,,,,,,,,,,,,,,,,,,,,,,,,,,,,,,,,,,,,,,,,,,,,,,,,,,,,,,,,,,,,,,,,,,,,,,,,,,,,,
node,871567939,52.4998613,13.4179577,,,,,,,,,,,,,,,,,,,kiosk,limited,,,,,,,,,,,,,,,,,,,,,,,,,,,,,,,,,,,no,,,,,,,,,,,,,,,,,,,,,,,,,,,,,,,,,,,,,,,,,,,,,,,,,,,,,,,,,,,,,,,,,,,,,,,,,,,,,,,,,,,,,,,,,,,,,,,,,,,,,,,,,,,,,,,,,,,,,,,,,,,,,,,,,,,,,,,,,,,,,,,,,,,,,,,,,,,,,,,,,,,,,,,,,,,,,,,,,,,,,,,,,,,,,,,
node,871642359,52.5001315,13.4181192,,,,,,,,,,,,,,,,,,,kiosk,limited,,,,,,,,,,,,,,,,,,,,,,,0,,,,,,,,,,,,,,,,,,,,,,,,,,,,,,,,,,,,,,,,,,,,,,,,,,,,,,,,,,,,,,,,,,,,,,,,,,,,,,,,,,,,,,,,,,,,,,,,,,,,,,,,,,,,,,,,,,,,,,,,,,,,,,,,,,,,,,,,,,,,,,,,,,,,,,,,,,,,,,,,,,,,,,,,,,,,,,,,,,,,,,,,,,,,,,,,,,,,,,,,,,,
node,872567941,52.5019791,13.4196108,,,,,,,,,,,,,,,,Spätkauf Usta,,,kiosk,no,,,,,,,,,,,,,,,,,,,,,,,,,,,,,,,,,,,,,,,,,,,,,,,,,,,,,,,,,,,,,,,,,,,,,,,,,,,,,,,,,,,,,,,,,,,,,,,,,,,,,,,,,,,,,,,,,,,,,,,,,,,,,,,,,,,,,,,,,,,,,,,,,,,,,,,,,,,,,,,,,,,,,,,,,,,,,,,,,,,,,,,,,,,,,,,,,,,,,,,,,,,,,,,,,,,,,,,,,,,,,,,,,,
node,874259347,52.4995687,13.417085,,,,,,,,,,,,,,,,Getränke Presseshop,,,kiosk,limited,,,,,,,,,,,,,,,,,,,,,,,,,,,,,,,,,,,,,,,,,,,,,,,,,,,,,,,,,,,,,,,,,,,,,,,,,,,,,,,,,,,,,,,,,,,,,,,,,,,,,,,,,,,,,,,,,,,,,,,,,,,,,,,,,,,,,,,,,,,,,,,,,,,,,,,,,,,,,,,,,,,,,,,,,,,,,,,,,,,,,,,,,,,,,,,,,,,,,,,,,,,,,,,,,,,,,,,,,,,,,,,,,,
node,874265690,52.5002066,13.4177077,Berlin,DE,,10999,Dresdener Straße,Kreuzberg,,2024-12-28,,,,,,,,Özlem,,,kiosk,limited,,,,,,,,,,,,,,,,,,,,,no,,,,,,,,,,,,,,,,,,,,,,,,,,,,,,,,,,,,,,,,,,,,,,,,,,,,,,,,,,,,,,,,,,,,,,,,,,,,,,,,,,,,,,,,,,,,,,,,,,,,,,,,,,,,,,,,,,,,,,,,,,,,,,,,,,,,,,,,,,,,,,,,,,,,,,,,,,,,,,,,,,,,,,,,,,,,,,,,,,,,,,,,,,,,,,,,,,,,,,,,,,,,,
node,886089002,52.4982415,13.4288427,Berlin,DE,14,10999,Wiener Straße,Kreuzberg,,2025-02-20,,,,,,,,Checkpoint Ali,,,convenience,no,,,,,,,,,,,,,,,,,,,,,no,,,,,,,,,,,,,,,,,,,,,,,,,,,,,,,,,,,,,,,,,,,,,,,,,,,,,,,,,,,,,,,,,,,,,,,,,,,,,,,,,,,,,,,,,,,,,,,,,,,,,,,,,,,,,,,,,,,,,,,,,,,,,,,,,,,,,,,,,,,,,,,,,,,,,,,,,,,,,,,,,,,,,,,,,,,,,,,,,,,,,,,,,,,,,,,,,,,,,,,,,,,,,
node,886154881,52.4987698,13.4273223,,,,,,,,,,,,,,,,,"Fr,Sa 06:30-04:00, Su-Th 06:30-03:00",,convenience,yes,,,,,,,,,,,,,,,,,,,,,,,,yes,yes,,,,,,,,,,no,,,,,,,,,,,,,,,,,,,,,,,,,,,,,,,,,,,,,,,,,,,,,,,,,,,,,,,,,,,,,,,,,,,,,,,,,,,,,,,,,,,,,,,,,,,,,,,,,,,,,,,,,,,,,,,,,,,,,,,,,,,,,,,,,,,,,,,,,,,,,,,,,,,,,,,,,,,,,,,,,,,,,,,,,,,,,,,,,,,,,,,,,,,,,,,
node,892846138,52.5033167,13.2729509,,,,,,,,,,,,,,,,Messeshop,,,kiosk,,,,,,,,,,,,,,,,,,,,,,,,,,,,,,,,,,,,,,,,,,,,,,,,,,,,,,,,,,,,,,,,,,,,,,,,,,,,,,,,,,,,,,,,,,,,,,,,,,,,,,,,,,,,,,,,,,,,,,,,,,,,,,,,,,,,,,,,,,,,,,,,,,,,,,,,,,,,,,,,,,,,,,,,,,,,,,,,,,,,,,,,,,,,,,,,,,,,,,,,,,,,,,,,,,,,,,,,,,,,,,,,,,,
node,918358570,52.5175352,13.293469,,,,,,,,,,,,,,,,,,,kiosk,no,,,,,,,,,,,,,,,,,,,,,,,,,,,,,,,,,,,,,,yes,,,,,,,,,,,,,,,,,,,,,,,,,,,,,,,,,,,,,,,,,,,,,,,,,,,,,,,,,,,,,,,,,,,,,,,,,,,,,,,,,,,,,,,,,,,,,,,,,,,,,,,,,,,,,,,,,,,,,,,,,,,,,,,,,,,,,,,,,,,,,,,,,,,,,,,,,,,,,,,,,,,,,,,,,,,,,,,,,,,,,,,,,,,,
node,939667453,52.5413191,13.3484826,,,,,,,,,,,,,,,,,Mo-Fr 05:30-10:30; Sa 05:30-14:00; Su 06:00-14:00,,kiosk,no,,,,,,,,,,,,,,,,,,,,,,,,,,,,,,,,,,,no,,,,,,,,,,,,,,,,,,,,,,,,,,,,,,,,,,,,,,,,,,,,,,,,,,,,,,,,,,,,,,,,,,,,,,,,,,,,,,,,,,,,,,,,,,,,,,,,,,,,,,,,,,,,,,,,,,,,,,,,,,,,,,,,,,,,,,,,,,,,,,,,,,,,,,,,,,,,,,,,,,,,,,,,,,,,,,,,,,,,,,,,,,,,,,,
node,939667458,52.5416669,13.3494233,,,12,,Föhrer Straße,,,,,,,,,,,Media Point,,,convenience,no,,,,,,,,,,,2022-12-12,,,,,,,,,,no,,0,,,,,,,,,,,,,,,,,,,,,,,,,,,,,,,,,,,,,,,,,,,,,,,,,,,,,,,,,,,,,,,,,,,,,,,,,,,,,,,,,,,,,,,,,,,,,,,,,,,,,,,,,,,,,,,,,,,,,,,,,,,,,,,,,,,,,,,,,,,,,,,,,,,,,,,,,,,,,,,,,,,,,,,,,,,,,,,,,,,,,,,,,,,,,,,,,,,,,,,,,,,
node,942631871,52.4891213,13.4084604,,,,,,,,2024-02-08,,,,,,,,,,,kiosk,yes,,,,,,,,,,,,,,,,,,,,,no,,,,,,,,,,,,,,,no,,yes,,,,,,,,,,,,,,,,,,,,,,,,,,,,,,,,,,,,,,,,,,,,,,,,,,,,,,,,,,,,,,,,,,,,,,,,,,,,,,,,,,,,,,,,,,,,,,,,,,,,,,,,,,,,,,,,,,,,,,,,,,,,,,,,,,,,,,,,,,,,,,,,,,,,,,,,,,,,,,,,,,,,,,,,,,,,,,,,,,,,,,,,,,,,
node,945142182,52.4210328,13.5389405,,,,,,,post_office,,,,,,,,,,,Deutsche Post,kiosk,yes,,,,,,,,,,,,,,,,,,,,,,,,,,,,,,,,,,,,,,,,,,,,,,,,,,,,,,,,,,,,,,,,,,,,,,,,,,,Q157645,,,,,,,,,,,,,,,de:Deutsche Post AG,,,,,,,,,,,,,,,,,,,,,,,,,,,,,,,,,,,,,,,,,,,,,,,,,,,,,,,,,,,,,,,,,,,,,,,,,,,,,,,,,,,,,,,,,,,,,,,,,,,,,,,,,,,,,,,,,,,,,,,,,,,,,,,,,,,,,,,,
node,947301033,52.5533409,13.4083302,,,,,,,,2025-04-21,,,,,,,,Lebensmittel und Getränke,Mo-Fr 09:30-22:00; Sa 10:30-22:00,,convenience,yes,,,,,,,,,,,,,,,,,,,,,no,,,,,,,,,,,,,,,,,,,,,,,,,,,,,,,,,,,,,,,,,,,,,,,,,,,,,,,,,survey,,,,,,,,,,,,,,,,,,,,,,,,,,,,,,,,,,,,,,,,,,,,,,,,,,,,,,,,,,,,,,,,,,,,,,,,,,,,,,,,,,,,,,,,,,,,,,,,,,,,,,,,,,,,,,,,,,,,,,,,,,,,,,,,,,,,,,,,,,,,,,,,,,,,
node,947968184,52.4904132,13.4102485,Berlin,DE,17,10967,Körtestraße,Kreuzberg,,2024-03-14,,,,,,,,HEIM Getränke2,Mo-Su 09:00-23:00,,convenience,limited,,,,,,,,,,,2024-05-14,,,,,,,,sidewalk,,,,0,yes,yes,,,,,,,,,,,,,,,,,,,,,,,,,,no,,,,,,,,,,,,,,,yes,,,,,,,,,,,,,,,,,,,,,,,,,,,,,,,,,,,,,,,,,,,,,,,,,,,,,,,,,,,,,,,,,,,,,,,,,,,,,,,,,,,,,,,,,,,,,,,,,,,,,,,,,,,,,,,,,,,,,,,,,,,,,,,,,,,,,,,,,,,,,,,,,,,,,,,,,,,,,,,,
node,947978148,52.4894565,13.4084449,Berlin,DE,35,10967,Körtestraße,Kreuzberg,,2025-01-02,,,,,,,,C@ll Shop,Mo-Su 09:00-24:00,,convenience,no,,,,,,,,,,,2025-01-02,,,,,,no,,yes,,,,,yes,yes,,,,,,,,,,,,,,,,,,,,,,,,,,,,,terminal,,,,,,,,,,,,,,,,,,,,,,,,,,,,,,,,,,,,,,,,,,,,,,,,,,,,,,,,,,,,,,,,,,,,,,,,,,,,,,,,,,,,,,,,,,,,,,,,,,,,,,,,,,,,,,,,,,,,,,,,,,,,,,,,,,,,,,,,,,,,,,,,,,,,,,,,,,,,,,,,,,,,,,,,,,,,
node,948130088,52.4918458,13.412318,,,,,,,,2025-03-20,,,,,,,,,,,kiosk,yes,,,,,,,,,,,,,,,,,,,,,no,,,,,,,,,,,,,,no,,,,,,,,,,,,,,,,,,,,,,,,,,,,,,,,,,,,,,,,,,,,,,,,,,,,,,,,,,,,,,,,,,,,,,,,,,,,,,,,,,,,,,,,,,,,,,,,,,,,,,,,,,,,,,,,,,,,,,,,,,,,,,,,,,,,,,,,,,,,,,,,,,,,,,,,,,,,,,,,,,,,,,,,,,,,,,,,,,,,,,,,,,,,,,,
node,948655799,52.4213368,13.5031786,Berlin,DE,,12355,Köpenicker Straße,Rudow,,,,,,,,,,Wirkaufenbastlerfahrzeuge.de,,,kiosk,,,,,,,,,,,,,,,,,,,,,,,,,,,,,,,,,,,,,,,,,,,,,,,,,,,,,,,,,,,,,,,,,,,,,,,,,,,,,,,,,,,,,,,,,,,,,,,,,,,,,,,,,,,,,,,,,,,,,,,,,,,,,,,,,,,,,,,,,,,,,,,,,,,,,,,,,,,,,,,,,,,,,,,,,,,,,,,,,,,,,,,,,,,,,,,,,,,,,,,,,,,,,,,,,,,,,,,,,,,,,,,,,,,
node,959231215,52.4916744,13.4143561,Berlin,DE,133,10967,Urbanstraße,Kreuzberg,,,,,,,,,,Arslan's Mix,Mo-Fr 07:00-19:00; Sa 08:00-19:00,,convenience,,,,,,,,,,,,,,,,,,,,,,,,,,,,,,,,,,,,,,,,,,,,,,,,,,,,,,,,,,,,,,,,,,,,,,,,,,,,,,,,,,,,,,,,,,,,,,,,,,,,,,,,,,,,,,,,,,,,,,,,,,,,,,,,,,,,,,,,,,,,,,,,,,,,,,,,,,,,,,,,,,,,,,,,,,,,,,,,,,,,,,,,,,,,,,,,,,,,,,,,,,,,,,,,,,,,,,,,,,,,,,,,,,,
node,960164645,52.5288187,13.317796,Berlin,DE,25,10553,Huttenstraße,Moabit,,,,,,,,,,Tante Emma Laden,,,kiosk,no,,,,,,,,,,,2023-05-01,,,,,,,,,,,,,,,,,,,,,,,,,,,,,,,,,,,,,,,,,,,,,,,,,,,,,,,,,,,,,,,,,,,,,,,,,,,,,,,,,,,,,,,,,,,,,,,,,,,,,,,,,,,,,,,,,,,,,,,,,,,,,,,,,,,,,,,,,,,,,,,,,,,,,,,,,,,,,,,,,,,,,,,,,,,,,,,,,,,,,,,,,,,,,,,,,,,,,,,,,,,,,,,,,,,,,,,
node,966564742,52.5318464,13.3992362,,,180,,Brunnenstraße,,,,,,,,,,,Getränkekiosk,Mo-Sa 10:00-21:00,,kiosk,yes,,,,,,,,,,,2024-08-03,,,,,,,,,,,,0,yes,yes,,,yes,,,,,,,,no,,,,,,,,,,,,,,0,,,,,limited,no,,,,,,,,,,,,,,,,,,,,,yes,survey,,,,,,,,,,,,,no,yes,yes,no,no,,,,,,,,,,,,,,,,,,,,,,,,,,,,,,,,,,,,,,,,,,,,,,,,,,,,,,,,,,,,,,,,,,,,,,,,,,,,,,,,,,,,,,,,,,,,,,,,,,,,,,,,,,,,,,,,,,,,,,,,,,,,,,,,,,,
node,975312186,52.5227533,13.4012964,Berlin,DE,7,10178,Neue Promenade,Mitte,,,,,,,,,,BisSpäter,,,convenience,yes,,,,,,,,,,,2023-01-08,,,,,,,,,,,,,,,,,,,,,,,,,,,,,,,,,,,,,,,,,,,,,,,,,,,,,,,,,,,,,,,,,,,,,,,,,,,,,,,,,,,,,,,,,,,,,,,,,,,,,,,,,,,,,,,,,,,,,,,,,,,,,,,,,,,,,,,,,,,,,,,,,,,,,,,,,,,,,,,,,,,,,,,,,,,,,,,,,,,,,,,,,,,,,,,,,,,,,,,,,,,,,,,,,,,,,,,
node,988401415,52.445943,13.500479,,,,,,,,,,,,,,,,Mini-Markt,,,convenience,,,,,,,,,,,,,,,,+49 30 6311067,,,,,,,,,,,,,,,,,,,,,,,,,,,,,,,,,,,,,,,,,,,,,,,,,,,,,,,,,,,,,,,,,,,,,,,,,,,,,,,,,,,,,,,,,,,,,,,,,,,,,,,,,,,,,,,,,,,,,,,,,,,,,,,,,,,,,,,,,,,,,,,,,,,,,,,,,,,,,,,,,,,,,,,,,,,,,,,,,,,,,,,,,,,,,,,,,,,,,,,,,,,,,,,,,,,
node,991750714,52.4938895,13.4218188,,,,,,,,,,,,,,,,latenight shop,,,convenience,no,,,,,,,,,,,,,,,,,,,,,,,,,,,,,,,,,,,,,,,,,,,,,,,,,,,,,,,,,,,,,,,,,,,,,,,,,,,,,,,,,,,,,,,,,,,,,,,,,,,,,,,,,,,,,,,,,,,,,,,,,,,,,,,,,,,,,,,,,,,,,,,,,,,,,,,,,,,,,,,,,,,,,,,,,,,,,,,,,,,,,,,,,,,,,,,,,,,,,,,,,,,,,,,,,,,,,,,,,,,,,,,,,,
node,996225627,52.5240885,13.4112437,,,,,,,,,,,,,,,,Bistro Alex,,,kiosk,yes,,,,,,,,,,,,,,,,,,,sidewalk,outside,,,,,,,,,,,,,,,,no,,,,,,,,,,,,,,,,,,,,,,,,,,,,,,,,,,,,,,,,,,,,,,,,,,,,,,,no,,,,,yes,private,,,,,,,,,,,,,,,,,,,,,,,,,,,,,,,,,,,,,,,,,,,,,,,,,,,,,,,,,,,,,,,,,,,,,,,,,,,,,,,,,,,,,,,,,,,,,,,,,,,,,,,,,,,,,,,,,,,,,,,,,,,,,,,,,
node,1003878962,52.5215787,13.4548622,,,,,,,,,,,,,,,,Getränke Pistor,Mo-Fr 07:00-22:00; Sa 08:00-22:00,,kiosk,no,,,,,,,,,,,2025-05-07,,,,,,,,,,,,,yes,yes,,,,,,,,,,,no,,,,,,,,,,,,,,,,,,,,,,,,,,,,,,,,,,,,,,,,,,,,,,,,,,,,,,,,,,,,,,,,,,,,,,,,,,,,,,,,,,,,,,,,,,,,,,,,,,,,,,,,,,,,,,,,,,,,,,,,,,,,,,,,,,,,,,,,,,,,,,,,,,,,,,,,,,,,,,,,,,,,,,,,,,,,,,,,,,,,,,,,,,,,,,
node,1003885734,52.5272929,13.4500121,,,,,,,,,,,,,,,,Panorama Spätkauf,,,convenience,no,,,,,,,,,,,2025-05-11,,,,,,,,,,,,,,,,,,,,,,,,,no,,,,,,,,,,,,,,,,,,,,,,,,,,,,,,,,,,,,,,,,,,,,,,,,,,,,,,,,,,,,,,,,,,,,,,,,,,,,,,,,,,,,,,,,,,,,,,,,,,,,,,,,,,,,,,,,,,,,,,,,,,,,,,,,,,,,,,,,,,,,,,,,,,,,,,,,,,,,,,,,,,,,,,,,,,,,,,,,,,,,,,,,,,,,,,
node,1015808330,52.4871348,13.3747709,Berlin,DE,3,10965,Eylauer Straße,Kreuzberg,,,,,,,,,,Eylauer Markt,,,kiosk,limited,,,,,,,,,,,,,,,+49 7809 7463,,,,,,,,0,,,,,,,,,,,,,,Keine Treppe im Eingangsbereich,,,,,,,,,,,,,,,,,,,,,,,,,,,,,,,,,,,,,,,,,,,,,,,,,,,,,,,,,,,,,,,,,,,,,,,,,,,,,,,,,,,,,,,,,,,,,,,,,,,,,,,,,,,,,,,,,,,,,,,,,,,,,,,,,,,,,,,,,,,,,,,,,,,,,,,,,,,,,,,,,,,,,,,,,,,,,,,,,,,,,,,,,,,,,
node,1028138858,52.4885157,13.4287783,Berlin,,56,12047,Reuterstraße,,,,,,,,,,,Backshop Tabak&Presse,,,convenience,limited,,,,,,,,,,,,,,,,,,,yes;sidewalk,,,,,,,,,,,,,,,,,,,,,,,,,,,,,,,,,,,,,,,,,,,,,,,,,,,,,,,,,,,,,,,,,,,,,,,,,,,,,,,,,,,,,,,,,,,,,,,,,,,,,,,,,,,,,,,,,,,,,,,,,,,,,,,,,,,,,,,,,,,,,,,,,,,,,,,,,,,,,,,,,,,,,,,,,,,,,,,,,,,,,,,,,,,,,,,,,,,,,,,,,,,,,,,
node,1032978607,52.5355242,13.4963824,Berlin,,277,13055,Landsberger Allee,,,2024-09-18,,,,,,,,Lotto und Zeitschriften Friese,Mo-Sa 07:00-20:00,,kiosk,yes,,,,,,,,,,,,,,,,,,,,,,,0,,,,,,,,,,,,,,,,,,,,,,,,,,,,,,,,,,,,,,,,,,,,,,,,,,,,,,,,,,,,,,,,,,,,,,,,,,,,,,,,,,,,,,,,,,,,,,,,,,,,,,,,,,,,,,,,,,,,,,,,,,,,,,,,,,,,,,,,,,,,,,,,,,,,,,,,,,,,,,,,,,,,,,,,,,,,,,,,,,,,,,,,,,,,,,,,,,,,,,,,,,,
node,1045536192,52.4813582,13.3499269,Berlin,DE,39,10827,Feurigstraße,Schöneberg,internet_cafe,2024-10-12,,,,,,,,Momega,,,kiosk,no,,,,,,,,,,,2024-10-12,,,,,,,,,,no,,,,,,,,,,,,,,,,,,,,,,,,,,,,,,,,,,,,,,,,,,,,,,,,,,,,,,,,,,,,,,,,,,,,,,,,,,,,,dpd,,,,,,,,,,,,,,,,,,,,,,,,,,,,,,,,,,,,,,,,,,,,,,,,,,,,,,,,,,,,,,,,,,,,,,,,,,,,,,,,,,,,,,,,,,,,,,,,,,,,,,,,,,,,,,,,,,,,,,,,,,,,,,,,
node,1078531596,52.4198078,13.2490193,,,,,,,,,,,,,,,,NuN Kiosk,,,kiosk,,,,,,,,,,,,,,,,,,,,,,,,,,,,,,,,,,,,,,,,,,,,,,,,,,,,,,,,,,,,,,,,,,,,,,,,,,,,,,,,,,,,,,,,,,,,,,,,,,,,,,,,,,,,,,,,,,,,,,,,,,,,,,,,,,,,,,,,,,,,,,,,,,,,,,,,,,,,,,,,,,,,,,,,,,,,,,,,,,,,,,,,,,,,,,,,,,,,,,,,,,,,,,,,,,,,,,,,,,,,,,,,,,,
node,1078729678,52.4604004,13.3236808,,,,,,,,,,,,,,,,,,,kiosk,yes,,,,,,,,,,,,,,,,,,,,,,,,,,,,,,,,,,,no,,,,,,,,,,,,,,,,,,,,,,,,,,,,,,,,,,,,,yes,,,,,,,,,,,,,,,,,,,,,,,,,,,takeaway,yes,,,,,,,,,,,,,,,,,,,,,,,,,,,,,,,,,,,,,,,,,,,,,,,,,,,,,,,,,,,,,,,,,,,,,,,,,,,,,,,,,,,,,,,,,,,,,,,,,,,,,,,,,,,,,,,,,,,,,,,,,,,,,,
node,1080839731,52.4389135,13.2624681,,,,,,,,,,,,,,,,Teheran Kiosk,,,kiosk,yes,,,,,,,,,,,,,,,,,,,,,,,,,,,,,,,,,,,,,,,,,,,,,,,,,,,,,,,,,,,,,,,,,,,,,,,,,,,,,,,,,,,,,,,,,,,,,,,,,,,,,,,,,,,,,,,,,,,,,,,,,,,,,,,,,,,,,,,,,,,,,,,,,,,,,,,,,,,,,,,,,,,,,,,,,,,,,,,,,,,,,,,,,,,,,,,,,,,,,,,,,,,,,,,,,,,,,,,,,,,,,,,,,,
node,1092250109,52.5154783,13.290879,Berlin,DE,52,14059,Danckelmannstraße,Charlottenburg,,,,,,,,,,Kiezmarkt mediterrane Welt,,,convenience,limited,,,,,,,,,,,,,,,,,,,,,,,,,,,,,,,,,,,,,,,,,,,,,,,,,,,,,,,,,,,,,,,,,,,,,,,,,,,,,,,,,,,,,,,,,,,,,,,,,,,,,,,,,,,,,,,,,,,,,,,,,,,,,,,,,,,,,,,,,,,,,,,,,,,,,,,,,,,,,,,,,,,,,,,,,,,,,,,,,,,,,,,,,,,,,,,,,,,,,,,,,,,,,,,,,,,,,,,,,,,,,,,,,,
node,1092674698,52.5102561,13.454931,Berlin,DE,21,10245,Kopernikusstraße,Friedrichshain,,2023-11-30,,,,,,,,Natura Organics,,,kiosk,no,,,,,,,,,,,,,,,,,,,,,no,,,,,,,,,,,,,,,,,,,,,,,,,,,,,,,,,,,,,,,,,,,,,,,,,,,,,,,,,,,,,,,,,,,,,,,,,,,,,,,,,,,,,,,,,,,,,,,,,,,,,,,,,,,,,,,,,,,,,,,,,,,,,,,,,,,,,,,,,,,,,,,,,,,,,,,,,,,,,,,,,,,,,,,,,,,,,,,,,,,,,,,,,,,,,,,,,,,,,,,,,,,,,
node,1095435039,52.5402467,13.4158448,Berlin,DE,20,10435,Danziger Straße,Prenzlauer Berg,,2024-08-31,,,,,,,,Asia Mini Shop,,,convenience,no,,,,,,,,,,,,,,,,,,,,,no,,,,,,,,,,,,,,,,,,,,,,,,,,,,,,,,,,,,,,,,,,,,,,,,,,,,,,,,,,,,,,,,,,,,,,,,,,,,,,,,,,,,,,,,,,,,,,,,,,,,,,,,,,,,,,,,,,,,,,,,,,,,,,,,,,,,,,,,,,,,,,,,,,,,,,,,,,,,,,,,,,,,,,,,,,,,,,,,,,,,,,,,,,,,,,,,,,,,,,,,,,,,,
node,1100350416,52.5394809,13.4238961,Berlin,DE,71,10435,Danziger Straße,Prenzlauer Berg,,2021-01-02,,,,,,,,Danziger Express,,,convenience,yes,,,,,,,,,,,,,,,,,,,,,,,,,,,,,,,retail,,,,,,,,,,,,,,,,,,,,,,,,,,,,,,,,,,,,,,,,,,,,,,,,,,,,,,,,,,,,,,,,,,,,,,,,,,,,,,,,,,,,,,,,,,,,,,,,,,,,,,,,,,,,,,,,,,,,,,,,,,,,,,,,,,,,,,,,,,,,,,,,,,,,,,,,,,,,,,,,,,,,,,,,,,,,,,,,,,,,,,,,,,,,,,,,,,,
node,1102313854,52.4310434,13.2594594,Berlin,DE,,,Teltower Damm,Zehlendorf,,,,,,,,,,Lotto Kiosk,,,kiosk,yes,,,,,,,,,,,,,,,,,,,,,,,,,,,,,,,,,,,,,,,,,,,,,,,,,,,,,,,,,,,,,,,,,,,,,,,,,,,,,,,,,,,,,,,,,,,,,,,,,,,,,,,,,,,,,,,,,,,,,,,,,,,,,,,,,,,,,,,,,,,,,,,,,,,,,,,,,,,,,,,,,,,,,,,,,,,,,,,,,,,,,,,,,,,,,,,,,,,,,,,,,,,,,,,,,,,,,,,,,,,,,,,,,,
node,1109675825,52.4854176,13.4268834,Berlin,DE,15,12043,Karl-Marx-Straße,Neukölln,,2023-11-07,,,,,,,,Asien Supermarkt Hao Cai Lei,Mo-Sa 10:00-19:30,,convenience,limited,,,,,,,,,,,2023-08-13,,,,,,,,,,,,,,,,,,,,,,,,,,,,,,,,,,,,,,Asia Supermarket Hao Chai Lei,,,,,,,,,,,,+49 30 63413016,,,,,,,,,,,,,,,,,,,,,,,,,,,,,,,,,,,,,,,,好又多,,,,,,,,,,,,,,,,,,,,,,,,,,,,,,,,,,,,,,,,,,,,,,,,,,,,,,,,,,,,,,,,,,,,,,,,,,,,,,,,,,,,,,,,,,,,,,,,,,,,,,,,,,,,,,,,,,,,,,,,,,,,,
node,1112696138,52.4345549,13.2498387,,,,,,,,,,,,,,,,,,,kiosk,,,,,,,,,,,,,,,,,,,,,,,,,,,,,,,,,,,,,,,,,,,,,,,,,,,,,,,,,,,,,,,,,,,,,,,,,,,,,,,,,,,,,,,,,,,,,,,,,,,,,,,,,,,,,,,,,,,,,,,,,,,,,,,,,,,,,,,,,,,,,,,,,,,,,,,,,,,,,,,,,,,,,,,,,,,,,,,,,,,,,,,,,,,,,,,,,,,,,,,,,,,,,,,,,,,,,,,,,,,,,,,,,,,
node,1116716789,52.5348466,13.437918,,,,,,,,2025-03-15,,,,,,,,Lebensmittel,"Mo-Sa 09:00-24:00, Su 13:00-20:00",,convenience,yes,,,,,,,,,,,,,,,,,,,,,,,,,,,,,,,,,,,,,,,,,,,,,,,,,,,,,,,,,,,,,,,,,,,,,,,,,,,,,,,,,,,,,,,,,,,,,,,,,,,,,,,,,,,,,,,,,,,,,,,,,,,,,,,,,,,,,,,,,,,,,,,,,,,,,,,,,,,,,,,,,,,,,,,,,,,,,,,,,,,,,,,,,,,,,,,,,,,,,,,,,,,,,,,,,,,,,,,,,,,,,,,,,,
node,1134198993,52.5255374,13.3913167,,,,,,,,,,,,,,,,Kiez Kiosk,,,kiosk,limited,,,,,,,,,,,,,,,,,,,,,,,,,,,,,,,,,,,,,,,,,,,,,,,,,,,,,,,,,,,,,,,,,,,,,,,,,,,,,,,,,,,,,,,,,,,,,,,,,,,,,,,,,,,,,,,,,,,,,,,,,,,,,,,,,,,,,,,,,,,,,,,,,,,,,,,,,,,,,,,,,,,,,,,,,,,,,,,,,,,,,,,,,,,,,,,,,,,,,,,,,,,,,,,,,,,,,,,,,,,,,,,,,,
node,1140906805,52.5065512,13.4698185,Berlin,DE,69,10245,Neue Bahnhofstraße,Friedrichshain,,2024-11-17,,,,,,,,Ellîka Spätkauf,,,convenience,no,,,,,,,,,,,2024-11-17,,,,,,,,,,no,,,,,,,,,,,,,,,,,,,,,,,,,,,,,,,,,,,,,,,,,,,,,,,,,,,,,,,,,,,,,,,,,,,,,,,,,,,,,,,,,,,,,,,,,,,,,,,,,,,,,,,,,,,,,,,,,,,,,,,,,,,,,,,,,,,,,,,,,,,,,,,,,,,,,,,,,,,,,,,,,,,,,,,,,,,,,,,,,,,,,,,,,,,,,,,,,,,,,,,,,,,,,
node,1140914372,52.5100791,13.4620544,,,20,10245,Seumestraße,,,2025-09-04,,,,,,,,City Kiosk,Mo-Fr 10:00-18:00+; Sa 10:00-15:00; Su off,,convenience,no,,,,,,,,,,,,,,,,,,,,,,,,yes,yes,,,,,,,,,,,,,,,,,,,,,,,,,,,,,,,,,,,,,,,,,,,,,,,,,,,,,,,,,,,,,,,,,,,,,,,,,,,,,,,,,,,,,,,,,,,,,,,,,,,,,,,,,,,,,,,,,,,,,,,,,,,,,,,,,,,,,,,,,,,,,,,,,,,,,,,,,,,,,,,,,,,,,,,,,,,,,,,,,,,,,,,,,,,,,,,,,,,,,,,,,
node,1140926746,52.5157165,13.4399122,Berlin,,31,10243,Straße der Pariser Kommune,,,2022-12-14,,,,,,,,K Mini Markt,,,convenience,yes,,,,,,,,,,,,,,,,,,,,,no,,,,,,,,,,,,,,,,,,,,,,,,,,,,,,,,,,,,,,,,,,,,,,,,,,,,,,,,,,,,,,,,,,,,,,,,,,,,,,,,,,,,,,,,,,,,,,,,,,,,,,,,,,,,,,,,,,,,,,,,,,,,,,,,,,,,,,,,,,,,,,,,,,,,,,,,,,,,,,,,,,,,,,,,,,,,,,,,,,,,,,,,,,,,,,,,,,,,,,,,,,,,,
node,1140927943,52.5110245,13.4356582,Berlin,DE,6,10243,Erich-Steinfurth-Straße,Friedrichshain,,,,,,,,,,Spätkauf am Ostbahnhof,24/7,,convenience,yes,,,,,,,,,,,2023-09-29,,,,,,,,,,,,,,,,,,,,,,,,,,,,,,,,,,,,,,,,,,,,,,,,,,,,,,,,,,,,,,,,,,,,,,,,,,,,,,,,,,,,,,,,,,,,,,,,,,,,,,,,,,,,,,,,,,,,,,,,,,,,,,,,,,,,,,,,,,,,,,,,,,,,,,,,,,,,,,,,,,,,,,,,,,,,,,,,,,,,,,,,,,,,,,,,,,,,,,,,,,,,,,,,,,,,,,,
node,1140928753,52.5230609,13.4344701,,,,,,,,2025-03-20,,,,,,,,Spätkauf Lebensmittel,,,convenience,no,,,,,,,,,,,2025-03-20,,,,,,,,,,no,,,,,,,,,,,,,,,,,,,,,,,,,,,,,,,,,,,,,,,,,,,,,,,,,,,,,,,,,,,,,,,,,,,,,,,,,,,,,,,,,,,,,,,,,,,,,,,,,,,,,,,,,,,,,,,,,,,,,,,,,,,,,,,,,,,,,,,,,,,,,,,,,,,,,,,,,,,,,,,,,,,,,,,,,,,,,,,,,,,,,,,,,,,,,,,,,,,,,,,,,,,,,
node,1140930611,52.519883,13.4516496,Berlin,DE,68,10249,Petersburger Straße,Friedrichshain,,,,,,,,,,Spätshop 68,09:00-24:00,,convenience,limited,,,,,,,,,,,2024-09-07,,,,,,,,,,,,,,,,,,,,,,,,,,,,,,,,,,,,,,,,,,,,,,,,,,,,,,,,,,,,,,,,,,,,,,,,,,,,,,,,,,,,,,,,,,,Nebenan Markt,,,,,,,,,,,,,,,,,,,,,,,,,,,,,,,,,,,,,,,,,,,,,,,,,,,,,,,,,,,,,,,,,,,,,,,,,,,,,,,,,,,,,,,,,,,,,,,,,,,,,,,,,,,,,,,,,,,,,,,,,,,,
node,1140935486,52.5222261,13.449453,,,,,,,,2022-10-04,,,,,,,,Para Spätkauf,,,convenience,no,,,,,,,,,,,,,,,,,,,,,no,,,,,,,,,,,,,,,,,,,,,,,,,,,,,,,,,,,,,,,,,,,,,,,,,,,,,,,,,,,,,,,,,,,,,,,,,,,,,,,,,,,,,,,,,,,,,,,,,,,,,,,,,,,,,,,,,,,,,,,,,,,,,,,,,,,,,,,,,,,,,,,,,,,,,,,,,,,,,,,,,,,,,,,,,,,,,,,,,,,,,,,,,,,,,,,,,,,,,,,,,,,,,
node,1147244150,52.5315376,13.4153398,Berlin,,36,10405,Straßburger Straße,Prenzlauer Berg,,2025-01-23,,,,,,,,dicker Hermann,,,convenience,limited,,,,,,,,,,,2025-01-23,,,,,,,,,,no,,0,,,,,,,,,,,,,no,,,,,,,,,,,,,,,,,,,,no,,,,,,,,,,,,,,,,,,,,,,,,,yes,,,,,,,,,,no,,,,,,private,,,,,,,,,,,,,,,,,,,,,,,,,,,,,,,,,,,,,,,,,,,,,,,,,,,,,,,,,,,,,,,,,,,,,,,,,,,,,,,,,,,,,,,,,,,,,,,,,,,,,,,,,,,,,,,,,,,,,,,,,,,,,,,,,
node,1161375510,52.5534498,13.3921872,Berlin,,24,13357,Jülicher Straße,,,,,,,,,,,Jüli Späti,,,convenience,,,,,,,,,,,,,,,,,,,,,,,,,,,,,,,,,,,,,,,,,,,,,,,,,,,,,,,,,,,,,,,,,,,,,,,,,,,Späti,,,,,,,,,,,,,,,,,,,,,,,,,,,,,,,,,,,,,,,,,,,,,,,,,,,,,,,,,,,,,,,,,,,,,,,,,,,,,,,,,,,,,,,,,,,,,,,,,,,,,,,,,,,,,,,,,,,,,,,,,,,,,,,,,,,,,,,,,,,,,,,,,,,,,,,,
node,1165884653,52.4870859,13.4291663,,,29,,Reuterstraße,,,,,,,,,,,I ♥️ Drink's Kiosk,,,convenience,no,,,,,,,,,,,2023-10-17,,,,,,,,,,,,0,,,,,,,,,,,,,,,,,,,,,,,,,,,,,,,,,,,,,,,,,,,,,,,,,,,,,,,,,,,,,,,,,,,,,,,,,,,,,,,,,,,,,,,,,,,,,,,,,,,,,,,,,,,,,,,,,,,,,,,,,,,,,,,,,,,,,,,,,,,,,,,,,,,,,,,,,,,,,,,,,,,,,,,,,,,,,,,,,,,,,,,,,,,,,,,,,,,,,,,,,,,
node,1170348050,52.5510048,13.3679903,,,,,,,,,,,,,,,,Spätkauf,,,kiosk,,,,,,,,,,,,2023-04-04,,,,,,,,,,,,,,,,,,,,,,,,,,,,,,,,,,,,,,,,,,,terminal,,,,,,,,,,,,,,,,,,,,,,,,,,,,,,,,,,,,,,,,,,,,,,,,,,,,,,,,,,,,,,,,,,,,,,,,,,,,,,,,,,,,,,,,,,,,,,,,,,,,,,,,,,,,,,,,,,,,,,,,,,,,,,,,,,,,,,,,,,,,,,,,,,,,,,,,,,,,,,,,,,,,,,,,,,,,
node,1172023257,52.6069342,13.4217062,,,,,,,,,,,,,,,,Wohnung Werkstatt Garten Shop,,,convenience,yes,,,,,,,,,,,,,,,,,,,,,,,,,,,,,,,,,,,,no,,,,,,,,,,,,,,,,,,,,,,,,,,,,,,,,,,,,,,,,,,,,,,,,,,,,,,,,,,,,,,,,,,,,,,,,,,,,,,,,,,,,,,,,,,,,,,,,,,,,,,,,,,,,,,,,,,,,,,,,,,,,,,,,,,,,,,,,,,,,,,,,,,,,,,,,,,,,,,,,,,,,,,,,,,,,,,,,,,,,,,,,,,,,,,
node,1181625810,52.5091058,13.4555933,Berlin,DE,18,10245,Simon-Dach-Straße,Friedrichshain,,2024-08-18,,,,,,,,Esperanto,,,convenience,no,,,,,,,,,,,,,,,,,,,,,no,,,,,,,,,,,yes,,,,,,,,,,,,,,,,,,,,,,,,,,,,,,,,,,yes,,,,,,,,,,,,,,,,,,,,,,,,,,,,,,,,,,,,,,,,,,,,,,,,,,,,,,,,,,,,,,,,,,,,,,,,,,,,,,,,,,,,,,,,,,,,,,,,,,,,,,,,,,,,,,,,,,,,,,,,,,,,,,,,,,,,,,,,,,,,,,,,,,,,,,,,,,,,,,,,
node,1199946538,52.5067288,13.2830155,,,,,,,,,,,,,,,,s-bahn,,,kiosk,yes,,,,,,,,,,,,,,,,,,,,,,,,,,,,,,,,,,,,,,,,,,,,,,,,,,,,,,,,,,,,,,,,,,,,,,,,,,,,,,,,,,,,,,,,,,,,,,,,,,,,,,,position falsch? Falls hiermit der DB ServiceStore gemeint ist bitte löschen.,,,,,,,,,,,,,,,,,,,,,,,,,,,,,,,,,,,,,,,,,,,,,,,,,,,,,,,,,,,,,,,,,,,,,,,,,,,,,,,,,,,,,,,,,,,,,,,,,,,,,,,,,,,,,,,,,,,,,,,,,,,
node,1203130389,52.5592878,13.4063543,,,,,,,,,,,,,,,,,Mo-Fr 08:00-18:30; Sa 08:00-18:00,,kiosk,,,,,,,,,,,,,,,,,,,,,,,,,,,,,,,,,,,,no,,,,,,,,,,,,,,,,,,,,,,,,,,,,,,,,,,,,,,,,,,,,,,,,,,,,,,,,,,,,,,,,,,,,,,,,,,,,,,,,,,,,,,,,,,,,,,,,,,,,,,,,,,,,,,,,,,,,,,,,,,,,,,,,,,,,,,,,,,,,,,,,,,,,,,,,,,,,,,,,,,,,,,,,,,,,,,,,,,,,,,,,,,,,,,,
node,1207272598,52.6138552,13.3440574,Berlin,DE,127,13469,Zabel-Krüger-Damm,Lübars,,,,,,,,,,"Beyer, Antje, Tabakwaren, Zeitschriften",,,kiosk,,,,,,,,,,,http://www.pointoo.de/poi/Berlin/Antje-Beyer-Tabakwaren-Zeitschriften-2440408.html,,,,,,,,,,,,,,,,,,,,,,,,,,,,,,,,,,,,,,,,,,,,,,,,,,,,,,,,,,,,,,,,,,,,survey,,,,,,,,,,,,,,,,,,,,,,,,Kiosk,,,,,,,,,,,,,,,,,,,,,,,,,,,,,,,,,,,,,,,,,,,,,,,,,,,,,,,,,,,,,,,,,,,,,,,,,,,,,,,,,,,,,,,,,,,,,,,,,,,,,,,,,,,,,,,,,,,,,,,,,,,,
node,1209659437,52.491245,13.385533,,,,,,,,,,,,,,,,IBO SHOP,Mo-Fr 07:00-19:00; Sa 09:00-16:00,,kiosk,,,,,,,,,,,,,,,,,,,,,,,,,,,,,,,,,,,,no,,,,,,,,,,,,,,,,,,,,,,,,,,,,,,,,,,,,,,,,,,,,,,,,,,,,,,,,,,,,,,,,,,,,,,,,,,,,,,,,,,,,,,,,,,,,,,,,,,,,,,,,,,,,,,,,,,,,,,,,,,,,,,,,,,,,,,,,,,,,,,,,,,,,,,,,,,,,,,,,,,,,,,,,,,,,,,,,,,,,,,,,,,,,,,,
node,1213234319,52.5469795,13.4071727,Berlin,DE,13A,10437,Gleimstraße,Prenzlauer Berg,,2025-04-21,,,,,,,,Gleim Shop,Mo-Sa 00:00-24:00,,convenience,limited,,,,,,,,,,,,,,,,,,,,,no,,,,,,,,,,,,,,,,,,,,,,,,,,,,,,,,,,,,,,partner,,,,,,,,,,,,,,,,,,,,,,,,,,,,,,,,,,,,,,,,,,,,,,,,,,,,,,,,,,,,,,,,,,,,,,,,,,,,,,,,,,,,,,,,,,,,,,,,,,,,,,,,,,,,,,,,,,,,,,,,,,,,,,,,,,,,,,,,,,,,,,,,,,,,,,,,,,,,,,,,,,,,,,,
node,1221375859,52.5087859,13.4973357,,,,,,,,,,,,,,,,Sipan Spätverkauf,"Mo-Fr 01:00-24:00, Sa 01:00-24:00",,convenience,no,,,,,,,,,,,2024-05-23,,,,,,,,,,,,,,,,,,,,,,,,,,,,,,,,,,,,,,,,,,,yes,,,,,,,,,,,,,,,,,,,,,,,,,,,,,,,yes,,,,,,,,,,,,,,,,,,,,,,,,,,,,,,,,,,,,,,,,,,,,,,,,,,,,,,,,,,,,,,,,,,,,,,,,,,,,,,,,,,,,,,,,,,,,,,,,,,,,,,,,,,,,,,,,,,,,,,,,,,,,,,,,,,,,,,,,,,,,,
node,1224130504,52.4819057,13.3206171,,,,,,,,,,,,,,,,,Mo-Fr 10:00-20:00,,kiosk,,,,,,,,,,,,,,,,,,,,,,,,,,,,,,,,,,,,,,,yes,,,,,,,,,,,,,,,,,,,,,,,,,,,,,,,,,,,,,,,,,,,,,,,,,,,,,,,,,,,,,,,,,,,,,,,,,,,,,,,,,,,,,,,,,,,,,,,,,,,,,,,,,,,,,,,,,,,,,,,,,,,,,,,,,,,,,,,,,,,,,,,,,,,,,,,,,,,,,,,,,,,,,,,,,,,,,,,,,,,,,,,,,,,,
node,1229435273,52.5102675,13.3053735,Berlin,DE,44,10627,Wilmersdorfer Straße,Charlottenburg,,,,,,,,,,Borsa,"Mo-Sa 07:00-20:00; Su,PH off",,convenience,no,,,,,,,,,,,2023-04-09,,,,,,,,,,,,0,,,,,,,,,,,,,,,,,,,,,,,,,,,,,,,,,,,,,,,,,,,,,,,,,,,,,,,,,,,,,,,,,,,,,yes,yes,,,,,,,,,,,,,,,,,,,,,,,,,,,,,,,,,,,,,,,,,,,,,,,,,,,,,,,,,,,,,,,,,,,,,,,,,,,,,,,,,,,,,,,,,,,,,,,,,,,,,,,,,,,,,,,,,,,,,,,,,,,,,,,,,,,,,
node,1250478497,52.4925563,13.4161849,,,,,,,,,,,,,,,,,,,kiosk,,,,,,,,,,,,,,,,,,,,,,,,,,,,,,,,,,,,no,,,,,,,,,,,,,,,,,,,,,,,,,,,,,,,,,,,,,,,,,,,,,,,,,,,,,,,,,,,,,,,,,,,,,,,,,,,,,,,,,,,,,,,,,,,,,,,,,,,,,,,,,,,,,,,,,,,,,,,,,,,,,,,,,,,,,,,,,,,,,,,,,,,,,,,,,,,,,,,,,,,,,,,,,,,,,,,,,,,,,,,,,,,,,,,
node,1251129216,52.5375585,13.4111971,,,,,,,,,,,,,,,,Spätkauf,,,convenience,no,,,,,,,,,,,2025-04-12,,,,,,,,,,,,0,,,,,,,,,,,,,,,,,,,,,,,,,,,,,,,,,,,,,,,,,,,,,,,,,,,,,,,,,,,,,,,,,,,,,,,,,,,,,,,,,,,,,,,,,,,,,,,,,,,,,,,,,,,,,,,,,,,,,,,,,,,,,,,,,,,,,,,,,,,,,,,,,,,,,,,,,,,,,,,,,,,,,,,,,,,,,,,,,,,,,,,,,,,,,,,,,,,,,,,,,,,
node,1254238967,52.5887885,13.2856406,,,,,,,,,,,,,,,,"Asia Lebensmittel, Tee & Geschenkartikel","Mo-Fr 09:30-19:00, Sa 09:30-16:00",,convenience,no,,,,,,,,,,,,,,,,,,,,,,,,,,,,,,,,,,,,,,,,,,,,asian,,asian,,,,,,,,,,,,,,,,,,,,,,,,,,,,,,,,,,,,,,,,,,,,,,,,,,,,,,,,,,,,,,,,,,,,,,,,,,,,,,,,,,,,,,,,,,,,,,,,,,,,,,,,,,,,,,,,,,,,,,,,,,,,,,,,,,,,,,,,,,,,,,,,,,,,,,,,,,,,,,,,,,,,,,,,,,,,,,,,,,,,
node,1255588542,52.4923613,13.4169147,,,,,,,,,,,,,,,,kinzi discount,Mo-Fr 08:00-22:00; Sa 09:00-22:00,,convenience,yes,,,,,,,,,,,2023-08-13,,,,,,,,,,,,,,,,,,,,,,,,,,,,,,,,,,,,,,,,,,,,,,,,,,,,,,,,,,,,,,,,,,,,,,,,,,,,,,,,,,,,,,,,,,,,,,,,,,,,,,,,,,,,,,,,,,,,,,,,,,,,,,,,,,,,,,,,,,,,,,,,,,,,,,,,,,,,,,,,,,,,,,,,,,,,,,,,,,,,,,,,,,,,,,,,,,,,,,,,,,,,,,,,,,,,,,,
node,1258615840,52.5236611,13.4391265,,,38,10249,Landsberger Allee,,,2025-04-01,,,,,,,,Spätshop,,,convenience,,,,,,,,,,,,,,,,,,,,,,no,,,,,,,,,,,,,,,,,,,,,,,,,,,,,,,,,,,,,,,,,,,,,,,,,,,,,Spätkauf 38,,,,,,,,,,,,,,,,,,,,,,,,,,,,,,,,,,,,,,,,,,,,,,,,,,,,,,,,,,,,,,,,,,,,,,,,,,,,,,,,,,,,,,,,,,,,,,,,,,,,,,,,,,,,,,,,,,,,,,,,,,,,,,,,,,,,,,,,,,,,,,,,,,,,,,,,
node,1259381388,52.5014008,13.4934074,Berlin,,117,10317,Weitlingstraße,,,2025-09-16,,,,,,,,Minimarkt Mura,"Mo-Fr 07:00-23:00; Sa,Su,PH 08:00-23:00",Thi Hanh Mura,convenience,no,,,,,,,,,,,,,,,,,,,,,,,,,,,,,,,,,,,,,,,,,,,,,,,,,,,,,,,,,,,,,,,,,,,,,,,,,,,,,,,,,,,,,,,,,,,,,,,,,,,,,,,,+49 173 4702537,,,,,,,,,,,,,,,,,,,,,,,,,,,,,,,,,,,,,,,,,,,,,,,,,,,,,,,,,,,,,,,,,,,,,,,,,,,,,,,,,,,,,,,,,,,,,,,,,,,,,,,,,,,,,,,,,,,,,,,,,,
node,1262166743,52.4568134,13.384211,,,,,,,,,,,,,,,,24 H Shop,Mo-Sa 00:00-24:00,,convenience,no,,,,,,,,,,,,,,,,,,,,,,,,,,,,,,,,,,,,,,,,,,,,,,,,,,,,,,,,,,,,,,,,,,,,,,,,,,,,,,,,,,,,,,,,,,,,,,,,,,,,,,,,,,,,,,,,,,,,,,,,,,,,,,,,,,,,,,,,,,,,,,,,,,,,,,,,,,,,,,,,,,,,,,,,,,,,,,,,,,,,,,,,,,,,,,,,,,,,,,,,,,,,,,,,,,,,,,,,,,,,,,,,,,
node,1262345388,52.5337892,13.3502992,,,,,,,,,,,,,,,,,,,kiosk,no,,,,,,,,,,,,,,,,,,,,,,,,,,,,,,,,,,,,,,,,,,,,,,,,,,,,,,,,,,,,,,,,,,,,,,,,,,,,,,,,,,,,,,,,,,,,,,,,,,,,,,,,,,,,,,,,,,,,,,,,,,,,,,,,,,,,,,,,,,,,,,,,,,,,,,,,,,,,,,,,,,,,,,,,,,,,,,,,,,,,,,,,,,,,,,,,,,,,,,,,,,,,,,,,,,,,,,,,,,,,,,,,,,
node,1269798909,52.5541616,13.3397118,Berlin,DE,21,13351,Otawistraße,Wedding,,,,,,,,,,Kiosk 21,Mo-Fr 07:00-19:00; Sa 07:00-16:00,,convenience,no,,,,,,,,,,,2025-07-19,,,,,,,,,,,,0,,,,,,,,,,,,,no,,,,,,,,,,,,,,,,,,,,,,,,,,,,,,,,,,,,,,,,,,,,,,,,,,,,,,,,,,,,,,,,,,,,,,,,,,,,,,,,,,,,,,,,,,,,,,,,,,,,,,,,,,,,,,,,,,,,,,,,,,,,,,,,,,,,,,,,,,,,,,,,,,,,,,,,,,,,,,,,,,,,,,,,,,,,,,,,,,,,,,,,,,,,,,
node,1271608613,52.5546211,13.3452717,Berlin,DE,1,13349,Barfusstraße,Wedding,,,,,,,,,,,Mo-Fr 06:00-21:00; Sa 08:00-21:00,Ali Bulut,kiosk,no,,,,,,,,,,,2025-07-19,,,,,,,,,,,,,,,,,,,,,,,,,,,yes,,,,,418,,,,,,,,,,,,,,,,,,,,,,,,,,,,,,,,,,,,,,,,,,,,,,,,,,,,,,,,,,,,,,,,,,,,,,,,,,,,,,,,,,,,,,,,,,,,,,,,,,,,,,,,,,,,,,,,,,,,,,,,,,,,,,,,,,,,,,,,,,,,,,,,,,,,,,,,,,,,,,,,,,,,,,,,,,,,,,,,,,,,,,,
node,1286396471,52.4657883,13.4710749,,,,,,,,,,,,,,,,,,,kiosk,,,,,,,,,,,,,,,,,,,,,,,,,,,,,,,,,,,,no,,,,,,,,,,,,,,,,,,,,,,,,,,,,,,,,,,,,,,,,,,,,,,,,,,,,,,,,,,,,,,,,,,,,,,,,,,,,,,,,,,,,,,,,,,,,,,,,,,,,,,,,,,,,,,,,,,,,,,,,,,,,,,,,,,,,,,,,,,,,,,,,,,,,,,,,,,,,,,,,,,,,,,,,,,,,,,,,,,,,,,,,,,,,,,,
node,1288393736,52.5670317,13.3115082,,,,,,,,,,,,,,,,,,,kiosk,yes,,,,,,,,,,,,,,,,,,,,,,,,,,,,,,,,,,,,,,,,,,,,,,,,,,,,,,,,,,,,,,,,,,,,,,,,,,,,,,,,,,,,,,,,,,,,,,,,,,,,,,,,,,,,,,,,,,,,,,,,,,,,,,,,,,,,,,,,,,,,,,,,,,,,,,,,,,,,,,,,,,,,,,,,,,,,,,,,,,,,,,,,,,,,,,,,,,,,,,,,,,,,,,,,,,,,,,,,,,,,,,,,,,
node,1293209218,52.5143319,13.4929949,,,18,10365,Fanningerstraße,,,2025-09-27,,,,,,,,Minimarkt,Mo-Fr 08:00-20:00; Sa 08:00-19:00,,convenience,no,,,,,,,,,,,2025-09-27,,,,,,,,,,,,,,,,,,,,,,,,,,,,,,,,,,,,,,,,,,,,,,,,,,,,,,,,,,,,,,,,,,,,,,,,,,,,,,,,,,,,,,,,,,,,,,,,,,,,,,,,,,,,,,,,,,,,,,,,,,,,,,,,,,,,,,,,,,,,,,,,,,,,,,,,,,,,,,,,,,,,,,,,,,,,,,,,,,,,,,,,,,,,,,,,,,,,,,,,,,,,,,,,,,,,,,,
node,1300143979,52.4983753,13.3915344,,,,,,,,,,,,,,,,Daisy's Cafe,,,kiosk,yes,,,,,,,,,,,,,,,,,,,,,,,0,,,,,,,,,,,,,,,,,,,,,,,,,,,,,,,,,,,,,,,,,,,,,,,,,,,,,,,,,,,,,,,,,,,,,,,,,,,,,,,,,,,,,,,,,,,,,,,,,,,,,,,,,,,,,,,,,,,,,,,,,,,,,,,,,,,,,,,,,,,,,,,,,,,,,,,,,,,,,,,,,,,,,,,,,,,,,,,,,,,,,,,,,,,,,,,,,,,,,,,,,,,
node,1300143980,52.4992718,13.3904983,Berlin,,15,10969,Mehringplatz,,,,,,,,,,,Lotto-Presse-Tabak Wielannd,,,kiosk,yes,,,,,,,,,,,,,,,,,,,,,no,,,,,,,,,,,,,,,,,,,,,,,,,,,,,,,,,,,,,,,,,,,,,,,,,,,,,,,,,,,,,,,,,,,,,,,,,,,,,,,,,,,,,,,,,,,,,,,,,,,,,,,,,,,,,,,,,,,,,,,,,,,,,,,,,,,,,,,,,,,,,,,,,,,,,,,,,,,,,,,,,,,,,,,,,,,,,,,,,,,,,,,,,,,,,,,,,,,,,,,,,,,,,
node,1305230438,52.518017,13.3168638,Berlin,DE,36,10587,Guerickestraße,Charlottenburg,,,,,,,,,,Sultan Shop,,,convenience,,,,,,,,,,,,,,,,,,,,,,,,,,,,,,,,,,,,,,,,,,,,,,,,,,,,,,,,,,,,,,,,,,,,,,,,,,,,,,,,,,,,,,,,,,,,,,,,,,,,,,,,,,,,,,,,,,,,,,,,,,,,,,,,,,,,,,,,,,,,,,,,,,,,,,,,,,,,,,,,,,,,,,,,,,,,,,,,,,,,,,,,,,,,,,,,,,,,,,,,,,,,,,,,,,,,,,,,,,,,,,,,,,,
node,1305796906,52.4290688,13.341326,,,,,,,,,,,,,,,,Back & Späti,,,convenience,no,,,,,,,,,,,,,,,,,,,,,,,,,,,,,,,,,,,,,,,,,,,,,,,,,,,,,,,,,,,,,,,,,,,,,,"Hermes-Shop, Lebensmittel, frische Brötchen",,,,,,,,,,,,,,,,,,,,,,,,,,,,,,,,,,,,,,,,,,,,,,,,,,,,,,,,,,,,,,,,,,,,,,,,,,,,,,,,,,,,,,,,,,,,,,,,,,,,,,,,,,,,,,,,,,,,,,,,,,,,,,,,,,,,,,,,,,,,,,,,,,,,,,,,,,,,
node,1307115292,52.4687842,13.4302906,,,,,,,,2025-03-19,,,,,,,,Sarikiz Spätkauf 44,,,convenience,yes,,,,,,,,,,,,,,,,,,,,,no,,,,,,,,,,,,,,,,,,,,,,,,,,,,,,,,,,,,,,,,,,,,,,,,,,,,,,,,,,,,,,,,,,,,,,,,,,,,,,,,,,,,,,,,,,,,,,,,,,,,,,,,,,,,,,,,,,,,,,,,,,,,,,,,,,,,,,,,,,,,,,,,,,,,,,,,,,,,,,,,,,,,,,,,,,,,,,,,,,,,,,,,,,,,,,,,,,,,,,,,,,,,,
node,1311121901,52.5062656,13.3113681,Berlin,DE,124,10625,Kantstraße,Charlottenburg,,2024-03-11,,,,,,,,Iran Shop,Mo-Sa 10:00-19:00,,convenience,no,,,,,,,,,,,,,,,,,,,,,,,,,,,,,,,,,,,,,,,,,,,,,,,,,,,,,,,,,,,,,,,,,,,,,,,,,,,,,,,,,,,,,,,,,,,,,,,,,,,,,,,,,,,,,,,,,,,,,,,,,,,,,,,,,,,,,,,,,,,,,,,,,,,,,,,,,,,,,,,,,,,,,,,,,,,,,,,,,,,,,,,,,,,,,,,,,,,,,,,,,,,,,,,,,,,,,,,,,,,,,,,,,,
node,1313284328,52.5545943,13.4156184,,,,,,,,2024-08-02,,,,,,,,neon Spätkauf,Mo-Sa 10:00-23:00,,convenience,no,,,,,,,,,,https://www.neon-sptkauf-berlin.de,,,,,,,,,,,,,,,,,,,,,,,,,,,,,,,,,,,,,,,,,,,,,,,,,,,,,,,,,,,,,,,,,,,,,,,,,,,,,,,,,,,,,,,,,,,,,,,,,,,,,,,,,,,,,,,,,,,,,,,,,,,,,,,,,,,,,,,,,,,,,,,,,,,,,,,,,,,,,,,,,,,,,,,,,,,,,,,,,,,,,,,,,,,,,,,,,,,,,,,,,,,,,,,,,,,,,,,,
node,1313963462,52.5318516,13.3439977,,,,,,,,2023-08-16,,,,,,,,Geko Tabak Presse,Mo-Sa 08:30-19:30,,kiosk,yes,,,,,,,,,,,,,,,,,,,,,,,,,,,,,,,,,,,,,,,,,,,,,,,,,,,,,,,,,,,,,,,,,,,,,,,,,,,,,,,,,,,,,,,,,,,,,,,,,,,,,,,,,,,,,,,,,,,,,,,,,,,,,,,,,,,,,,,,,,,,,,,,,,,,,,,,,,,,,,,,,,,,,,,,,,,,,,,,,,,,,,,,,,,,,,,,,,,,,,,,,,,,,,,,,,,,,,,,,,,,,,,,,,
node,1315201887,52.489136,13.4509862,,,,,,,,2025-10-19,,,,,,,,Spätkauf,Mo-Sa 09:00-23:00,,convenience,yes,,,,,,,,,,,2025-10-19,,,,,,,,,,,no,,,,,,,,,,,,,,,,,,,,,,,,,,,,,,,,,,,,,,,,,,,,,,,,,,,,,,,,,,,,,,,,,,,,,,,,,,,,,,,,,,,,,,,,,,,,,,,,,,,,,,,,,,,,,,,,,,,,,,,,,,,,,,,,,,,,,,,,,,,,,,,,,,,,,,,,,,,,,,,,,,,,,,,,,,,,,,,,,,,,,,,,,,,,,,,,,,,,,,,,,,,,
node,1320138052,52.4980049,13.4211603,Berlin,DE,26,10999,Reichenberger Straße,Kreuzberg,,,,,,,,,,Eis Mari,,,convenience,no,,,,,,,,,,,2025-05-10,,,,,,,,,,,,,,,,,,,,,,,,,,,,,,,,,,,,,,,,,,,,,,,,,,,,,,,,,,,,,,,,,,,,,,,,,,,,,,,,,,,,,,,,,,,,,,,,,,,,,,,,,,,,,,,,,,,,,,,,,,,,,,,,,,,,,,,,,,,,,,,,,,,,,,,,,,,,,,,,,,,,,,,,,,,,,,,,,,,,,,,,,,,,,,,,,,,,,,,,,,,,,,,,,,,,,,,
node,1324860212,52.4591429,13.5253076,Berlin,DE,,12459,,,,2025-11-20,,,,,,,,Späti Shop bei Baba,08:00-24:00,,convenience,limited,,,,,,,,,,,,,,,,,,,,,no,,,,,,,,,,,,,,,,,,,,,,,,,,,,,,,,,,,,,,,,,,,,,,,,,,,,,,,,,,,,,,,,,,,,,,,,,,,,,,,,,,,,,,,,,,,,,,,,,,,,,,,,,,,,,,,,,,,,,,,,,,,,,,,,,,,,,,,,,,,,,,,,,,,,,,,,,,,,,,,,,,,,,,,,,,,,,,,,,,,,,,,,,,,,,,,,,,,,,,,,,,,,,
node,1327231904,52.4916836,13.4169394,Berlin,DE,69,10967,Graefestraße,Kreuzberg,,,,,,,,,,Bioladen,Mo-Fr 09:00-19:00; Sa 09:00-15:00,,convenience,no,,,,,,,,,,,,,,,,,,only,,,,,0,yes,,,yes,yes,,,,,,,,,,,,,,,,,,,,,,,,,,,,no,,,,,,,,,,,,,,,,,,,,,,,,,,,,,,,,,,,,,,,,,,,,,,,,,,,,,,,,,,,,,,,,,,,,,,,,,,,,,,,,,,,,,,,,,,,,,,,,,,,,,,,,,,,,,,,,,,,,,,,,,,,,,,,,,,,,,,,,,,,,,,,,,,,,,,,,,,,,,,,,,,,,,,,,,,
node,1327867358,52.460877,13.3396749,Berlin,DE,,12157,,Steglitz,,,,,,,,,,,,,kiosk,no,,,,,,,,,,,,,,,,,,,,,,,,,,,,,,,,,,,,,,yes,,,,,,,,,,,,,,,,,,,,,,,,,,,,,,,,,,,,,,,,,,,,,,,,,,,,,,,,,,,,,,,,,,,,,,,,,,,,,,,,,,,,,,,,,,,,,,,,,,,,,,,,,,,,,,,,,,,,,,,,,,,,,,,,,,,,,,,,,,,,,,,,,,,,,,,,,,,,,,,,,,,,,,,,,,,,,,,,,,,,,,,,,,,,
node,1332197461,52.47496,13.3428619,Berlin,DE,28,12159,Rubensstraße,Schöneberg,,,,,,,,,,,Mo-Fr 06:00-19:00; Sa 07:00-16:00,,convenience,no,,,,,,,,,,,,,,,,,,,,,,,,,,,,,,,,,,,,,,yes,,,,,,,,,,,,,,,,,,,,,,,,,,,,,,,,,,yes,,"das Hauptschild weist aus: ""Tabakwaren-Getränke / Zeitungen und Zeitschriften"" -> ein genauer Name ist nicht ersichtlich",,,,,,,,,,,,,,,,,,,,,,,,,,,,,,,yes,yes,,,,,,,,,,,,,,,,,,,,,,,,,,,,,,,,,,,,,,,,,,,,,,,,,,,,,,,,,,,,,,,,,,,,,,,,,,,,,,,,,,,,,,,,,,,,,,,,,,,,,,,,,,,,,,,,,,,,,,,,
node,1336690073,52.4574104,13.5780299,Berlin,,33-38,12555,Bahnhofstraße,,,2025-10-17,,,,,,,,The 25 hours STORE,,,kiosk,,,,,,,,,,,,,,,,,,,,,,no,,0,,,,,,,,,,,,,,,,,,,,,,,,,,,,,,,,,,,,,,,,,,,,,,,,,,,,,,,,,,,,,,,,,,,,,,,,,,,,,,,,,,,,,,,,,,,,,,,,,,,,,,,,,,,,,,,,,,,,,,,,,,,,,,,,,,,,,,,,,,,,,,,,,,,,,,,,,,,,,,,,,,,,,,,,,,,,,,,,,,,,,,,,,,,,,,,,,,,,,,,,,,,
node,1336954992,52.5358545,13.4344178,Berlin,,125,10407,Danziger Straße,,,,,,,,,,,GP Getränkepartner,,,kiosk,yes,,,,,,,,,,,,,,,,,,,,,,,,,,,,,,,,,,,,,,,,,,,,,,,,,,,,,,,,,,,,,,,,,,,,,,,,,,,,,,,,,,,,,,,,,,,,,,,,,,,,,,,,,,,,,,,,,,,,,,,,,,,,,,,,,,,,,,,,,,,,,,,,,,,,,,,,,,,,,,,,,,,,,,,,,,,,,,,,,,,,,,,,,,,,,,,,,,,,,,,,,,,,,,,,,,,,,,,,,,,,,,,,,,
node,1340516400,52.4766555,13.2904175,,,,,,,,,,,,,,,,,,,kiosk,,,,,,,,,,,,,,,,,,,,,,,,,,,,,,,,,,,,,,,,,,,,,,,,,,,,,,,,,,,,,,,,,,,,,,,,,,,,,,,,,,,,,,,,,,,,,,,,,,,,,,,,,,,,,,,,,,,,,,,,,,,,,,,,,,,,,,,,,,,,,,,,,,,,,,,,,,,,,,,,,,,,,,,,,,,,,,,,,,,,,,,,,,,,,,,,,,,,,,,,,,,,,,,,,,,,,,,,,,,,,,,,,,,
node,1342942223,52.4222363,13.3708275,,,,,,,,2024-02-06,,,,,,,,Kiosk 39,"Mo-Fr 05:00-22:00, Sa 24",,kiosk,,,,,,,,,,,,,,,,,,,,,,no,,,,,,,,,,,,,,no,,,,,,,,,,,,,,,,,,,,,,,,,,,,,,,,,,,Ist auch Hermes Paketshop,,,,,,,,,,,,,,,,,,,,,,,,,,,,,,,,,,,,,,,,,,,,,,,,,,,,,,,,,,,,,,,,,,,,,,,,,,,,,,,,,,,,,,,,,,,,,,,,,,,,,,,,,,,,,,,,,,,,,,,,,,,,,,,,,,,,,,,,,,,,,,,,,,,,,,,,,,,,
node,1344436749,52.4757373,13.3398915,Berlin,DE,11A,12159,Hähnelstraße,Friedenau,,,,,,,,,,Spätkauf,"Mo-Th 10:00-23:00; Fr,Sa 10:00-01:00",,convenience,yes,,,,,,,,,,,,,,,+49 30 55522715,,,,,,,,0,yes,yes,,,,,,,,,,,,,,post_partner,Hermes Group;DPD;UPS,,Hermes PaketShop;DPD;UPS Access Point,,,,,,,,,,,,,,,,,,,,,,,,,,,,,,,Q105702843,,,,,,,,,,,,,,,,,,,,,,,,,,,,,,,,,,,,,,,,,,,,,,,,,,,,,,,,,,,,,,,,,,,,,,,,,,,,,,,,,,,,,,,,,,,,,,,,,,,,,,,,,,,,,,,,,,,,,,,,,,,,,,,,,,,,,,,,,,,,,,,,,,,,,,,,,
node,1345106612,52.5068859,13.2907957,,,,,,,,,,,,,,,,Lotto,,,kiosk,no,,,,,,,,,,,,,,,,,,,,,,,,,,,,,,,,,,,,,,,,,,,,,,,,,,,,,,,,,,,,,,,,,,,,,,,,,,,,,,,,,,,,,,,,,,,,,,,,,,,,,,,,,,,,,,,,,,,,,,,,,,,,,,,,,,,,,,,,,,,,,,,,,,,,,,,,,,,,,,,,,,,,,,,,,,,,,,,,,,,,,,,,,,,,,,,,,,,,,,,,,,,,,,,,,,,,,,,,,,,,,,,,,,
node,1345222866,52.5006355,13.4316495,Berlin,DE,11,10997,Lausitzer Platz,Kreuzberg,,,,,,,,,,The Shop's,Mo-Sa 11:00-00:00,,convenience,no,,,,,,,,,,,,,,,,,,,,,,,,,,,,,,,,,,,,,,,,,,,,,,,,,,,,,,,,,,,,,,,,,,,,,,,,,,,,,,,,,,,,,,,,,,,,,,,,,,,,,,,,,,,,,,,,,,,,,,,,,,,,,,,,,,,,,,,,,,,,,,,,,,,,,,,,,,,,,,,,,,,,,,,,,,,,,,,,,,,,,,,,,,,,,,,,,,,,,,,,,,,,,,,,,,,,,,,,,,,,,,,,,,
node,1346939681,52.5069169,13.4234636,,,,,,,,,,,,,,,,Mini Markt,"Mo-Fr 06:00-02:00, Sa 06:00-03:00",,convenience,limited,,,,,,,,,,,,,,,,,,,,,,,,,,,,,,,,,,,,no,,,,,,,,,,,,,,,,,,,,,,,,,,,,,,,,,,,,,,,,,,,,,,,,,,,,,,,,,,,,,,,,,,,,,,,,,,,,,,,,,,,,,,,,,,,,,,,,,,,,,,,,,,,,,,,,,,,,,,,,,,,,,,,,,,,,,,,,,,,,,,,,,,,,,,,,,,,,,,,,,,,,,,,,,,,,,,,,,,,,,,,,,,,,,,
node,1346939765,52.5029232,13.4202891,Berlin,DE,80,10997,Adalbertstraße,Kreuzberg,,2023-03-06,,,,,,,,Spätkauf Olive,,,convenience,no,,,,,,,,,,,,,,,,,,,,,no,,,,,,,yes,,,,,,,,,,,post_partner,,,DHL,,,,,,,,,,,,,,,,,,,,,,,,,,,,,,,,,,,,,,,,,,,,,,,,,,,,,,,,,,,,,,,,,,,,,,,,,,,,,,,,,,,,,,,,,,,,,,,,,,,,,,,,,,,,,,,,,,,,,,,,,,,,,,,,,,,,,,,,,,,,,,,,,,,,,,,,,,,,,,,,,,,,,,,,,,,,,,,,,,,,,,,,
node,1346939892,52.5117259,13.4167008,,,,,,,,,,,,,,,,Asia Markt,,,convenience,limited,,,,,,,,,,,,,,,,,,,,,,,,,,,,,,,,,,,,,,,,,,,,asian,,,,,,,,,,,,,,,,,,,,,,,,,,,,,,,,,,,,,,,,,,,,,,,,,,,,,,,,,,,,,,,,,,,,,,,,,,,,,,,,,,,,,,,,,,,,,,,,,,,,,,,,,,,,,,,,,,,,,,,,,,,,,,,,,,,,,,,,,,,,,,,,,,,,,,,,,,,,,,,,,,,,,,,,,,,,,,,,,,,,,,
