{
  "version": 0.6,
  "generator": "Overpass API 0.7.62.8 e802775f",
  "osm3s": {
    "timestamp_osm_base": "2025-11-10T08:15:37Z",
    "timestamp_areas_base": "2025-11-10T01:39:30Z",
    "copyright": "The data included in this document is from www.openstreetmap.org. The data is made available under ODbL."
  },
  "elements": [

{
  "type": "node",
  "id": 738094602,
  "lat": 52.4232357,
  "lon": 13.4753018,
  "tags": {
    "amenity": "marketplace",
    "check_date:opening_hours": "2020-12-30",
    "name": "Wochenmarkt Wutzkyallee",
    "opening_hours": "We 08:00-14:00; Sa 08:00-13:00"
  }
},
{
  "type": "node",
  "id": 949775523,
  "lat": 52.4952407,
  "lon": 13.4228540,
  "tags": {
    "addr:city": "Berlin",
    "addr:country": "DE",
    "addr:postcode": "12047",
    "addr:street": "Maybachufer",
    "addr:suburb": "Kreuzberg",
    "amenity": "marketplace",
    "check_date:opening_hours": "2024-03-28",
    "contact:website": "http://www.diemarktplaner.de/marktseite.html",
    "loc_name": "Türkenmarkt",
    "name": "Wochenmarkt am Maybachufer",
    "opening_hours": "Tu 11:00-18:30; Fr 11:00-18:30",
    "wheelchair": "yes"
  }
},
{
  "type": "node",
  "id": 1094105651,
  "lat": 52.5279049,
  "lon": 13.5388525,
  "tags": {
    "amenity": "marketplace",
    "name": "Wochenmarkt Helene-Weigel-Platz"
  }
},
{
  "type": "node",
  "id": 1187953847,
  "lat": 52.5470551,
  "lon": 13.3546547,
  "tags": {
    "amenity": "marketplace",
    "check_date:opening_hours": "2025-02-12",
    "name": "Genter Wochenmarkt",
    "opening_hours": "We,Sa 07:00-19:00; PH off",
    "wheelchair": "yes"
  }
},
{
  "type": "node",
  "id": 1247656158,
  "lat": 52.5283829,
  "lon": 13.4689275,
  "tags": {
    "addr:city": "Berlin",
    "addr:postcode": "10369",
    "amenity": "marketplace",
    "name": "Wochenmarkt",
    "opening_hours": "Tu,We,Th,10:00-18:00"
  }
},
{
  "type": "node",
  "id": 1264552070,
  "lat": 52.5182062,
  "lon": 13.4366777,
  "tags": {
    "amenity": "marketplace",
    "name": "Wochenmarkt Koppenstraße",
    "opening_hours": "Tu 10:00-18:00",
    "wheelchair": "yes"
  }
},
{
  "type": "node",
  "id": 1264566596,
  "lat": 52.5165736,
  "lon": 13.4498297,
  "tags": {
    "amenity": "marketplace",
    "name": "Wochenmarkt am Kosmos",
    "opening_hours": "Fr 10:00-16:00",
    "wheelchair": "yes"
  }
},
{
  "type": "node",
  "id": 1302119815,
  "lat": 52.5373699,
  "lon": 13.4018749,
  "tags": {
    "amenity": "marketplace",
    "check_date:opening_hours": "2024-03-29",
    "contact:website": "http://www.mv-perske.de/arkonaplatz.html",
    "name": "Wochenmarkt Arkonaplatz",
    "opening_hours": "Fr 12:00-19:00",
    "wheelchair": "yes"
  }
},
{
  "type": "node",
  "id": 1338224907,
  "lat": 52.4979615,
  "lon": 13.5221871,
  "tags": {
    "amenity": "marketplace",
    "check_date:opening_hours": "2023-09-30",
    "name": "Markt am Bärenschaufenster",
    "opening_hours": "Mo,Th,Fr 08:00-17:00",
    "wheelchair": "yes",
    "wikidata": "Q136116233"
  }
},
{
  "type": "node",
  "id": 1502926593,
  "lat": 52.4970017,
  "lon": 13.4537898,
  "tags": {
    "addr:city": "Berlin",
    "addr:country": "DE",
    "addr:housenumber": "4",
    "addr:postcode": "12435",
    "addr:street": "Eichenstraße",
    "addr:suburb": "Alt-Treptow",
    "amenity": "marketplace",
    "name": "Treptower Hallentrödelmarkt",
    "name:de": "Treptower Hallentrödelmarkt",
    "name:en": "Treptower Fleamarket",
    "opening_hours": "Sa-Su 08:00-18:00",
    "operator": "Treptower Art Center GmbH",
    "shop": "flea_market",
    "wheelchair": "yes"
  }
},
{
  "type": "node",
  "id": 1511307222,
  "lat": 52.5088617,
  "lon": 13.3754686,
  "tags": {
    "xmas:day_date": "2023 Nov 27 - 2023 Dec 26",
    "xmas:feature": "market",
    "xmas:fee": "no",
    "xmas:name": "Weihnachtsmarkt am Potsdamer Platz",
    "xmas:note": "24.12. bis 16 Uhr",
    "xmas:opening_hours": "10:00-22:00",
    "xmas:url": "https://www.berlin.de/weihnachtsmarkt/"
  }
},
{
  "type": "node",
  "id": 1511310756,
  "lat": 52.4739654,
  "lon": 13.4445244,
  "tags": {
    "xmas:day_date": "06.-08.12.2024",
    "xmas:feature": "market",
    "xmas:fee": "no",
    "xmas:name": "Alt-Rixdorfer Weihnachtsmarkt",
    "xmas:opening_hours": "Fr 17:00-21:00; Sa 14:00-21:00; Su 14:00-20:00",
    "xmas:url": "https://www.berlin.de/weihnachtsmarkt/3240343-3496862-alt-rixdorfer-weihnachtsmarkt.html"
  }
},
{
  "type": "node",
  "id": 1511315921,
  "lat": 52.5394684,
  "lon": 13.4139913,
  "tags": {
    "xmas:day_date": "25.11.2024-22.12.2024",
    "xmas:feature": "market",
    "xmas:fee": "no",
    "xmas:name": "Lucia Weihnachtsmarkt in der Kulturbrauerei",
    "xmas:opening_hours": "Mo-Fr 15:00-22:00; Sa,Su 13:00-22:00",
    "xmas:url": "https://www.berlin.de/weihnachtsmarkt/"
  }
},
{
  "type": "node",
  "id": 1575213617,
  "lat": 52.4387174,
  "lon": 13.3434330,
  "tags": {
    "amenity": "marketplace",
    "check_date:opening_hours": "2024-11-23",
    "name": "Wochenmarkt Rathaus Lankwitz, Leonorenstraße",
    "opening_hours": "Mo,Fr 08:00-13:00"
  }
},
{
  "type": "node",
  "id": 1578274690,
  "lat": 52.5701146,
  "lon": 13.4065769,
  "tags": {
    "amenity": "marketplace",
    "check_date:opening_hours": "2025-11-08",
    "name": "Wochenmarkt Pankow",
    "opening_hours": "Tu 08:00-14:00; Fr 08:00-16:00; Sa 09:00-17:00",
    "opening_hours:signed": "no",
    "wheelchair": "yes"
  }
},
{
  "type": "node",
  "id": 1597897935,
  "lat": 52.4915549,
  "lon": 13.4206470,
  "tags": {
    "amenity": "marketplace",
    "name": "Ökomarkt am Hohenstaufenplatz",
    "opening_hours": "Tu 12:00-18:30;Sa 09:00-15:00",
    "organic": "only"
  }
},
{
  "type": "node",
  "id": 1807535654,
  "lat": 52.5007632,
  "lon": 13.4312447,
  "tags": {
    "amenity": "marketplace",
    "name": "Freitags Regionalmarkt",
    "opening_hours": "Fr 11:00-18:00",
    "wheelchair": "yes"
  }
},
{
  "type": "node",
  "id": 2736078705,
  "lat": 52.5370746,
  "lon": 13.4020996,
  "tags": {
    "amenity": "marketplace",
    "check_date:opening_hours": "2024-03-29",
    "contact:mobile": "+49 171 7101662; +49 171 6010904",
    "contact:phone": "+49 30 7869764",
    "contact:website": "http://www.troedelmarkt-arkonaplatz.de",
    "name": "Flohmarkt am Arkonaplatz",
    "opening_hours": "Su 10:00-16:00",
    "wheelchair": "yes"
  }
},
{
  "type": "node",
  "id": 3008830372,
  "lat": 52.5181537,
  "lon": 13.2904267,
  "tags": {
    "amenity": "marketplace",
    "check_date:opening_hours": "2023-02-23",
    "name": "Wochenmarkt Klausenerplatz",
    "opening_hours": "Tu, Fr 08:00-13:00",
    "website": "http://www.berlin.de/ba-charlottenburg-wilmersdorf/verwaltung/aemter/ordnungsamt/wochenmaerkte/"
  }
},
{
  "type": "node",
  "id": 3017245236,
  "lat": 52.4900109,
  "lon": 13.3138411,
  "tags": {
    "amenity": "marketplace",
    "name": "Food Court",
    "opening_hours": "Tu 11:00-14:00;Th 11:00-14:00"
  }
},
{
  "type": "node",
  "id": 3017245237,
  "lat": 52.5020746,
  "lon": 13.4317885,
  "tags": {
    "amenity": "marketplace",
    "name": "Street Food Thursday",
    "opening_hours": "Th 17:00-22:00",
    "wheelchair": "limited"
  }
},
{
  "type": "node",
  "id": 3017245239,
  "lat": 52.5022022,
  "lon": 13.4315955,
  "tags": {
    "addr:city": "Berlin",
    "addr:postcode": "10997",
    "amenity": "marketplace",
    "name": "Wochenmarkt",
    "opening_hours": "Fr-Sa 10:00-18:00",
    "wheelchair": "limited"
  }
},
{
  "type": "node",
  "id": 3188323586,
  "lat": 52.5365702,
  "lon": 13.4183629,
  "tags": {
    "addr:city": "Berlin",
    "addr:country": "DE",
    "addr:housenumber": "68",
    "addr:postcode": "10435",
    "addr:street": "Kollwitzstraße",
    "addr:suburb": "Prenzlauer Berg",
    "amenity": "marketplace",
    "check_date": "2024-06-11",
    "check_date:opening_hours": "2022-04-30",
    "contact:website": "https://www.grueneliga-berlin.de/themen-projekte2/oekomarkt/",
    "name": "Wochenmarkt Kollwitzplatz",
    "opening_hours": "Sa 10:00-17:00; Th 12:00-19:00",
    "organic": "yes",
    "wheelchair": "yes"
  }
},
{
  "type": "node",
  "id": 3188323587,
  "lat": 52.5366375,
  "lon": 13.4180812,
  "tags": {
    "addr:city": "Berlin",
    "addr:country": "DE",
    "addr:postcode": "10435",
    "addr:street": "Wörther Straße",
    "addr:suburb": "Prenzlauer Berg",
    "amenity": "marketplace",
    "check_date:opening_hours": "2023-11-25",
    "fair_trade": "yes",
    "name": "Ökomarkt am Kollwitzplatz",
    "opening_hours": "Th 12:00-19:00",
    "operator": "GRÜNE LIGA Berlin e.V.",
    "organic": "only",
    "wheelchair": "yes"
  }
},
{
  "type": "node",
  "id": 3204993764,
  "lat": 52.5217447,
  "lon": 13.4129511,
  "tags": {
    "xmas:day_date": "25.11.2024-26.12.2024",
    "xmas:feature": "market",
    "xmas:fee": "no",
    "xmas:name": "Weihnachtsmarkt am Alexanderplatz",
    "xmas:opening_hours": "Mo-Su 11:00-22:00",
    "xmas:url": "https://www.berlin.de/weihnachtsmarkt/"
  }
},
{
  "type": "node",
  "id": 3634281847,
  "lat": 52.4861130,
  "lon": 13.4482324,
  "tags": {
    "addr:city": "Berlin",
    "addr:housenumber": "52",
    "addr:postcode": "12059",
    "addr:street": "Elsenstraße",
    "addr:suburb": "Neukölln",
    "amenity": "marketplace",
    "description": "Über Marktschwärmer lokale Produkte direkt von regionalen ErzeugerInnen bestellen und diese wöchentlich am Markttag dienstags von 17:00-18:00Uhr abholen.",
    "name": "Marktschwärmer Neukölln-Elsenstraße",
    "opening_hours": "Tue 17:00-18:00",
    "website": "https://marktschwaermer.de/de-DE/assemblies/146"
  }
},
{
  "type": "node",
  "id": 3678929703,
  "lat": 52.4955204,
  "lon": 13.4221115,
  "tags": {
    "amenity": "marketplace",
    "check_date:opening_hours": "2024-08-11",
    "contact:website": "http://www.neukoellner-stoff.de/",
    "name": "Neuköllner Stoff",
    "opening_hours": "Sa 11:00-17:00",
    "operator": "http://www.mv-perske.de/Wochenmaerkte-Neukoelln.html",
    "payment:credit_cards": "yes",
    "payment:debit_cards": "yes",
    "shop": "fabric",
    "wheelchair": "yes"
  }
},
{
  "type": "node",
  "id": 3874526512,
  "lat": 52.5046540,
  "lon": 13.3362026,
  "tags": {
    "xmas:day_date": "24.11.2025-04.01.2026",
    "xmas:feature": "market",
    "xmas:fee": "no",
    "xmas:name": "Weihnachtsmarkt an der Gedächtniskirche",
    "xmas:url": "https://www.berlin.de/weihnachtsmarkt/"
  }
},
{
  "type": "node",
  "id": 3874526513,
  "lat": 52.5165369,
  "lon": 13.3940767,
  "tags": {
    "xmas:day_date": "25.11.2024-31.12.2024",
    "xmas:feature": "market",
    "xmas:fee": "yes",
    "xmas:name": "WeihnachtsZauber Gendarmenmarkt",
    "xmas:note": "2 Euro, Freier Eintritt: Kinder unter 12 Jahren und Mo. - Fr. 12-14 Uhr (außer 24./25./26./31.12.); abweichende Öffnungszeiten: 24.12. 12:00 - 18:00 Uhr, 31.12. 12:00 - 1:00 Uhr",
    "xmas:opening_hours": "Mo-Su 12:00-22:00; Fr,Sa 12:00-23:00",
    "xmas:url": "https://www.weihnachtsmarkt-berlin.de/"
  }
},
{
  "type": "node",
  "id": 3980482215,
  "lat": 52.4569619,
  "lon": 13.3216362,
  "tags": {
    "amenity": "marketplace",
    "check_date:opening_hours": "2025-05-14",
    "name": "Wochenmarkt",
    "opening_hours": "Tu 08:00-14:00; Th 08:00-14:00; Sa 08:00-18:00",
    "wheelchair": "yes"
  }
},
{
  "type": "node",
  "id": 4263380282,
  "lat": 52.5135429,
  "lon": 13.5196582,
  "tags": {
    "amenity": "marketplace",
    "name:signed": "no",
    "opening_hours": "\"different market places have different times/day of the week\"",
    "wheelchair": "yes"
  }
},
{
  "type": "node",
  "id": 4308868168,
  "lat": 52.5098465,
  "lon": 13.4302553,
  "tags": {
    "addr:city": "Berlin",
    "addr:housenumber": "3",
    "addr:postcode": "10243",
    "addr:street": "An der Schillingbrücke",
    "amenity": "food_court",
    "cuisine": "african",
    "image": "https://photos.app.goo.gl/4miQqKJ5ZEFDG8H98",
    "indoor_seating": "yes",
    "name": "YAAM",
    "opening_hours": "We 16:00-02:00; Th 16:00-04:00; Fr 16:00-05:00; Sa 13:00-05:00; Su 13:00-01:00",
    "outdoor_seating": "yes",
    "website": "https://www.yaam.de/"
  }
},
{
  "type": "node",
  "id": 4360136926,
  "lat": 52.4578134,
  "lon": 13.6260219,
  "tags": {
    "addr:city": "Berlin",
    "addr:housenumber": "1",
    "addr:postcode": "12587",
    "addr:street": "Schöneicher Straße",
    "amenity": "marketplace",
    "check_date": "2025-10-26",
    "check_date:opening_hours": "2025-10-26",
    "name": "Flohmarkt Friedrichshagen",
    "opening_hours": "Su 08:00-16:00",
    "operator": "http://oldthing.de/",
    "website": "https://oldthing.de/Berliner-Flohmarkt/Secondhand-und-Kunst/Flohmarkt-Friedrichshagen/"
  }
},
{
  "type": "node",
  "id": 4388912427,
  "lat": 52.5112571,
  "lon": 13.4589749,
  "tags": {
    "addr:city": "Berlin",
    "addr:housenumber": "1",
    "addr:place": "Boxhagener Platz",
    "addr:postcode": "10245",
    "amenity": "marketplace",
    "check_date:opening_hours": "2024-11-06",
    "contact:mobile": "+49 162 2923066",
    "name": "Trödelmarkt am Boxhagener Platz",
    "opening_hours": "Su 10:00-18:00",
    "source:url": "http://www.berlin.de/special/shopping/flohmaerkte/1998240-1724959-flohmarkt-am-boxhagener-platz.html",
    "wheelchair": "yes"
  }
},
{
  "type": "node",
  "id": 4388990289,
  "lat": 52.4924870,
  "lon": 13.4313042,
  "tags": {
    "amenity": "marketplace",
    "name": "Flohmarkt Nowkoelln Flowmarkt",
    "opening_hours": "week 12-48/2 Su 10:00-17:00",
    "website": "https://www.nowkoelln.de/"
  }
},
{
  "type": "node",
  "id": 4486907949,
  "lat": 52.4123017,
  "lon": 13.1415907,
  "tags": {
    "amenity": "marketplace",
    "name": "Wilhelmplatz",
    "opening_hours": "Fr 13:00-18:00"
  }
},
{
  "type": "node",
  "id": 4781579796,
  "lat": 52.5469113,
  "lon": 13.3590397,
  "tags": {
    "addr:postcode": "13353",
    "amenity": "marketplace",
    "check_date": "2024-12-23",
    "check_date:opening_hours": "2024-12-23",
    "name": "Bauernmarkt Leopoldplatz",
    "opening_hours": "Tu,Fr 10:00-17:00",
    "operator": "B-B-M Berlin-Brandenburger-MärkteVeranstaltungs- und Service GmbH",
    "organic": "yes",
    "website": "https://bbm-maerkte.de/bauernmarkt-leopoldplatz-berlin/",
    "wheelchair": "yes"
  }
},
{
  "type": "node",
  "id": 4781579797,
  "lat": 52.5469796,
  "lon": 13.3591899,
  "tags": {
    "addr:postcode": "13353",
    "amenity": "marketplace",
    "check_date:opening_hours": "2025-04-09",
    "name": "Trödelmarkt",
    "opening_hours": "Sa 08:00-15:30",
    "website": "https://bbm-maerkte.de/troedelmarkt-flohmarkt-leopoldplatz/",
    "wheelchair": "yes"
  }
},
{
  "type": "node",
  "id": 4806425628,
  "lat": 52.5178391,
  "lon": 13.3413700,
  "tags": {
    "amenity": "marketplace",
    "check_date": "2025-06-13",
    "description": "Altonaer Straße / Ecke Klopstockstraße",
    "internet_access": "no",
    "level": "0",
    "name": "Ökomarkt im Hansaviertel",
    "opening_hours": "Fr 12:00-18:00",
    "operator": "Brigitta Voigt",
    "payment:cash": "yes",
    "payment:credit_cards": "yes",
    "payment:debit_cards": "yes",
    "website": "https://www.marktzeit.berlin/mz/oekomarkt_hansaviertel/",
    "wheelchair": "yes"
  }
},
{
  "type": "node",
  "id": 4918149344,
  "lat": 52.5394754,
  "lon": 13.5773476,
  "tags": {
    "amenity": "food_court",
    "name": "Warung Bali"
  }
},
{
  "type": "node",
  "id": 4938805613,
  "lat": 52.5323856,
  "lon": 13.4359922,
  "tags": {
    "amenity": "marketplace",
    "check_date:opening_hours": "2021-09-11",
    "name": "Wochenmarkt Arnswalder Platz",
    "opening_hours": "Sa 08:00-15:00",
    "wheelchair": "yes"
  }
},
{
  "type": "node",
  "id": 4938810971,
  "lat": 52.4880420,
  "lon": 13.3915146,
  "tags": {
    "amenity": "marketplace",
    "check_date:opening_hours": "2024-07-17",
    "name": "Ökomarkt Chamissoplatz",
    "opening_hours": "Sa 08:00-14:00",
    "operator": "Grüngewusel e.V.",
    "organic": "only"
  }
},
{
  "type": "node",
  "id": 4938814827,
  "lat": 52.5357067,
  "lon": 13.2010619,
  "tags": {
    "amenity": "marketplace",
    "name": "Wochenmarkt Rathaus Spandau",
    "note": "Mittwoch/Freitag - genaue Öffnungszeiten vermutlich Vormittags-früher Nachmittag",
    "opening_hours": "We; Fr",
    "wheelchair": "yes"
  }
},
{
  "type": "node",
  "id": 4938816169,
  "lat": 52.5147162,
  "lon": 13.2595465,
  "tags": {
    "amenity": "marketplace",
    "name": "Wochenmarkt Preußenallee",
    "opening_hours": "Tu,Fr 08:00-13:00",
    "wheelchair": "yes"
  }
},
{
  "type": "node",
  "id": 4938849682,
  "lat": 52.5086108,
  "lon": 13.3097282,
  "tags": {
    "addr:street": "Karl-August-Platz",
    "amenity": "marketplace",
    "check_date:opening_hours": "2025-10-30",
    "name": "Wochenmarkt",
    "opening_hours": "We 08:00-13:00; Sa 08:00-14:00"
  }
},
{
  "type": "node",
  "id": 4938868566,
  "lat": 52.4736891,
  "lon": 13.4412709,
  "tags": {
    "amenity": "marketplace",
    "check_date:opening_hours": "2021-11-12",
    "name": "Wochenmarkt Karl-Marx-Platz",
    "opening_hours": "We 11:00-18:00; Sa 08:00-15:00",
    "operator": "die marktplaner",
    "website": "https://www.aktion-kms.de/wochenmarkt/",
    "wheelchair": "yes"
  }
},
{
  "type": "node",
  "id": 4938876534,
  "lat": 52.4508360,
  "lon": 13.6243933,
  "tags": {
    "amenity": "marketplace",
    "check_date:opening_hours": "2025-07-13",
    "name": "Wochenmarkt",
    "opening_hours": "Sa 09:00-13:00; Mo,We,Fr 10:00-16:00",
    "website": "http://www.friedrichshagen.net/oeffentliches/wochenmarkt.html",
    "wheelchair": "yes"
  }
},
{
  "type": "node",
  "id": 4938881690,
  "lat": 52.4662082,
  "lon": 13.4372321,
  "tags": {
    "alt_name": "Die dicke Linda",
    "amenity": "marketplace",
    "check_date:opening_hours": "2023-04-19",
    "contact:website": "https://www.dicke-linda-markt.de/kranoldplatz/",
    "name": "Regionalmarkt am Kranoldplatz",
    "opening_hours": "Sa 10:00-16:00",
    "wheelchair": "yes"
  }
},
{
  "type": "node",
  "id": 5152648806,
  "lat": 52.4889443,
  "lon": 13.3531035,
  "tags": {
    "amenity": "marketplace",
    "check_date:opening_hours": "2024-09-07",
    "contact:facebook": "https://www.facebook.com/people/Marktzeit/100057120204279/",
    "contact:website": "https://www.marktzeit.berlin/mz/oekomarkt_akazienstrasse/",
    "name": "Ökomarkt an der Apostel-Paulus-Kirche",
    "opening_hours": "Th 12:00-18:00; PH off",
    "wheelchair": "yes"
  }
},
{
  "type": "node",
  "id": 5188267334,
  "lat": 52.4281755,
  "lon": 13.3277154,
  "tags": {
    "amenity": "marketplace",
    "check_date:opening_hours": "2024-09-15",
    "name": "Kranoldmarkt",
    "opening_hours": "We,Sa 07:00-14:00"
  }
},
{
  "type": "node",
  "id": 5188287257,
  "lat": 52.4428270,
  "lon": 13.3123461,
  "tags": {
    "amenity": "marketplace",
    "name": "Markt",
    "opening_hours": "Fr,Sa 08:00-14:00"
  }
},
{
  "type": "node",
  "id": 5195141905,
  "lat": 52.4957781,
  "lon": 13.2997086,
  "tags": {
    "amenity": "marketplace",
    "name": "Wochenmarkt Nestorstraße",
    "opening_hours": "Tu,Fr 08:00-13:00",
    "operator": "Bezirksamt Charlottenburg-Wilmersdorf",
    "wheelchair": "yes"
  }
},
{
  "type": "node",
  "id": 5209732607,
  "lat": 52.5486137,
  "lon": 13.5048228,
  "tags": {
    "amenity": "marketplace",
    "name:signed": "no",
    "opening_hours": "24/7"
  }
},
{
  "type": "node",
  "id": 5218420424,
  "lat": 52.5198802,
  "lon": 13.2960588,
  "tags": {
    "xmas:day_date": "24.11. - 28.12.2024",
    "xmas:feature": "market",
    "xmas:fee": "no",
    "xmas:name": "Weihnachtsmarkt am Schloss Charlottenburg",
    "xmas:note": "geschlossen am 24. Dezember",
    "xmas:opening_hours": "Mo-Th 13:00-22:00; Fr-Su 12:00-22:00",
    "xmas:url": "https://www.schloss-weihnachtsmarkt.de/"
  }
},
{
  "type": "node",
  "id": 5261525572,
  "lat": 52.4374709,
  "lon": 13.2326305,
  "tags": {
    "amenity": "marketplace",
    "name": "Wochenmarkt am Mexikoplatz",
    "opening_hours": "Sa 09:00-15:00"
  }
},
{
  "type": "node",
  "id": 5405901057,
  "lat": 52.5388710,
  "lon": 13.4132482,
  "tags": {
    "amenity": "marketplace",
    "check_date": "2024-06-11",
    "contact:website": "http://www.streetfoodaufachse.de/",
    "delivery": "no",
    "name": "Street Food Markt Berlin",
    "opening_hours": "Jan 14-Nov 11: Su 12:00-18:00",
    "operator": "Ketering GmbH",
    "outdoor_seating": "yes",
    "takeaway": "only",
    "wheelchair": "yes"
  }
},
{
  "type": "node",
  "id": 5469628638,
  "lat": 52.5503942,
  "lon": 13.4102372,
  "tags": {
    "addr:city": "Berlin",
    "addr:postcode": "10439",
    "addr:street": "Seelower Straße",
    "amenity": "marketplace",
    "check_date:opening_hours": "2025-04-22",
    "name": "Bauernmarkt",
    "opening_hours": "Sa 10:00-16:00",
    "website": "https://bbm-maerkte.de/bauernmarkt-seelower-strasse/"
  }
},
{
  "type": "node",
  "id": 5982573198,
  "lat": 52.4846521,
  "lon": 13.3446836,
  "tags": {
    "amenity": "marketplace",
    "marketplace": "farmers_market",
    "name": "Wochenmarkt John-F.-Kennedy-Platz",
    "opening_hours": "Tu,Fr 08:00-13:00",
    "operator": "Bezirksamt Tempelhof-Schöneberg von Berlin",
    "wheelchair": "yes"
  }
},
{
  "type": "node",
  "id": 5982573199,
  "lat": 52.4849195,
  "lon": 13.3446676,
  "tags": {
    "amenity": "marketplace",
    "check_date:opening_hours": "2024-08-03",
    "marketplace": "flea_market",
    "name": "Trödelmarkt John-F.-Kennedy-Platz",
    "opening_hours": "Sa,Su 08:00-16:00",
    "wheelchair": "yes"
  }
},
{
  "type": "node",
  "id": 6052775889,
  "lat": 52.5108583,
  "lon": 13.4357968,
  "tags": {
    "amenity": "marketplace",
    "name": "Antikmarkt am Ostbahnhof",
    "opening_hours": "Su 09:00-17:00",
    "wheelchair": "yes"
  }
},
{
  "type": "node",
  "id": 6283834686,
  "lat": 52.4920594,
  "lon": 13.3146687,
  "tags": {
    "alt_name": "Thai-Markt",
    "amenity": "marketplace",
    "contact:facebook": "https://www.facebook.com/thaipark.de/",
    "contact:instagram": "https://www.instagram.com/thaipark/",
    "contact:website": "https://thaipark.de/",
    "cuisine": "thai",
    "description": "Thai-Streetfoodmarkt",
    "name": "Thaipark",
    "name:de": "Thaipark",
    "name:th": "ไทยพาร์ค",
    "opening_hours": "Apr-Sep: Sa,Su 11:00-21:00",
    "wheelchair": "yes"
  }
},
{
  "type": "node",
  "id": 6351024671,
  "lat": 52.4446594,
  "lon": 13.5746778,
  "tags": {
    "amenity": "marketplace",
    "check_date:opening_hours": "2022-02-10",
    "name": "Schloßplatz",
    "opening_hours": "Tu,Th 08:30-17:00",
    "website": "https://www.in-berlin-brandenburg.com/Einkaufen_Berlin/Wochenmaerkte/Treptow-Koepenick/"
  }
},
{
  "type": "node",
  "id": 6351024674,
  "lat": 52.4378995,
  "lon": 13.5473582,
  "tags": {
    "amenity": "marketplace",
    "check_date:opening_hours": "2022-04-13",
    "name": "Marktplatz Adlershof",
    "opening_hours": "We,Th 09:00-17:00",
    "website": "https://www.markt-verzeichnis-bb.de/region/12/treptow-koepenick",
    "wheelchair": "yes"
  }
},
{
  "type": "node",
  "id": 6357592088,
  "lat": 52.4312602,
  "lon": 13.2580008,
  "tags": {
    "amenity": "marketplace",
    "check_date:opening_hours": "2022-08-27",
    "contact:website": "http://www.zehlendorfer-wochenmarkt.de/",
    "name": "Wochenmarkt",
    "opening_hours": "Sa 09:00-16:00",
    "operator": "ZFM Marktbetriebsgesellschaft mbH i.Gr."
  }
},
{
  "type": "node",
  "id": 6923866544,
  "lat": 52.5675691,
  "lon": 13.5732825,
  "tags": {
    "amenity": "marketplace",
    "name": "Wochenmarkt am Barnimplatz"
  }
},
{
  "type": "node",
  "id": 8019483080,
  "lat": 52.5236906,
  "lon": 13.3690788,
  "tags": {
    "air_conditioning": "yes",
    "amenity": "food_court",
    "check_date": "2025-10-04",
    "check_date:diet:halal": "2024-11-22",
    "check_date:diet:kosher": "2024-11-22",
    "check_date:diet:vegan": "2024-11-22",
    "diet:halal": "no",
    "diet:kosher": "no",
    "diet:vegan": "yes",
    "diet:vegetarian": "yes",
    "indoor_seating": "yes",
    "level": "0",
    "name": "Foodfactory",
    "opening_hours": "PH,Mo-Su 08:00-20:30",
    "outdoor_seating": "pedestrian_zone",
    "payment:credit_cards": "yes",
    "payment:debit_cards": "yes",
    "smoking": "outside",
    "toilets:wheelchair": "yes",
    "website": "https://www.foodfactory-home.de/",
    "wheelchair": "yes"
  }
},
{
  "type": "node",
  "id": 8289047338,
  "lat": 52.5260760,
  "lon": 13.3393479,
  "tags": {
    "amenity": "marketplace",
    "check_date:opening_hours": "2024-10-09",
    "contact:website": "https://www.ev-gemeinde-tiergarten.de/page/218/%C3%B6komarkt-vor-der-heilandskirche",
    "name": "Ökomarkt an der Heilandskirche",
    "opening_hours": "We 12:00-18:30",
    "operator": "Evangelische Kirchengemeinde Tiergarten",
    "wheelchair": "yes"
  }
},
{
  "type": "node",
  "id": 8308140887,
  "lat": 52.5077303,
  "lon": 13.4533672,
  "tags": {
    "amenity": "marketplace",
    "contact:website": "https://www.rawflohmarkt.de/",
    "name": "RAW-Flohmarkt",
    "opening_hours": "Su 08:00-17:00",
    "wheelchair": "limited"
  }
},
{
  "type": "node",
  "id": 8308239828,
  "lat": 52.5378477,
  "lon": 13.2152229,
  "tags": {
    "amenity": "marketplace",
    "name": "Trödelmarkt Spandau",
    "opening_hours": "Su 10:00-18:00"
  }
},
{
  "type": "node",
  "id": 8308239829,
  "lat": 52.4176783,
  "lon": 13.2877921,
  "tags": {
    "amenity": "marketplace",
    "name": "Antik- und Trödelmarkt Goerzallee",
    "opening_hours": "Su 06:00-16:00"
  }
},
{
  "type": "node",
  "id": 8308239830,
  "lat": 52.4568736,
  "lon": 13.3217445,
  "tags": {
    "amenity": "marketplace",
    "check_date:opening_hours": "2025-05-14",
    "name": "Trödelmarkt Hermann-Ehlers-Platz",
    "opening_hours": "Su 08:00-16:00",
    "wheelchair": "yes"
  }
},
{
  "type": "node",
  "id": 8308239831,
  "lat": 52.4736825,
  "lon": 13.3013181,
  "tags": {
    "amenity": "marketplace",
    "check_date:opening_hours": "2024-04-13",
    "contact:website": "https://www.der-mecklenburger-troedelmarkt.de",
    "name": "Flohmarkt Mecklenburgische Straße",
    "opening_hours": "Su 08:00-16:00",
    "organic": "no",
    "second_hand": "yes",
    "wheelchair": "yes"
  }
},
{
  "type": "node",
  "id": 8308239832,
  "lat": 52.4909435,
  "lon": 13.3141436,
  "tags": {
    "alt_name": "Flohmarkt beim Parkcafé",
    "amenity": "marketplace",
    "name": "Flohmarkt am Fehrbelliner Platz",
    "opening_hours": "Sa,Su 10:00-16:00",
    "second_hand": "only",
    "wheelchair": "yes"
  }
},
{
  "type": "node",
  "id": 8308239833,
  "lat": 52.5248092,
  "lon": 13.3036302,
  "tags": {
    "amenity": "marketplace",
    "name": "Flohmarkt in der Mierendorfstraße"
  }
},
{
  "type": "node",
  "id": 8308239835,
  "lat": 52.5952608,
  "lon": 13.3342994,
  "tags": {
    "amenity": "marketplace",
    "check_date:opening_hours": "2025-07-16",
    "name": "Flohmarkt Wittenau",
    "opening_hours:signed": "no",
    "wheelchair": "yes"
  }
},
{
  "type": "node",
  "id": 8308239837,
  "lat": 52.4304169,
  "lon": 13.3775440,
  "tags": {
    "amenity": "marketplace",
    "name": "Flohmarkt Marienfelde",
    "opening_hours": "Su 09:00-15:00"
  }
},
{
  "type": "node",
  "id": 8308239838,
  "lat": 52.4891534,
  "lon": 13.3957331,
  "tags": {
    "amenity": "marketplace",
    "check_date": "2025-10-12",
    "check_date:opening_hours": "2025-10-12",
    "name": "Trödelmarkt am Marheinekeplatz in der Bergmannstraße",
    "opening_hours": "Su 11:00-17:00; Sa 10:00-16:00"
  }
},
{
  "type": "node",
  "id": 8308239839,
  "lat": 52.5186418,
  "lon": 13.3975740,
  "tags": {
    "amenity": "marketplace",
    "name": "Kunstmarkt am Zeughaus",
    "opening_hours": "Su 11:00-17:00"
  }
},
{
  "type": "node",
  "id": 8308239840,
  "lat": 52.5329956,
  "lon": 13.4013758,
  "tags": {
    "amenity": "marketplace",
    "name": "Acud Flohmarkt",
    "note": "check position",
    "wheelchair": "limited"
  }
},
{
  "type": "node",
  "id": 8972210816,
  "lat": 52.6209233,
  "lon": 13.3583949,
  "tags": {
    "amenity": "marketplace",
    "contact:facebook": "https://www.facebook.com/LuebarserDorfmarkt/",
    "name": "Lübarser Dorfmarkt",
    "opening_hours": "Su 11:00-18:00"
  }
},
{
  "type": "node",
  "id": 9006709217,
  "lat": 52.5231603,
  "lon": 13.4027781,
  "tags": {
    "addr:postcode": "10178",
    "amenity": "marketplace",
    "check_date": "2024-06-10",
    "name": "Hackescher Markt",
    "name:ru": "Хакешер Маркт",
    "opening_hours": "Th,Sa 09:00-18:00",
    "wheelchair": "yes"
  }
},
{
  "type": "node",
  "id": 9278469937,
  "lat": 52.5371720,
  "lon": 13.2046156,
  "tags": {
    "xmas:day_date": "24.11.2025 - 23.12.2025",
    "xmas:feature": "market",
    "xmas:fee": "no",
    "xmas:name": "Spandauer Weihnachtsmarkt in der Altstadt",
    "xmas:opening_hours": "Mo-Su 11:00-20:00; Fr,Sa 11:00-22:00",
    "xmas:url": "https://www.berlin.de/weihnachtsmarkt/3249571-3496862-spandauer-weihnachtsmarkt-in-der-altstad.html"
  }
},
{
  "type": "node",
  "id": 9278600806,
  "lat": 52.5193057,
  "lon": 13.4072658,
  "tags": {
    "xmas:day_date": "25.11.2024-30.12.2024",
    "xmas:feature": "market",
    "xmas:fee": "no",
    "xmas:name": "Weihnachtsmarkt am Roten Rathaus",
    "xmas:note": "Heiligabend geschlossen, 25. und 26. Dezember von 12 bis 21 Uhr, 30.12. von 12 bis 20 Uhr",
    "xmas:opening_hours": "Mo-Fr 12:00-22:00; Sa,Su 11:00-22:00",
    "xmas:url": "https://www.berlin.de/weihnachtsmarkt/"
  }
},
{
  "type": "node",
  "id": 9278600807,
  "lat": 52.5070526,
  "lon": 13.4563127,
  "tags": {
    "xmas:day_date": "14.11.2024-22.12.2024",
    "xmas:feature": "market",
    "xmas:fee": "yes",
    "xmas:name": "Historischer Weihnachtsmarkt auf dem RAW-Gelände",
    "xmas:note": "Montags Eintritt frei, Totensonntag geschlossen",
    "xmas:opening_hours": "Mo-Fr 15:00-22:00; Sa,Su 12:00-22:00",
    "xmas:url": "https://www.carnica-spectaculi.de/veranstaltung/4-historische-weihnacht/"
  }
},
{
  "type": "node",
  "id": 9278816676,
  "lat": 52.5338942,
  "lon": 13.5024748,
  "tags": {
    "xmas:day_date": "01.11.2024-28.12.2024",
    "xmas:feature": "market",
    "xmas:fee": "no",
    "xmas:name": "Weihnachts-Rummel an der Landsberger Allee",
    "xmas:note": "Am 24. November und 24. Dezember geschlossen",
    "xmas:opening_hours": "Mo-Th 14:00-21:30; Fr,Sa 14:00-23:00; Su 12:00-21:00",
    "xmas:url": "https://www.berlin.de/weihnachtsmarkt/"
  }
},
{
  "type": "node",
  "id": 9278816677,
  "lat": 52.4339460,
  "lon": 13.2596143,
  "tags": {
    "xmas:day_date": "24.11.-30.12.2024",
    "xmas:feature": "market",
    "xmas:fee": "no",
    "xmas:name": "Zehlendorfer Weihnachtsmarkt",
    "xmas:url": "https://www.berlin.de/weihnachtsmarkt/5703047-3496862-zehlendorfer-weihnachtsmarkt.html"
  }
},
{
  "type": "node",
  "id": 9284057869,
  "lat": 52.4993723,
  "lon": 13.3546983,
  "tags": {
    "xmas:day_date": "08.11.2024-23.12.2024",
    "xmas:description": "LGBTQIA+ Weihnachtsmarkt",
    "xmas:feature": "market",
    "xmas:fee": "no",
    "xmas:name": "LGBTQIA Winterdays und Christmas Avenue",
    "xmas:note": "am 24. November (Totensonntag) geschlossen",
    "xmas:opening_hours": "Mo-Th 16:00-22:00; Fr-Su 15:00-22:00",
    "xmas:url": "https://www.berlin.de/weihnachtsmarkt/"
  }
},
{
  "type": "node",
  "id": 9592974397,
  "lat": 52.5364410,
  "lon": 13.5764032,
  "tags": {
    "amenity": "food_court",
    "cuisine": "chinese"
  }
},
{
  "type": "node",
  "id": 9631694647,
  "lat": 52.5435956,
  "lon": 13.4173724,
  "tags": {
    "addr:city": "Berlin",
    "addr:postcode": "10437",
    "addr:street": "Lychener Straße",
    "amenity": "marketplace",
    "name": "Wochenmarkt Helmholtzplatz",
    "opening_hours": "Sa 09:00-16:00"
  }
},
{
  "type": "node",
  "id": 9746973688,
  "lat": 52.4606246,
  "lon": 13.5089750,
  "tags": {
    "addr:city": "Berlin",
    "addr:country": "DE",
    "addr:housenumber": "137",
    "addr:postcode": "12439",
    "addr:street": "Schnellerstraße",
    "addr:suburb": "Niederschöneweide",
    "amenity": "marketplace",
    "name": "Subaermarkt",
    "opening_hours": "Sa 12:00-18:00",
    "website": "https://reviersuedost.de/subaermarkt"
  }
},
{
  "type": "node",
  "id": 9752780986,
  "lat": 52.4943512,
  "lon": 13.3262265,
  "tags": {
    "addr:city": "Berlin",
    "addr:country": "DE",
    "addr:postcode": "10717",
    "addr:street": "Hohenzollernplatz",
    "addr:suburb": "Wilmersdorf",
    "amenity": "marketplace",
    "name": "Wochenmarkt am Hohenzollernplatz",
    "opening_hours": "We, Sa 08:00-13:00",
    "website": "https://www.wochenmarkt-deutschland.de/maerkte/berlin/hohenzollernplatz/"
  }
},
{
  "type": "node",
  "id": 9814251828,
  "lat": 52.4965172,
  "lon": 13.3543780,
  "tags": {
    "alt_name": "Winterfeldt-Markt",
    "amenity": "marketplace",
    "check_date:opening_hours": "2025-09-28",
    "description": "Market for fruits + vegetables + other goods",
    "name": "Winterfeldmarkt",
    "opening_hours": "We 08:00-14:00; Sa 08:00-16:00",
    "wheelchair": "yes"
  }
},
{
  "type": "node",
  "id": 10269877450,
  "lat": 52.5055497,
  "lon": 13.4429929,
  "tags": {
    "xmas:day_date": "2023 Nov 04 - 2023 Dec 30",
    "xmas:feature": "market",
    "xmas:fee": "no",
    "xmas:lastcheck": "2022-12-16",
    "xmas:name": "Glühwald am Mercedes Platz",
    "xmas:opening_hours": "We-Su 16:00-22:00",
    "xmas:url": "https://www.berlin.de/weihnachtsmarkt/7839542-3496862-gluehwald-am-mercedes-platz.html"
  }
},
{
  "type": "node",
  "id": 10584824405,
  "lat": 52.5320019,
  "lon": 13.3873400,
  "tags": {
    "addr:postcode": "10115",
    "addr:street": "Am Nordbahnhof",
    "amenity": "marketplace",
    "check_date": "2025-10-30",
    "contact:facebook": "https://facebook.com/pages/category/Shopping---Retail/%C3%96komarkt-am-Nordbahnhof-665171056853618/",
    "name": "Ökomarkt am Nordbahnhof",
    "name:de": "Ökomarkt am Nordbahnhof",
    "name:en": "Ökomarkt am Nordbahnhof",
    "opening_hours": "We 11:00-18:00",
    "wheelchair": "yes"
  }
},
{
  "type": "node",
  "id": 10615662349,
  "lat": 52.5074713,
  "lon": 13.3736934,
  "tags": {
    "addr:city": "Berlin",
    "addr:housenumber": "7",
    "addr:postcode": "10785",
    "addr:street": "Alte Potsdamer Straße",
    "air_conditioning": "yes",
    "alt_name": "Manifesto Market",
    "amenity": "food_court",
    "check_date": "2025-09-25",
    "contact:instagram": "https://www.instagram.com/manifestomarket.berlin",
    "diet:vegan": "yes",
    "diet:vegetarian": "yes",
    "indoor_seating": "yes",
    "name": "Manifesto",
    "opening_hours": "Mo-Th,Su 11:00-22:00; Fr-Sa 11:00-24:00",
    "outdoor_seating": "no",
    "payment:credit_cards": "yes",
    "payment:debit_cards": "yes",
    "smoking": "no",
    "website": "https://www.manifestomarket.com/berlin/potsdamer-platz/de/",
    "wheelchair": "yes"
  }
},
{
  "type": "node",
  "id": 10681640789,
  "lat": 52.4896901,
  "lon": 13.4065410,
  "tags": {
    "amenity": "marketplace",
    "name": "Ökomarkt am Südstern",
    "opening_hours": "Sa 10:00-16:00; PH off"
  }
},
{
  "type": "node",
  "id": 10922260039,
  "lat": 52.5183116,
  "lon": 13.4157397,
  "tags": {
    "amenity": "food_court",
    "indoor_seating": "yes",
    "level": "2",
    "outdoor_seating": "no",
    "smoking": "no"
  }
},
{
  "type": "node",
  "id": 11346915244,
  "lat": 52.5013472,
  "lon": 13.4494791,
  "tags": {
    "xmas:day_date": "18.11.-30.12.2024",
    "xmas:feature": "market",
    "xmas:fee": "yes",
    "xmas:name": "All inclusive Weihnachtsmarkt an der Spree",
    "xmas:note": "Am 24.12. und 25.12. ist der Markt geschlossen.",
    "xmas:opening_hours": "17:00-22:00",
    "xmas:url": "https://www.weihnachten-an-der-spree.de/"
  }
},
{
  "type": "node",
  "id": 11346915245,
  "lat": 52.5368767,
  "lon": 13.6043733,
  "tags": {
    "xmas:day_date": "25.11.-30.12.2024",
    "xmas:feature": "market",
    "xmas:fee": "no",
    "xmas:name": "Weihnachtsmarkt auf dem Alice-Salomon-Platz",
    "xmas:opening_hours": "11:00-22:00",
    "xmas:url": "https://www.berlin.de/weihnachtsmarkt/"
  }
},
{
  "type": "node",
  "id": 11360751136,
  "lat": 52.3899473,
  "lon": 13.4102303,
  "tags": {
    "xmas:day_date": "01.12.2024",
    "xmas:feature": "market",
    "xmas:fee": "no",
    "xmas:name": "Lichtenrader Lichtermarkt",
    "xmas:opening_hours": "13:00-19:00"
  }
},
{
  "type": "node",
  "id": 11539826178,
  "lat": 52.4115603,
  "lon": 13.3055070,
  "tags": {
    "amenity": "food_court",
    "name": "Mensa OSZ"
  }
},
{
  "type": "node",
  "id": 11583785338,
  "lat": 52.5117241,
  "lon": 13.4348277,
  "tags": {
    "amenity": "marketplace",
    "name": "Streetfood-Markt Berlin Ostbahnhof"
  }
},
{
  "type": "node",
  "id": 12052715292,
  "lat": 52.5874176,
  "lon": 13.3673925,
  "tags": {
    "addr:city": "Berlin",
    "addr:housenumber": "2",
    "addr:postcode": "13158",
    "addr:street": "Goethestraße",
    "amenity": "marketplace",
    "description": "Samstäglicher Wochenmarkt im Ortsteil Wilhelmsruh",
    "email": "info@wilhelmsmarkt.de",
    "name": "Wilhelmsmarkt",
    "opening_hours": "Sa 09:00-14:00",
    "operator": "mv-perske.de",
    "website": "https://wilhelmsmarkt.de/"
  }
},
{
  "type": "node",
  "id": 12108194132,
  "lat": 52.5268508,
  "lon": 13.3692747,
  "tags": {
    "amenity": "food_court",
    "indoor_seating": "no",
    "name": "Europacity Vibes",
    "outdoor_seating": "yes",
    "toilets:wheelchair": "no",
    "website": "https://www.europacity-vibes.de/",
    "wheelchair": "limited"
  }
},
{
  "type": "node",
  "id": 12321391255,
  "lat": 52.5114145,
  "lon": 13.4264691,
  "tags": {
    "xmas:day_date": "16.11.-22.12.2024",
    "xmas:feature": "market",
    "xmas:fee": "yes",
    "xmas:name": "Heissa Holzmarkt",
    "xmas:note": "Mittwoch und Donnerstag kostenlos, Freitag bis Sonntag 2 Euro",
    "xmas:opening_hours": "We-Fr 16:00-22:00; Sa-Su 14:00-22:00",
    "xmas:url": "https://www.berlin.de/weihnachtsmarkt/"
  }
},
{
  "type": "node",
  "id": 12321391256,
  "lat": 52.4646695,
  "lon": 13.4983429,
  "tags": {
    "xmas:day_date": "08.11.-29.12.2024",
    "xmas:feature": "market",
    "xmas:fee": "no",
    "xmas:name": "Köpenicker Wintertraum",
    "xmas:note": "25. und 26. Dezember von 13 bis 21 Uhr, geschlossen am 24. November und 24. Dezember",
    "xmas:opening_hours": "Mo-Th 14:00-22:00; Fr-Sa 14:00-23:00; Su,PH 12:00-21:00",
    "xmas:url": "https://www.berlin.de/weihnachtsmarkt/"
  }
},
{
  "type": "node",
  "id": 12356318726,
  "lat": 52.5486283,
  "lon": 13.4509978,
  "tags": {
    "amenity": "marketplace",
    "name": "Wochenmarkt Antonplatz",
    "opening_hours": "Tu,Fr 09:00-18:00; PH off",
    "wikidata": "Q100255612"
  }
},
{
  "type": "node",
  "id": 12465414559,
  "lat": 52.5198980,
  "lon": 13.3861517,
  "tags": {
    "xmas:feature": "market"
  }
},
{
  "type": "node",
  "id": 12802906550,
  "lat": 52.5099868,
  "lon": 13.3727933,
  "tags": {
    "addr:city": "Berlin",
    "addr:housenumber": "2",
    "addr:postcode": "10785",
    "addr:street": "Potsdamer Straße",
    "air_conditioning": "yes",
    "amenity": "food_court",
    "check_date": "2025-10-20",
    "indoor_seating": "yes",
    "name": "Kerb Food Hall",
    "opening_hours": "Mo-Th,Su 11:30-23:00; Fr-Sa 11:30-24:00",
    "outdoor_seating": "yes",
    "website": "https://kerbberlin.de/",
    "wheelchair": "limited"
  }
},
{
  "type": "node",
  "id": 12883051635,
  "lat": 52.4563196,
  "lon": 13.5104469,
  "tags": {
    "amenity": "marketplace",
    "name": "Wochenmarkt Schnellerstraße",
    "opening_hours": "Th 08:00-16:00",
    "website": "https://www.in-berlin-brandenburg.com/Einkaufen_Berlin/Wochenmaerkte/Treptow-Koepenick/"
  }
},
{
  "type": "node",
  "id": 13070569568,
  "lat": 52.4956143,
  "lon": 13.4213548,
  "tags": {
    "amenity": "marketplace",
    "check_date": "2025-07-01",
    "name": "Open Air Market",
    "opening_hours": "Tu,Fr 11:00-18:00"
  }
},
{
  "type": "node",
  "id": 13122936382,
  "lat": 52.4825781,
  "lon": 13.5260097,
  "tags": {
    "addr:street": "Odesaplatz",
    "amenity": "marketplace",
    "name": "Wochenmarkt Karlshorst",
    "opening_hours": "Tu+Fr 8:00-17-00",
    "wikidata": "Q136115490"
  }
},
{
  "type": "node",
  "id": 13167675338,
  "lat": 52.4520235,
  "lon": 13.5708626,
  "tags": {
    "addr:city": "Berlin",
    "addr:housenumber": "2-4",
    "addr:postcode": "12555",
    "addr:street": "Lindenstraße",
    "amenity": "marketplace",
    "description": "Über Marktschwärmer lokale Produkte direkt von regionalen ErzeugerInnen bestellen und diese wöchentlich am Markttag mittwochs von 17-18:30Uhr abholen.",
    "email": "ms.koepenick@haferzeit.de",
    "mobile": "+49 172 514 41 64",
    "name": "Marktschwärmer Köpenick",
    "opening_hours": "Wed 17:00-18:30",
    "operator": "Anna-Sophie",
    "organic": "yes",
    "origin": "regional",
    "stroller": "yes",
    "website": "https://marktschwaermer.de/de-DE/assemblies/10997",
    "wheelchair": "yes",
    "zero_waste": "yes"
  }
},
{
  "type": "node",
  "id": 13179898661,
  "lat": 52.4311793,
  "lon": 13.5351548,
  "tags": {
    "addr:city": "Berlin",
    "addr:housenumber": "1",
    "addr:postcode": "12489",
    "addr:street": "Volmerstraße",
    "amenity": "marketplace",
    "building": "marktstand",
    "description": "Über Marktschwärmer lokale Produkte direkt von regionalen ErzeugerInnen bestellen und diese wöchentlich am Markttag donnerstags von 17:00-18:00Uhr abholen.",
    "email": "ms.koepenick@haferzeit.de",
    "mobile": "+49 172 514 41 64",
    "name": "Marktschwärmer Adlershof",
    "opening_hours": "Thu 17:00-18:00",
    "operator": "Anna-Sophie",
    "website": "https://marktschwaermer.de/de-DE/assemblies/11998"
  }
},
{
  "type": "node",
  "id": 13179902626,
  "lat": 52.4437130,
  "lon": 13.5019088,
  "tags": {
    "addr:city": "Berlin",
    "addr:housenumber": "102",
    "addr:postcode": "12487",
    "addr:street": "Sterndamm",
    "amenity": "marketplace",
    "description": "Über Marktschwärmer lokale Produkte direkt von regionalen ErzeugerInnen bestellen und diese wöchentlich am Markttag donnertags von 18:30-19:30Uhr abholen.",
    "email": "ms.koepenick@haferzeit.de",
    "mobile": "+49 172 514 41 64",
    "name": "Marktschwärmer Johannisthal",
    "opening_hours": "Thu 18:30-19:30",
    "operator": "Anna-Sophie",
    "website": "https://marktschwaermer.de/de-DE/assemblies/14010"
  }
},
{
  "type": "node",
  "id": 13179918778,
  "lat": 52.4753233,
  "lon": 13.5224310,
  "tags": {
    "addr:city": "Berlin",
    "addr:housenumber": "159",
    "addr:postcode": "10318",
    "addr:street": "Treskowallee",
    "amenity": "marketplace",
    "building": "marktstand",
    "description": "Über Marktschwärmer lokale Produkte direkt von regionalen ErzeugerInnen bestellen und diese wöchentlich am Markttag mittwochs von 17:00-18:00Uhr abholen.",
    "email": "ms.koepenick@haferzeit.de",
    "mobile": "+49 172 514 41 64",
    "name": "Marktschwärmer Karlshorst",
    "opening_hours": "Wed 17:00-18:00",
    "operator": "Anna-Sophie",
    "website": "https://marktschwaermer.de/de-DE/assemblies/13129"
  }
},
{
  "type": "node",
  "id": 13180097733,
  "lat": 52.4938626,
  "lon": 13.4294386,
  "tags": {
    "addr:city": "Berlin",
    "addr:housenumber": "21",
    "addr:postcode": "10999",
    "addr:street": "Paul-Lincke-Ufer",
    "amenity": "marketplace",
    "description": "Über Marktschwärmer lokale Produkte direkt von regionalen ErzeugerInnen bestellen und diese wöchentlich am Markttag dienstags von 18:30-19:30Uhr abholen.",
    "name": "Marktschwärmer Kreuzberg - Paul-Lincke-Ufer",
    "opening_hours": "Tue 18:30-19:30",
    "website": "https://marktschwaermer.de/de-DE/assemblies/12660"
  }
},
{
  "type": "node",
  "id": 13235528875,
  "lat": 52.4795552,
  "lon": 13.4382367,
  "tags": {
    "addr:city": "Berlin",
    "addr:housenumber": "101",
    "addr:postcode": "12043",
    "addr:street": "Karl-Marx-Straße",
    "amenity": "food_court",
    "name": "Kalle Halle",
    "opening_hours": "Mo-Sa 12:00-22:00",
    "website": "https://kallehalle.com"
  }
},
{
  "type": "node",
  "id": 13288105688,
  "lat": 52.5019604,
  "lon": 13.3423830,
  "tags": {
    "fixme": "Position geschätzt",
    "xmas:day_date": "24.11.2025 - 01.01.2026",
    "xmas:feature": "market",
    "xmas:location": "Wittenbergplatz",
    "xmas:name": "Weihnachtsmarkt am KaDeWe",
    "xmas:note": "Heiligabend von 11 bis 15 Uhr, Silvester von 11 bis 3 Uhr",
    "xmas:opening_hours": "Mo-Su 11:00-21:00; Fr,Sa 11:00-22:00",
    "xmas:url": "https://www.berlin.de/weihnachtsmarkt/"
  }
},
{
  "type": "way",
  "id": 4703544,
  "center": {
    "lat": 52.5278314,
    "lon": 13.3385920
  },
  "nodes": [
    1211885854,
    2514807527,
    1211885869,
    5768996409,
    5768996410,
    1211885853,
    1211885861,
    5768996408,
    5768996407,
    1211885850,
    3126152834,
    1211885858,
    5768996405,
    5768996406,
    1211885865,
    1211885852,
    5768996309,
    5768996308,
    29927225,
    1211885860,
    1211885851,
    12954606671,
    29927227,
    3126152835,
    29927229,
    988558215,
    1211885854
  ],
  "tags": {
    "addr:city": "Berlin",
    "addr:country": "DE",
    "addr:housenumber": "2-4",
    "addr:postcode": "10551",
    "addr:street": "Arminiusstraße",
    "addr:suburb": "Moabit",
    "amenity": "marketplace",
    "architect": "Hermann Blankenstein",
    "building": "retail",
    "building:colour": "#b38563",
    "building:levels": "2",
    "building:material": "brick",
    "check_date:opening_hours": "2024-10-19",
    "heritage": "4",
    "heritage:operator": "lda",
    "internet_access": "wlan",
    "internet_access:fee": "no",
    "internet_access:password": "cryptoparty",
    "internet_access:ssid": "in-berlin.de-guest",
    "name": "Arminiusmarkthalle",
    "old_name": "Moabiter Markthalle",
    "opening_hours": "Mo-Sa 08:00-22:00; Su,PH off",
    "operator": "Zunft[orte] AG",
    "operator:type": "business",
    "ref:lda": "09050252",
    "roof:colour": "#a3a9a6",
    "roof:levels": "0",
    "roof:shape": "many",
    "short_name": "Arminiushalle",
    "start_date": "1891",
    "website": "https://arminiusmarkthalle.com/",
    "wheelchair": "limited",
    "wikidata": "Q32654564",
    "wikimedia_commons": "Category:Markthalle X (Berlin), Moabiter Markthalle",
    "wikipedia": "de:Moabiter Markthalle",
    "year_of_construction": "1890..1891"
  }
},
{
  "type": "way",
  "id": 5117336,
  "center": {
    "lat": 52.5371417,
    "lon": 13.2044727
  },
  "nodes": [
    35234990,
    35234991,
    2888472501,
    2888470305,
    35234992,
    2888470306,
    2888470106,
    2888472502,
    35234990
  ],
  "tags": {
    "amenity": "marketplace",
    "name": "Wochenmarkt Altstadt Spandau",
    "wheelchair": "yes"
  }
},
{
  "type": "way",
  "id": 27339933,
  "center": {
    "lat": 52.4721061,
    "lon": 13.3355510
  },
  "nodes": [
    3993207683,
    300129031,
    4728082997,
    10200250886,
    10268589249,
    13232676587,
    13232676582,
    10268589250,
    300129040,
    3993206038,
    11382609174,
    3993206370,
    3993206039,
    11382609175,
    3993206040,
    11382609176,
    3993206041,
    11382609177,
    3993207684,
    3993206044,
    10073748533,
    3993206051,
    3993207683
  ],
  "tags": {
    "amenity": "marketplace",
    "name": "Wochenmarkt Breslauer Platz",
    "opening_hours": "We,Sa 08:00-13:00; Th 12:00-17:00",
    "wheelchair": "yes"
  }
},
{
  "type": "way",
  "id": 87421532,
  "center": {
    "lat": 52.5251717,
    "lon": 13.3043083
  },
  "nodes": [
    1016547387,
    1016547596,
    1016547666,
    1016547715,
    1016547387
  ],
  "tags": {
    "amenity": "marketplace",
    "name": "Städtischer Wochenmarkt Mierendorffplatz",
    "opening_hours": "We, Sa 06:00-15:00"
  }
},
{
  "type": "way",
  "id": 87717860,
  "center": {
    "lat": 52.4883166,
    "lon": 13.2946325
  },
  "nodes": [
    1020041935,
    1020041956,
    1020041963,
    1020041983,
    1020041935
  ],
  "tags": {
    "amenity": "marketplace",
    "opening_hours": "Mo,Th 09:00-14:00",
    "website": "https://www.berlin.de/ba-charlottenburg-wilmersdorf/verwaltung/aemter/ordnung/wochenmaerkte/"
  }
},
{
  "type": "way",
  "id": 98887610,
  "center": {
    "lat": 52.4732032,
    "lon": 13.3113316
  },
  "nodes": [
    1144005159,
    12592963676,
    12592963675,
    12592963674,
    7405870608,
    1144005161,
    11154761327,
    11154761392,
    11154761391,
    11154761390,
    11154761389,
    11154761360,
    11154761388,
    11154761387,
    11154761386,
    7405870609,
    7405870610,
    7405870611,
    11154761394,
    11154761404,
    11154761403,
    11154761359,
    11154761402,
    11154761401,
    7405870612,
    11154761400,
    11154761397,
    1144005171,
    1144005164,
    12592985997,
    11154761367,
    12592985996,
    12592985995,
    11154761383,
    7405870615,
    11154761380,
    12592985994,
    12592985993,
    11154761368,
    12592985992,
    12592985991,
    12592985990,
    7405870614,
    7405870613,
    1144005159
  ],
  "tags": {
    "amenity": "marketplace",
    "name": "Wochenmarkt Eberbacher Straße / Rüdesheimer Platz",
    "opening_hours": "Tu,Fr 08:00-13:00"
  }
},
{
  "type": "way",
  "id": 122870554,
  "center": {
    "lat": 52.4908428,
    "lon": 13.3656444
  },
  "nodes": [
    1093865053,
    6434750953,
    10135667304,
    6434750951,
    10135667273,
    6434750950,
    13197753531,
    6434750948,
    13197753530,
    1371632557,
    6434750956,
    6673527142,
    1371632608,
    6434750955,
    10135667302,
    4718559780,
    1093865053
  ],
  "tags": {
    "amenity": "marketplace",
    "check_date:opening_hours": "2024-02-11",
    "name": "Crellemarkt",
    "note": "Gemüse, Obst, Kleidung, Stoffe, Käse, Fleisch, Fisch",
    "opening_hours": "We 06:00-15:00; Sa 06:00-15:00",
    "wheelchair": "yes"
  }
},
{
  "type": "way",
  "id": 125668405,
  "center": {
    "lat": 52.4882230,
    "lon": 13.4975874
  },
  "nodes": [
    1395209200,
    1395209202,
    1395209188,
    1395209181,
    1395209166,
    1395209156,
    1395209158,
    1395209164,
    1395209172,
    1395209169,
    1395209184,
    1395209186,
    1395209190,
    1395209196,
    1395209194,
    1395209198,
    1395209203,
    1395209215,
    1395209200
  ],
  "tags": {
    "access": "private",
    "air_conditioning": "no",
    "amenity": "food_court",
    "building": "retail",
    "indoor_seating": "yes",
    "name": "Kantine",
    "outdoor_seating": "yes",
    "smoking": "no"
  }
},
{
  "type": "way",
  "id": 179019726,
  "center": {
    "lat": 52.4892913,
    "lon": 13.3946855
  },
  "nodes": [
    88453801,
    10814217772,
    6123731664,
    88453802,
    6123731650,
    88453803,
    6123731660,
    6123731655,
    6123731663,
    6123731667,
    6123731670,
    88453804,
    6123731656,
    88453801
  ],
  "tags": {
    "addr:city": "Berlin",
    "addr:country": "DE",
    "addr:housenumber": "15",
    "addr:postcode": "10961",
    "addr:street": "Marheinekeplatz",
    "addr:suburb": "Kreuzberg",
    "amenity": "marketplace",
    "building": "retail",
    "building:levels": "2",
    "check_date:opening_hours": "2025-05-19",
    "name": "Marheineke Markthalle",
    "opening_hours": "Mo-Fr 08:00-20:00; Sa 08:00-18:00",
    "phone": "+49 30 61286146",
    "shop": "mall",
    "toilets": "yes",
    "toilets:wheelchair": "yes",
    "website": "https://meine-markthalle.de/",
    "wheelchair": "yes",
    "wikipedia": "de:Markthalle XI"
  }
},
{
  "type": "way",
  "id": 350330222,
  "center": {
    "lat": 52.5136686,
    "lon": 13.3334234
  },
  "nodes": [
    3560840367,
    3560840368,
    3560840369,
    3560840370,
    3560840371,
    5202394858,
    5202394857,
    3804754260,
    3804752755,
    3560840367
  ],
  "tags": {
    "amenity": "marketplace",
    "check_date:opening_hours": "2023-02-02",
    "email": "wewerka_maerkte.gmbH@t-online.de",
    "name": "Der Original Berliner Trödelmarkt",
    "opening_hours": "Sa,Su 07:00-19:00",
    "operator": "Wewerka Märkte GmbH",
    "phone": "+49 152 53534328",
    "reservation": "required",
    "reservation:phone": "+49 30 26550096",
    "start_date": "1978",
    "website": "http://berlinertroedelmarkt.com/",
    "wheelchair": "yes"
  }
},
{
  "type": "way",
  "id": 403084932,
  "center": {
    "lat": 52.5245984,
    "lon": 13.3690304
  },
  "nodes": [
    4054598142,
    4054652482,
    4070598669,
    4294780869,
    4070598668,
    4070598670,
    4054652483,
    4054598147,
    4058686558,
    4054598149,
    4054598146,
    4054598144,
    4054598142
  ],
  "tags": {
    "access": "customers",
    "amenity": "food_court",
    "check_date": "2025-06-01",
    "check_date:diet:vegetarian": "2025-06-01",
    "check_date:opening_hours": "2025-06-01",
    "diet:vegetarian": "yes",
    "fixme": "Detailed mapping required",
    "indoor": "room",
    "indoor_seating": "yes",
    "level": "0",
    "name": "Station Food",
    "name:ja": "フードコート",
    "opening_hours:signed": "no",
    "outdoor_seating": "no",
    "payment:credit_cards": "yes",
    "payment:debit_cards": "yes",
    "room": "restaurant",
    "website": "https://www.einkaufsbahnhof.de/berlin-hauptbahnhof/"
  }
},
{
  "type": "way",
  "id": 416897321,
  "center": {
    "lat": 52.4772424,
    "lon": 13.2910679
  },
  "nodes": [
    4175781263,
    4175781262,
    4175781265,
    4175781264,
    4175781263
  ],
  "tags": {
    "amenity": "marketplace",
    "name": "Wochenmarkt Kolberger Platz",
    "opening_hours": "We 6:00-15:00, Sa 6:00-15:00"
  }
},
{
  "type": "way",
  "id": 505312521,
  "center": {
    "lat": 52.5555009,
    "lon": 13.4857204
  },
  "nodes": [
    4952799083,
    582458512,
    582458510,
    4515928519,
    4952822420,
    7592958661,
    4515928520,
    4952822419,
    4952822418,
    4952822417,
    597378962,
    5608711520,
    5608711721,
    4952799084,
    597378961,
    5064533124,
    597378964,
    4952799083
  ],
  "tags": {
    "addr:housenumber": "188",
    "addr:postcode": "13088",
    "addr:street": "Hansastraße",
    "amenity": "marketplace",
    "email": "info@hansamarkt.de",
    "landuse": "retail",
    "name": "HansaMarkt - Trödelmarkt Weißensee",
    "opening_hours": "Su 09:00-16:00",
    "phone": "+49 171 9206479",
    "website": "https://www.hansamarkt.de/"
  }
},
{
  "type": "way",
  "id": 521302374,
  "center": {
    "lat": 52.5215400,
    "lon": 13.3931865
  },
  "nodes": [
    5079386141,
    5079386142,
    5079386143,
    5079386144,
    5079386145,
    5079386146,
    5079386147,
    5079386148,
    5079386149,
    5079386141
  ],
  "tags": {
    "amenity": "marketplace",
    "check_date:opening_hours": "2022-10-23",
    "email": "kontakt@antik-buchmarkt.de",
    "name": "Antik & Buchmarkt am Bodemuseum",
    "opening_hours": "Sa-Su,PH 11:00-17:00",
    "phone": "+491717101662",
    "second_hand": "yes",
    "website": "http://antik-buchmarkt.de/"
  }
},
{
  "type": "way",
  "id": 637881603,
  "center": {
    "lat": 52.4455878,
    "lon": 13.4514266
  },
  "nodes": [
    7787335203,
    7787335205,
    6012809883,
    1831183797,
    7787335207,
    7787262048,
    1831183792,
    6012809882,
    7787335272,
    7787335271,
    7787335270,
    7787335269,
    7787335268,
    7787335267,
    7787335266,
    7787335265,
    7787335264,
    7787335252,
    7787335251,
    7787335263,
    7787335262,
    7787335261,
    7787335260,
    7787335259,
    7787335258,
    7787335257,
    7787335256,
    7787335255,
    7787335254,
    7787335275,
    7787262047,
    7787262046,
    7787262045,
    7787335223,
    7787335224,
    7787335225,
    7787335226,
    7787335227,
    7787335228,
    7787335229,
    7787335230,
    7787335231,
    7787335232,
    7787335233,
    7787335234,
    7787335235,
    7787335236,
    7787335237,
    7787335238,
    7787335239,
    7787335240,
    7787335241,
    7787335242,
    7787335243,
    7787335245,
    7787335246,
    7787335247,
    7787335248,
    7787262060,
    7787262057,
    7787335208,
    7787335209,
    7787335210,
    7787335211,
    7787262062,
    7787262061,
    7787262063,
    7787262064,
    7787262065,
    7787335212,
    7787262066,
    7787262067,
    7787262071,
    7787262070,
    7787262069,
    7787262068,
    7787262074,
    7787262075,
    7787262073,
    7787262072,
    7787262077,
    7787262076,
    7787335213,
    7787262078,
    7787262079,
    7787335214,
    7787262080,
    7787335215,
    7787335216,
    7787335217,
    7787335218,
    7787262049,
    7787335204,
    7787262081,
    7787262082,
    7787262083,
    7787262084,
    7787335185,
    7787335186,
    7787335187,
    7787335188,
    7787335189,
    7787335190,
    7787335191,
    7787335192,
    7787335193,
    7787335194,
    7787335195,
    7787335196,
    7787335197,
    7787335198,
    7787335199,
    7787335200,
    7787335201,
    7787335202,
    7787335203
  ],
  "tags": {
    "amenity": "marketplace",
    "check_date:opening_hours": "2025-04-26",
    "contact:email": "info@diemarktplaner.de",
    "name": "Wochenmarkt Parchimer Allee",
    "opening_hours": "Fr 10:00-18:00",
    "operator": "diemarktplaner",
    "website": "https://www.diemarktplaner.de/parchimer-allee/",
    "wheelchair": "yes"
  }
},
{
  "type": "way",
  "id": 697245283,
  "center": {
    "lat": 52.4386066,
    "lon": 13.2168120
  },
  "nodes": [
    6548594037,
    6548594038,
    6548594039,
    6548594040,
    6548594037
  ],
  "tags": {
    "amenity": "marketplace",
    "name": "Markt Schlachtensee",
    "opening_hours": "Tu,Fr 08:00-14:00",
    "website": "https://www.marktschlachtensee.de/"
  }
},
{
  "type": "way",
  "id": 809290344,
  "center": {
    "lat": 52.4789732,
    "lon": 13.3285446
  },
  "nodes": [
    7567139485,
    7567139486,
    7567139487,
    7567139488,
    7567139485
  ],
  "tags": {
    "amenity": "marketplace",
    "name": "Wochenmarkt Bundesplatz",
    "opening_hours": "Mo,Th 08:00-13:00",
    "wheelchair": "yes"
  }
},
{
  "type": "way",
  "id": 989250268,
  "center": {
    "lat": 52.6328020,
    "lon": 13.2903170
  },
  "nodes": [
    4938874791,
    13233207690,
    13233207692,
    1989343310,
    12670144030,
    12670144031,
    1562510788,
    1562510824,
    9143400329,
    631750750,
    631750749,
    4938874791
  ],
  "tags": {
    "amenity": "marketplace",
    "check_date:opening_hours": "2024-04-07",
    "name": "Wochenmarkt Frohnau",
    "opening_hours": "Th-Sa 08:00-13:00",
    "organic": "yes",
    "wheelchair": "yes"
  }
},
{
  "type": "way",
  "id": 991853654,
  "center": {
    "lat": 52.5413503,
    "lon": 13.4023120
  },
  "nodes": [
    10021304100,
    1862820839,
    3675552938,
    12253101561,
    12253101560,
    3675552936,
    10021304098,
    10021304100
  ],
  "tags": {
    "amenity": "marketplace",
    "check_date": "2023-11-11",
    "check_date:opening_hours": "2023-10-22",
    "internet_access": "no",
    "name": "Flohmarkt am Mauerpark",
    "opening_hours": "Su 09:00-17:00",
    "website": "http://www.flohmarktimmauerpark.de",
    "wheelchair": "yes"
  }
},
{
  "type": "way",
  "id": 998173477,
  "center": {
    "lat": 52.4823458,
    "lon": 13.5263451
  },
  "nodes": [
    7713003244,
    10008405893,
    7713003243,
    9216469039,
    9216469038,
    9216469037,
    9216469036,
    9216469035,
    9555746182,
    5471235377,
    5471235378,
    5471235379,
    2886086075,
    5471235380,
    5471235381,
    5471235382,
    9555746181,
    9987302220,
    9987302222,
    9555746180,
    7713003244
  ],
  "tags": {
    "amenity": "marketplace",
    "name:signed": "no",
    "opening_hours": "Tu,Fr 09:00-17:00",
    "wheelchair": "yes"
  }
},
{
  "type": "way",
  "id": 1069367699,
  "center": {
    "lat": 52.4442265,
    "lon": 13.3855448
  },
  "nodes": [
    9815364425,
    9815364426,
    1209218392,
    1209218391,
    1209218394,
    9815364427,
    9815364425
  ],
  "tags": {
    "amenity": "marketplace",
    "name": "Wochenmarkt Mariendorf",
    "opening_hours": "We,Sa 08:00-13:00"
  }
},
{
  "type": "way",
  "id": 1222509276,
  "center": {
    "lat": 52.5083610,
    "lon": 13.3103879
  },
  "nodes": [
    11338507092,
    11338507093,
    11338507094,
    11338507095,
    11338507096,
    11338507097,
    11338507098,
    11338507099,
    11338507100,
    11338507101,
    11338507102,
    11338507092
  ],
  "tags": {
    "amenity": "marketplace",
    "name": "Wochenmarkt Karl-August.Platz",
    "opening_hours": "We 08:00-13:00; Sa 08:00-14:00"
  }
},
{
  "type": "way",
  "id": 1305094315,
  "center": {
    "lat": 52.5291385,
    "lon": 13.4709366
  },
  "nodes": [
    12087618124,
    12087618125,
    12087618126,
    12087618127,
    12087618128,
    12087618124
  ],
  "tags": {
    "amenity": "marketplace",
    "name": "Wochenmarkt auf dem Anton- Saefkow-Platz",
    "opening_hours": "Tu,Th 09:00-18:00",
    "operator": "J. Rückert"
  }
},
{
  "type": "way",
  "id": 1305095965,
  "center": {
    "lat": 52.5269675,
    "lon": 13.4803354
  },
  "nodes": [
    12087628026,
    12087628027,
    12087628028,
    12087628029,
    12087628026
  ],
  "tags": {
    "amenity": "marketplace",
    "name": "Wochenmarkt Roederplatz",
    "opening_hours": "tu, fr 8:00-17:00"
  }
},
{
  "type": "way",
  "id": 1410373902,
  "center": {
    "lat": 52.5275381,
    "lon": 13.3441202
  },
  "nodes": [
    12959537679,
    12959537678,
    12959537677,
    12959537676,
    12959537675,
    12959537679
  ],
  "tags": {
    "air_conditioning": "yes",
    "amenity": "food_court",
    "check_date": "2025-10-28",
    "indoor": "area",
    "indoor_seating": "yes",
    "level": "0",
    "name": "Moa Bistro",
    "outdoor_seating": "no",
    "wheelchair": "yes"
  }
},
{
  "type": "way",
  "id": 1442674049,
  "center": {
    "lat": 52.4663741,
    "lon": 13.2561621
  },
  "nodes": [
    13237617577,
    13237617578,
    13237617579,
    13237617580,
    13237617581,
    13237617582,
    13237617583,
    13237617584,
    13237617585,
    13237617586,
    13237617587,
    13237617588,
    13237617589,
    13237617590,
    13237617591,
    13237617592,
    13237617593,
    13237617594,
    13237617595,
    13237617596,
    13237617597,
    13237617598,
    13237617599,
    13237617600,
    13237617577
  ],
  "tags": {
    "amenity": "food_court",
    "building": "yes"
  }
},
{
  "type": "relation",
  "id": 5836853,
  "center": {
    "lat": 52.5108149,
    "lon": 13.4597041
  },
  "members": [
    {
      "type": "way",
      "ref": 237788251,
      "role": "outer"
    },
    {
      "type": "way",
      "ref": 237779131,
      "role": "inner"
    },
    {
      "type": "node",
      "ref": 11054531199,
      "role": "member"
    }
  ],
  "tags": {
    "addr:city": "Berlin",
    "addr:postcode": "10245",
    "amenity": "marketplace",
    "check_date:opening_hours": "2022-08-10",
    "name": "Wochenmarkt Boxhagener Platz",
    "opening_hours": "Sa 09:00-15:30",
    "type": "multipolygon",
    "website": "http://boxhagenerplatz.org/",
    "wheelchair": "yes"
  }
},
{
  "type": "relation",
  "id": 9503840,
  "center": {
    "lat": 52.5021685,
    "lon": 13.4314938
  },
  "members": [
    {
      "type": "way",
      "ref": 37465046,
      "role": "outer"
    },
    {
      "type": "way",
      "ref": 684979753,
      "role": "inner"
    },
    {
      "type": "way",
      "ref": 684979754,
      "role": "inner"
    },
    {
      "type": "way",
      "ref": 684979752,
      "role": "inner"
    },
    {
      "type": "way",
      "ref": 684979751,
      "role": "inner"
    }
  ],
  "tags": {
    "addr:city": "Berlin",
    "addr:country": "DE",
    "addr:housenumber": "42-43",
    "addr:postcode": "10997",
    "addr:street": "Eisenbahnstraße",
    "addr:suburb": "Kreuzberg",
    "alt_name": "Eisenbahnhalle",
    "amenity": "marketplace",
    "architect": "Hermann Blankenstein;August Lindemann",
    "building": "retail",
    "name": "Markthalle Neun",
    "name:ko": "목요일마나 플리마켓 열림",
    "old_name": "Markthalle IX",
    "start_date": "1891",
    "type": "multipolygon",
    "website": "https://markthalleneun.de/",
    "wheelchair": "limited",
    "wikidata": "Q1226563",
    "wikipedia": "de:Markthalle IX"
  }
}

  ]
}