id,source,landuse,accepted_recycling_items,not_accepted_recycling_items,longitude,latitude,name,name_metadata,entity_type,full_address,contact_combined,website_combined,access_restriction,wheelchair_access,physical_obstacles,environmental_features,floor_level,unit_count,accessibility_features,availability_info,is_operational,geometry,district,neighborhood,neighborhood_id,district_id
26867409,,,['glass_bottles'],,13.296828,52.5013289,Berlin Recycling,['operator: Berlin Recycling'],,"Damaschkestraße, 10711 Berlin",,,,,,,,,,,,POINT (13.296828 52.5013289),Charlottenburg-Wilmersdorf,Charlottenburg,0401,11004004
254985049,,,['clothes'],,13.3205366,52.4839968,,,,"Uhlandstraße, 10715 Berlin",,,,,,,,,,,,POINT (13.3205366 52.4839968),Charlottenburg-Wilmersdorf,Wilmersdorf,0402,11004004
262212828,,,['glass_bottles'],,13.4856806,52.5190209,,,,"Rutnikstraße, 10367 Berlin",,,,,,,,,,,,POINT (13.4856806 52.5190209),Lichtenberg,Lichtenberg,1103,11011011
267093410,,,['glass_bottles'],,13.5928941,52.5084566,,,,"Münsterberger Weg, 12621 Berlin",,,,,,,,,,,,POINT (13.5928941 52.5084566),Marzahn-Hellersdorf,Kaulsdorf,1003,11010010
272619379,survey,,['glass_bottles'],,13.4556341,52.5218288,,,,"Thaerstraße, 10249 Berlin",,,,,,,,,,,,POINT (13.4556341 52.5218288),Friedrichshain-Kreuzberg,Friedrichshain,0201,11002002
272619880,,,['glass_bottles'],,13.4535179,52.5258487,,,,"Hausburgstraße, 10249 Berlin",,,,,,,,,,,,POINT (13.4535179 52.5258487),Friedrichshain-Kreuzberg,Friedrichshain,0201,11002002
273174898,,,['glass_bottles'],,13.2984812,52.4576525,Rhenus,['operator: Rhenus'],,"Arnimallee, 14195 Berlin",,,,,,,,,,,,POINT (13.2984812 52.4576525),Steglitz-Zehlendorf,Dahlem,0605,11006006
280752631,,,['glass_bottles'],,13.5763842,52.553359,,,,"Grumsiner Straße, 12679 Berlin",,,,,,,,,,,,POINT (13.5763842 52.553359),Marzahn-Hellersdorf,Marzahn,1001,11010010
280938557,,,['glass_bottles'],,13.4794521,52.5263492,,,,"Möllendorffstraße, 10367 Berlin",,,,,,,,,,,,POINT (13.4794521 52.5263492),Lichtenberg,Fennpfuhl,1111,11011011
281962480,,,['glass_bottles'],,13.4516945,52.5473847,,,,"Bizetstraße, 13088 Berlin",,,,,,,,,,,,POINT (13.4516945 52.5473847),Pankow,Weißensee,0302,11003003
288739735,,,,,13.4506654,52.4493276,,,,"Hanne Nüte, 12359 Berlin",,,residents,,,,,,Access restricted (residents),,,POINT (13.4506654 52.4493276),Neukölln,Britz,0802,11008008
288740249,,,['glass_bottles'],,13.1931677,52.5245255,,,,"Wilhelmstraße, 13595 Berlin",,,,,,,,,,,,POINT (13.1931677 52.5245255),Spandau,Wilhelmstadt,0509,11005005
290659186,,,['glass_bottles'],['glass'],13.4760484,52.6157261,,,,"Busonistraße, 13125 Berlin",,,,,,,,,,,,POINT (13.4760484 52.6157261),Pankow,Karow,0305,11003003
290659525,,,['glass_bottles'],,13.4796049,52.6126468,,,,"Lanker Straße, 13125 Berlin",,,,,,,,,,,,POINT (13.4796049 52.6126468),Pankow,Karow,0305,11003003
292745926,,,['glass_bottles'],,13.4854219,52.616056,,,,"Schönerlinder Weg, 13125 Berlin",,,,,,,,,,,,POINT (13.4854219 52.616056),Pankow,Karow,0305,11003003
292935637,,,['glass_bottles'],,13.4203789,52.4915304,Karl Meyer Rohstoffverwertung,['operator: Karl Meyer Rohstoffverwertung'],,"Schönleinstraße, 10967 Berlin",,,,,,,,,,,,POINT (13.4203789 52.4915304),Friedrichshain-Kreuzberg,Kreuzberg,0202,11002002
294793374,,,['glass_bottles'],,13.2027164,52.5237931,,,,"Krowelstraße, 13581 Berlin",,,,,,,,,,,,POINT (13.2027164 52.5237931),Spandau,Wilhelmstadt,0509,11005005
302764895,,,['glass_bottles'],,13.6142969,52.5098752,,,,"Pestalozzistraße, 12623 Berlin",,,,,,,,,,,,POINT (13.6142969 52.5098752),Marzahn-Hellersdorf,Mahlsdorf,1004,11010010
304367352,,,['glass_bottles'],,13.1916504,52.5363044,,,,"Seegefelder Straße, 13583 Berlin",,,,,,,,,,,,POINT (13.1916504 52.5363044),Spandau,Spandau,0501,11005005
304367369,,,['clothes'],,13.1435989,52.5457802,,,,"Finkenkruger Weg, 13591 Berlin",,,,,,,,,,,,POINT (13.1435989 52.5457802),Spandau,Staaken,0504,11005005
305943442,aerowest,,['glass_bottles'],,13.3147389,52.5255155,Rhenus,['operator: Rhenus'],,"Goslarer Ufer, 10589 Berlin",,,,,,,,,,,,POINT (13.3147389 52.5255155),Charlottenburg-Wilmersdorf,Charlottenburg,0401,11004004
306456511,"bezirksamt charlottenburg-wilmersdorf von berlin, umweltamt",,['glass_bottles'],,13.3038217,52.5037785,Karl Meyer Rohstoffverwertung,['operator: Karl Meyer Rohstoffverwertung'],,"Gervinusstraße, 10629 Berlin",,,,,,,,,,,,POINT (13.3038217 52.5037785),Charlottenburg-Wilmersdorf,Charlottenburg,0401,11004004
309364526,,,['glass_bottles'],,13.3285005,52.4948,Karl Meyer Rohstoffverwertung,['operator: Karl Meyer Rohstoffverwertung'],,"Hohenzollerndamm, 10717 Berlin",,,,,,,,,,,,POINT (13.3285005 52.4948),Charlottenburg-Wilmersdorf,Wilmersdorf,0402,11004004
309847736,,,['glass_bottles'],,13.2957832,52.4921591,Karl Meyer Rohstoffverwertung,['operator: Karl Meyer Rohstoffverwertung'],,Paulsborner Str. 70 ggü. Nr. 27 Ecke Seesener Str.,,,,,,,,,,,,POINT (13.2957832 52.4921591),Charlottenburg-Wilmersdorf,Halensee,0407,11004004
310440153,,,"['glass_bottles', 'shoes']",,13.5852924,52.3949142,,,,"Schulzendorfer Straße, 12526 Berlin",,,,,,,,,,,,POINT (13.5852924 52.3949142),Treptow-Köpenick,Bohnsdorf,0908,11009009
311090440,,,['glass_bottles'],,13.3051351,52.4970444,Rhenus,['operator: Rhenus'],,Eisenzahnstr. Ecke Paulsborner Str.,,,,,,,,,,,,POINT (13.3051351 52.4970444),Charlottenburg-Wilmersdorf,Wilmersdorf,0402,11004004
311090625,,,['glass_bottles'],,13.308249,52.4953753,Rhenus,['operator: Rhenus'],,Ballenstedter Str. 2 Ecke Brandenburgische Str.,,,,,,,,,,,,POINT (13.308249 52.4953753),Charlottenburg-Wilmersdorf,Wilmersdorf,0402,11004004
311255499,,,['glass_bottles'],,13.3179542,52.5258812,,,,"Kaiserin-Augusta-Allee, 10553 Berlin",,,,,,,,,,,,POINT (13.3179542 52.5258812),Mitte,Moabit,0102,11001001
312385354,,,['glass_bottles'],,13.31579,52.4993759,Karl Meyer Rohstoffverwertung,['operator: Karl Meyer Rohstoffverwertung'],,Olivaer Platz ggü. Nr. 12,,,,yes,,,,,Wheelchair accessible,,,POINT (13.31579 52.4993759),Charlottenburg-Wilmersdorf,Charlottenburg,0401,11004004
315349525,,,['glass_bottles'],,13.2925454,52.4450277,Karl Meyer Rohstoffverwertung,['operator: Karl Meyer Rohstoffverwertung'],,"Unter den Eichen, 12205 Berlin",,,,,,,,,,,,POINT (13.2925454 52.4450277),Steglitz-Zehlendorf,Lichterfelde,0602,11006006
315363226,,,['glass_bottles'],,13.3667535,52.4614302,,,,"Bessemerstraße, 12103 Berlin",,,,,,,,,,,,POINT (13.3667535 52.4614302),Tempelhof-Schöneberg,Schöneberg,0701,11007007
315812629,,,"['glass_bottles', 'glass_bottles_white', 'glass_bottles_green', 'glass_bottles_brown']",,13.3513843,52.4858101,Karl Meyer Rohstoffverwertung,['operator: Karl Meyer Rohstoffverwertung'],,"Eisenacher Straße, 10823 Berlin",,,,,,,,,,,,POINT (13.3513843 52.4858101),Tempelhof-Schöneberg,Schöneberg,0701,11007007
315823154,,,['glass_bottles'],,13.3592464,52.490378,,,,"Grunewaldstraße, 10827 Berlin",,,,,,,,,,,,POINT (13.3592464 52.490378),Tempelhof-Schöneberg,Schöneberg,0701,11007007
317175529,survey,,['glass_bottles'],,13.3280785,52.4542476,,,,"Breite Straße, 12167 Berlin",,,,,,,,,,,,POINT (13.3280785 52.4542476),Steglitz-Zehlendorf,Steglitz,0601,11006006
318104085,,,['glass_bottles'],,13.4319972,52.5239353,,,,"Friedenstraße, 10249 Berlin",,,,,,,,,,,,POINT (13.4319972 52.5239353),Friedrichshain-Kreuzberg,Friedrichshain,0201,11002002
319211562,,,['glass_bottles'],,13.4503172,52.5200205,,,,"Mühsamstraße, 10249 Berlin",,,,,,,,,,,,POINT (13.4503172 52.5200205),Friedrichshain-Kreuzberg,Friedrichshain,0201,11002002
319211585,,,['glass_bottles'],,13.4335698,52.5228181,,,,"Strausberger Straße, 10243 Berlin",,,,,,,,,,,,POINT (13.4335698 52.5228181),Friedrichshain-Kreuzberg,Friedrichshain,0201,11002002
319549473,,,"['glass_bottles', 'clothes', 'shoes']",,13.4236271,52.5207028,,,,"Berolinastraße, 10178 Berlin",,,,,,,,,,,,POINT (13.4236271 52.5207028),Mitte,Mitte,0101,11001001
319549474,,,['glass_bottles'],,13.4290968,52.52076,,,,"Lichtenberger Straße, 10243 Berlin",,,,,,,,,,,,POINT (13.4290968 52.52076),Friedrichshain-Kreuzberg,Friedrichshain,0201,11002002
324610126,,,['glass_bottles'],,13.4273577,52.5227128,,,,"Platz der Vereinten Nationen, 10243 Berlin",,,,,,,,,,,,POINT (13.4273577 52.5227128),Friedrichshain-Kreuzberg,Friedrichshain,0201,11002002
325161338,,,"['clothes', 'shoes']",,13.1808404,52.50974,Humana,['operator: Humana'],,"Gatower Straße, 13595 Berlin",,,,,,,,,,,,POINT (13.1808404 52.50974),Spandau,Wilhelmstadt,0509,11005005
325161422,,,['glass_bottles'],,13.1808748,52.5095928,,,,"Jaczostraße, 13595 Berlin",,,,,,,,,,,,POINT (13.1808748 52.5095928),Spandau,Wilhelmstadt,0509,11005005
325585969,,,['clothes'],,13.448092,52.5251097,,,,"Petersburger Straße, 10249 Berlin",,,,,,,,,,,,POINT (13.448092 52.5251097),Friedrichshain-Kreuzberg,Friedrichshain,0201,11002002
330967542,,,['glass_bottles'],,13.3852118,52.5024516,,,,"Hedemannstraße, 10963 Berlin",,,,yes,,,,,Wheelchair accessible,,,POINT (13.3852118 52.5024516),Friedrichshain-Kreuzberg,Kreuzberg,0202,11002002
338497703,,,"['glass_bottles', 'glass_bottles_white', 'glass_bottles_green', 'glass_bottles_brown']",,13.3877587,52.5672966,Karl Meyer AG,['operator: Karl Meyer AG'],,"Hugo-Heimann-Brücke, 13359 Berlin",,,,,,,,,,,,POINT (13.3877587 52.5672966),Mitte,Gesundbrunnen,0106,11001001
338818027,,,['glass_bottles'],,13.3782148,52.4076515,Karl Meyer AG,['operator: Karl Meyer AG'],,"Nunsdorfer Ring, 12277 Berlin",,,,,,,,,,,,POINT (13.3782148 52.4076515),Tempelhof-Schöneberg,Marienfelde,0705,11007007
339115079,changeset 91932395,,"['glass_bottles', 'glass_bottles_green', 'glass_bottles_white']",,13.379144,52.5661675,Karl Meyer AG,['operator: Karl Meyer AG'],,"Kühnemannstraße, 13409 Berlin",,,,,,,,,,,,POINT (13.379144 52.5661675),Mitte,Gesundbrunnen,0106,11001001
339115156,,,"['glass_bottles', 'glass_bottles_white', 'glass_bottles_green', 'glass_bottles_brown']",,13.3768185,52.5590269,Karl Meyer AG,['operator: Karl Meyer AG'],,"Drontheimer Straße, 13359 Berlin",,,,,,,,,,,,POINT (13.3768185 52.5590269),Mitte,Gesundbrunnen,0106,11001001
339115213,changeset 91932395,,"['glass_bottles', 'clothes', 'glass_bottles_green', 'glass_bottles_white']",,13.3914486,52.5516474,Karl Meyer AG,['operator: Karl Meyer AG'],,"Jülicher Straße, 13357 Berlin",,,,,,,,,,,,POINT (13.3914486 52.5516474),Mitte,Gesundbrunnen,0106,11001001
339227524,,,"['glass_bottles', 'glass_bottles_white', 'glass_bottles_green', 'glass_bottles_brown']",,13.3706276,52.5641581,,,,"Pankower Allee, 13409 Berlin",,,,,,,,,,,,POINT (13.3706276 52.5641581),Reinickendorf,Reinickendorf,1201,11012012
339228080,changeset 91932395,,"['glass_bottles', 'glass_bottles_green', 'glass_bottles_white']",,13.3670021,52.5639652,Karl Meyer AG,['operator: Karl Meyer AG'],,"Pankower Allee, 13409 Berlin",,,,,,,,,,,,POINT (13.3670021 52.5639652),Reinickendorf,Reinickendorf,1201,11012012
339369413,changeset 91932395,,"['glass_bottles', 'glass_bottles_green', 'glass_bottles_white']",,13.3628496,52.5448003,,,,"Gerichtstraße, 13347 Berlin",,,,,,,,,,,,POINT (13.3628496 52.5448003),Mitte,Wedding,0105,11001001
342440323,,,"['glass_bottles', 'clothes', 'shoes', 'glass_bottles_white', 'glass_bottles_green', 'glass_bottles_brown']",,13.3521442,52.4361424,Berlin Recycling,['operator: Berlin Recycling'],,"Mühlenstraße, 12247 Berlin",,,,,,,,,,,,POINT (13.3521442 52.4361424),Steglitz-Zehlendorf,Lankwitz,0603,11006006
343393357,,,"['glass_bottles', 'glass_bottles_white', 'glass_bottles_green', 'glass_bottles_brown']",,13.354584,52.5476623,,,,"Ostender Straße, 13353 Berlin",,,,,,,,,,,,POINT (13.354584 52.5476623),Mitte,Wedding,0105,11001001
343397770,,,"['glass_bottles', 'glass_bottles_white', 'glass_bottles_green', 'glass_bottles_brown']",,13.360931,52.5483992,Karl Meyer AG,['operator: Karl Meyer AG'],,"Turiner Straße, 13347 Berlin",,,,,,,,,,,,POINT (13.360931 52.5483992),Mitte,Wedding,0105,11001001
344192039,,,['glass_bottles'],,13.4656036,52.5243488,,,,"Storkower Straße, 10369 Berlin",,,,,,,,,,,,POINT (13.4656036 52.5243488),Lichtenberg,Fennpfuhl,1111,11011011
344455310,,,['glass_bottles'],,13.4460847,52.5445287,,,,"Michelangelostraße, 10409 Berlin",,,,,,,,,,,,POINT (13.4460847 52.5445287),Pankow,Prenzlauer Berg,0301,11003003
345347331,,,['glass_bottles'],,13.4803789,52.5266326,,,,"Herzbergstraße, 10367 Berlin",,,,limited,,,,,Limited wheelchair access,hours=24/7,,POINT (13.4803789 52.5266326),Lichtenberg,Fennpfuhl,1111,11011011
346133693,,,"['glass_bottles', 'glass_bottles_white', 'glass_bottles_green', 'glass_bottles_brown']",,13.3781128,52.534673,,,,"Chausseestraße, 10115 Berlin",,,,,,,,,,,,POINT (13.3781128 52.534673),Mitte,Mitte,0101,11001001
347422934,,,['glass_bottles'],,13.3121753,52.4425563,,,,"Ludwig-Beck-Platz, 12203 Berlin",,,,,,,,,,,,POINT (13.3121753 52.4425563),Steglitz-Zehlendorf,Lichterfelde,0602,11006006
347422937,,,"['glass_bottles', 'clothes']",,13.3015735,52.4402454,,,,"Ringstraße, 12205 Berlin",,,,,,,,,,,,POINT (13.3015735 52.4402454),Steglitz-Zehlendorf,Lichterfelde,0602,11006006
347422940,,,['glass_bottles'],,13.2993165,52.4406875,,,,"Drakestraße, 12205 Berlin",,,,,,,,,,,,POINT (13.2993165 52.4406875),Steglitz-Zehlendorf,Lichterfelde,0602,11006006
349298172,,,['glass_bottles'],,13.3118207,52.5062887,Karl Meyer Rohstoffverwertung,['operator: Karl Meyer Rohstoffverwertung'],,"Kantstraße, 10625 Berlin",,,,,,,,,,,,POINT (13.3118207 52.5062887),Charlottenburg-Wilmersdorf,Charlottenburg,0401,11004004
349898360,,,"['glass_bottles', 'glass_bottles_white', 'glass_bottles_green', 'glass_bottles_brown']",,13.3909235,52.5631357,,,,"Wollankstraße, 13359 Berlin",,,,,,,,,,,,POINT (13.3909235 52.5631357),Mitte,Gesundbrunnen,0106,11001001
351387149,,,['glass_bottles'],,13.2958855,52.4380071,,,,"Ringstraße, 12205 Berlin",,,,,,,,,,,,POINT (13.2958855 52.4380071),Steglitz-Zehlendorf,Lichterfelde,0602,11006006
351940059,,,['glass_bottles'],,13.3062104,52.5047808,Karl Meyer Rohstoffverwertung,['operator: Karl Meyer Rohstoffverwertung'],,"Gervinusstraße, 10629 Berlin",,,,,,,,,,,,POINT (13.3062104 52.5047808),Charlottenburg-Wilmersdorf,Charlottenburg,0401,11004004
352920928,,,['glass_bottles'],,13.36764,52.4911266,,,,"Großgörschenstraße, 10829 Berlin",,,,,,,,,,,,POINT (13.36764 52.4911266),Tempelhof-Schöneberg,Schöneberg,0701,11007007
352945077,,,['glass_bottles'],,13.3663137,52.4914712,Karl Meyer Rohstoffverwertung,['operator: Karl Meyer Rohstoffverwertung'],,"Crellestraße, 10827 Berlin",,,,,,,,,,,,POINT (13.3663137 52.4914712),Tempelhof-Schöneberg,Schöneberg,0701,11007007
354513918,,,"['clothes', 'shoes']",,13.1474452,52.523657,,,,"Gärtnereiring, 13593 Berlin",,,,,,,,,,,,POINT (13.1474452 52.523657),Spandau,Staaken,0504,11005005
354513927,senstadtu dop10-c 2011 erlaubnis 1002-12,,['glass_bottles'],,13.1371426,52.5256057,Rhenus,['operator: Rhenus'],,"Heerstraße, 13591 Berlin",,,,,,,,,,,,POINT (13.1371426 52.5256057),Spandau,Staaken,0504,11005005
362178236,,,['clothes'],,13.2942441,52.4492344,,,,"Reichensteiner Weg, 14195 Berlin",,,,,,,,,,,,POINT (13.2942441 52.4492344),Steglitz-Zehlendorf,Dahlem,0605,11006006
364316397,,,['clothes'],,13.4178705,52.5438109,Deutsches Rotes Kreuz,['operator: Deutsches Rotes Kreuz'],,"Lettestraße, 10437 Berlin",,,,,,,,,,,,POINT (13.4178705 52.5438109),Pankow,Prenzlauer Berg,0301,11003003
365599752,,,"['clothes', 'shoes']",,13.4959356,52.5654788,,,,"Borner Straße, 13051 Berlin",,,,,,,,,,,,POINT (13.4959356 52.5654788),Lichtenberg,Neu-Hohenschönhausen,1109,11011011
365609937,,,['glass_bottles'],,13.328431,52.5307627,Karl Meyer Rohstoffverwertung,['operator: Karl Meyer Rohstoffverwertung'],,"Beusselstraße, 10553 Berlin",,,,,,,,,,,,POINT (13.328431 52.5307627),Mitte,Moabit,0102,11001001
365888924,,,"['glass_bottles', 'clothes', 'shoes']",,13.3401753,52.5185491,Karl Meyer Rohstoffverwertung,['operator: Karl Meyer Rohstoffverwertung'],,"Altonaer Straße, 10555 Berlin",,,,,,,,,,,,POINT (13.3401753 52.5185491),Mitte,Hansaviertel,0103,11001001
371150900,,,['glass_bottles'],,13.4231646,52.4909491,Karl Meyer Rohstoffverwertung,['operator: Karl Meyer Rohstoffverwertung'],,"Kottbusser Damm, 10967 Berlin",,,,,,,,,,,,POINT (13.4231646 52.4909491),Friedrichshain-Kreuzberg,Kreuzberg,0202,11002002
371156948,,,['glass_bottles'],,13.2044647,52.5438336,,,,"Feldstraße, 13585 Berlin",,,,,,,,,,,,POINT (13.2044647 52.5438336),Spandau,Spandau,0501,11005005
374184467,,,['glass_bottles'],,13.3322142,52.5614676,,,,"Müllerstraße, 13405 Berlin",,,,,,,,,,,,POINT (13.3322142 52.5614676),Mitte,Wedding,0105,11001001
374420687,,,"['glass_bottles', 'glass_bottles_white', 'glass_bottles_green', 'glass_bottles_brown']",,13.3135721,52.5049809,Karl Meyer Rohstoffverwertung,['operator: Karl Meyer Rohstoffverwertung'],,Leibnizstr. 65 Ecke Niebuhrstr.,,,,,,,,,,,,POINT (13.3135721 52.5049809),Charlottenburg-Wilmersdorf,Charlottenburg,0401,11004004
376726807,,,['glass_bottles'],,13.3858535,52.4897274,Karl Meyer Rohstoffverwertung,['operator: Karl Meyer Rohstoffverwertung'],,"Methfesselstraße, 10965 Berlin",,,,,,,,,,,,POINT (13.3858535 52.4897274),Friedrichshain-Kreuzberg,Kreuzberg,0202,11002002
388414297,,,['glass_bottles'],,13.3794768,52.5956778,,,,"Friedrich-Engels-Straße, 13158 Berlin",,,,no,,,,,Not wheelchair accessible,,,POINT (13.3794768 52.5956778),Pankow,Rosenthal,0312,11003003
388415435,,,['glass_bottles'],,13.4126742,52.5623895,,,,"Berliner Straße, 13189 Berlin",,,,,,,,,,,,POINT (13.4126742 52.5623895),Pankow,Pankow,0307,11003003
389391824,,,['glass_bottles'],,13.3661616,52.5924951,,,,"Uhlandstraße, 13158 Berlin",,,,,,,,,,,,POINT (13.3661616 52.5924951),Pankow,Rosenthal,0312,11003003
390474303,,,['glass_bottles'],,13.3852202,52.5831486,,,,"Zingergraben, 13156 Berlin",,,,,,,,,,,,POINT (13.3852202 52.5831486),Pankow,Niederschönhausen,0311,11003003
392310411,,,['glass_bottles'],,13.4375685,52.4708171,,,,"Schierker Straße, 12051 Berlin",,,,,,,,,,,,POINT (13.4375685 52.4708171),Neukölln,Neukölln,0801,11008008
393409424,,,['glass_bottles'],,13.2959643,52.5024629,Karl Meyer Rohstoffverwertung,['operator: Karl Meyer Rohstoffverwertung'],,Holtzendorffstr. an der S-Bahnbrücke Ecke Heilbronner Str. 12,,,,,,,,,,,,POINT (13.2959643 52.5024629),Charlottenburg-Wilmersdorf,Charlottenburg,0401,11004004
393769325,,,['glass_bottles'],,13.3386484,52.5211399,,,,Bochumer Straße,,,,,,,,,,,,POINT (13.3386484 52.5211399),Mitte,Moabit,0102,11001001
401243531,,,['glass_bottles'],,13.4314896,52.5504042,,,,"Ostseestraße, 10409 Berlin",,,,,,,,,,,,POINT (13.4314896 52.5504042),Pankow,Prenzlauer Berg,0301,11003003
403749825,,,['glass_bottles'],,13.5793429,52.5006928,,,,"Chemnitzer Straße, 12621 Berlin",,,,,,,,,,,,POINT (13.5793429 52.5006928),Marzahn-Hellersdorf,Kaulsdorf,1003,11010010
406369205,,,['glass_bottles'],,13.3506783,52.5203073,,,,"Helgoländer Ufer, 10557 Berlin",,,,,,,,,,,,POINT (13.3506783 52.5203073),Mitte,Moabit,0102,11001001
409925348,,,['glass_bottles'],,13.5571988,52.5059284,,,,"Minsker Straße, 12683 Berlin",,,,,,,,,,,,POINT (13.5571988 52.5059284),Marzahn-Hellersdorf,Biesdorf,1002,11010010
410303081,,,['glass_bottles'],,13.3990973,52.4975614,,,,"Alexandrinenstraße, 10969 Berlin",,,,,,,,,,,,POINT (13.3990973 52.4975614),Friedrichshain-Kreuzberg,Kreuzberg,0202,11002002
413579921,,,['glass_bottles'],,13.3841641,52.5909195,,,,"Angerweg, 13158 Berlin",,,,,,,,,,,,POINT (13.3841641 52.5909195),Pankow,Rosenthal,0312,11003003
415998143,,,['glass_bottles'],,13.5604202,52.3953594,,,,"Kleine Lindenstraße, 12526 Berlin",,,,,,,,,,,,POINT (13.5604202 52.3953594),Treptow-Köpenick,Bohnsdorf,0908,11009009
416310808,changeset 91932395,,"['glass_bottles', 'glass_bottles_green', 'glass_bottles_white']",,13.3182255,52.4826342,Karl Meyer Rohstoffverwertung,['operator: Karl Meyer Rohstoffverwertung'],,Aachener Str. Ecke Mecklenburgische Str.,,,,,,,,,,,,POINT (13.3182255 52.4826342),Charlottenburg-Wilmersdorf,Wilmersdorf,0402,11004004
418081023,,,['glass_bottles'],,13.3607444,52.5234523,,,,"Invalidenstraße, 10557 Berlin",,,,,,,,,,,,POINT (13.3607444 52.5234523),Mitte,Moabit,0102,11001001
418333606,,,['glass_bottles'],,13.2700489,52.5387042,,,,"Quellweg, 13629 Berlin",,,,,,,,,,,,POINT (13.2700489 52.5387042),Spandau,Siemensstadt,0503,11005005
427764066,,,['glass_bottles'],,13.5752829,52.4889703,,,,"Bergedorfer Straße, 12621 Berlin",,,,,,,,,,,,POINT (13.5752829 52.4889703),Marzahn-Hellersdorf,Kaulsdorf,1003,11010010
428069663,,,['glass_bottles'],,13.3163025,52.440929,Karl Meyer Rohstoffverwertung,['operator: Karl Meyer Rohstoffverwertung'],,"Hindenburgdamm, 12205 Berlin",,,,,,,,,,,,POINT (13.3163025 52.440929),Steglitz-Zehlendorf,Lichterfelde,0602,11006006
428114305,,,['glass_bottles'],,13.3411168,52.4760791,,,,"Hauptstraße, 12159 Berlin",,,,,,,,,,,,POINT (13.3411168 52.4760791),Tempelhof-Schöneberg,Friedenau,0702,11007007
429466365,,,['glass_bottles'],,13.4791757,52.5076045,,,,"Schulze-Boysen-Straße, 10365 Berlin",,,,yes,,,,,Wheelchair accessible,"hours=Mo-Sa 07:00-13:00,15:00-20:00",,POINT (13.4791757 52.5076045),Lichtenberg,Lichtenberg,1103,11011011
429466368,,,['glass_bottles'],,13.4829784,52.5114434,,,,"Schulze-Boysen-Straße, 10365 Berlin",,,,,,,,,,,,POINT (13.4829784 52.5114434),Lichtenberg,Lichtenberg,1103,11011011
429878219,,,,,13.4317462,52.6138268,,,,"Triftstraße, 13127 Berlin",,,,,,,,,,,,POINT (13.4317462 52.6138268),Pankow,Französisch Buchholz,0310,11003003
433831883,,,['glass_bottles'],,13.4920706,52.5162152,,,,"Schottstraße, 10365 Berlin",,,,,,,,,,,,POINT (13.4920706 52.5162152),Lichtenberg,Lichtenberg,1103,11011011
434345978,,,['glass_bottles'],,13.3457305,52.552297,,,,"Cornelius-Fredericks-Straße, 13351 Berlin",,,,,,,,,,"hours=Mo-Sa 07:00-13:00, 15:00-20:00",,POINT (13.3457305 52.552297),Mitte,Wedding,0105,11001001
435181683,,,['glass_bottles'],,13.4760197,52.5008851,,,,"Hauptstraße, 10317 Berlin",,,,,,,,,,,,POINT (13.4760197 52.5008851),Lichtenberg,Rummelsburg,1112,11011011
437371861,,,['glass_bottles'],,13.5050283,52.4682539,,,,"Mentelinstraße, 12459 Berlin",,,,,,,,,,,,POINT (13.5050283 52.4682539),Treptow-Köpenick,Oberschöneweide,0909,11009009
437371863,,,['glass_bottles'],,13.5232036,52.4519822,,,,"Rudower Straße, 12439 Berlin",,,,,,,,,,,,POINT (13.5232036 52.4519822),Treptow-Köpenick,Niederschöneweide,0905,11009009
437371865,,,['glass_bottles'],,13.5196015,52.4541337,,,,"Britzer Straße, 12439 Berlin",,,,,,,,,,,,POINT (13.5196015 52.4541337),Treptow-Köpenick,Niederschöneweide,0905,11009009
437371866,,,['glass_bottles'],,13.5013913,52.4561329,,,,"Südostallee, 12487 Berlin",,,,,,,,,,,,POINT (13.5013913 52.4561329),Treptow-Köpenick,Johannisthal,0904,11009009
438255976,,,['glass_bottles'],,13.4225992,52.4867399,Karl Meyer Rohstoffverwertung,['operator: Karl Meyer Rohstoffverwertung'],,"Hasenheide, 10967 Berlin",,,,,,,,,,,,POINT (13.4225992 52.4867399),Friedrichshain-Kreuzberg,Kreuzberg,0202,11002002
440661271,,,['glass_bottles'],,13.4034603,52.5215234,Karl Meyer Rohstoffverwertung,['operator: Karl Meyer Rohstoffverwertung'],,"Anna-Louisa-Karsch-Straße, 10178 Berlin",,,,,,,,,,,,POINT (13.4034603 52.5215234),Mitte,Mitte,0101,11001001
440661272,,,['glass_bottles'],,13.4050997,52.5220679,Karl Meyer Rohstoffverwertung,['operator: Karl Meyer Rohstoffverwertung'],,"Rochstraße, 10178 Berlin",,,,,,,,,,,,POINT (13.4050997 52.5220679),Mitte,Mitte,0101,11001001
442394432,,,['glass_bottles'],,13.3865612,52.4432465,,,,"Prühßstraße, 12109 Berlin",,,,,,,,,,,,POINT (13.3865612 52.4432465),Tempelhof-Schöneberg,Mariendorf,0704,11007007
442553351,,,['glass_bottles'],,13.3169493,52.5287338,,,,"Huttenstraße, 10553 Berlin",,,,,,,,,,,,POINT (13.3169493 52.5287338),Mitte,Moabit,0102,11001001
442877823,,,"['glass_bottles', 'clothes', 'glass', 'batteries', 'cans', 'paper', 'scrap_metal']",,13.3106192,52.5270158,Recyclinghof Ilsenburger Straße,"['name: Recyclinghof Ilsenburger Straße', 'operator: BSR']",,"Ilsenburger Straße 18-20, 10589 Charlottenburg",,website: https://www.bsr.de/8856.html,,,,,,,,hours=Mo-We 07:00-17:00; Th 09:30-19:30; Fr 07:00-17:00; Sa 07:00-15:30,,POINT (13.3106192 52.5270158),Charlottenburg-Wilmersdorf,Charlottenburg,0401,11004004
443966543,,,['glass_bottles'],,13.4148017,52.4950126,Karl Meyer Rohstoffverwertung,['operator: Karl Meyer Rohstoffverwertung'],,"Planufer, 10967 Berlin",,,,,,,,,,,,POINT (13.4148017 52.4950126),Friedrichshain-Kreuzberg,Kreuzberg,0202,11002002
444000784,,,['glass_bottles'],,13.3128258,52.5121807,Karl Meyer Rohstoffverwertung,['operator: Karl Meyer Rohstoffverwertung'],,Bismarckstr. 20 ggü. 101 / Zauritzweg,,,,,,,,,,,,POINT (13.3128258 52.5121807),Charlottenburg-Wilmersdorf,Charlottenburg,0401,11004004
444000794,,,"['glass_bottles', 'clothes', 'shoes']",,13.2972443,52.5135992,Bera Textilrecycling,['operator: Bera Textilrecycling'],,"Zillestraße, 10585 Berlin",,,,,,,,,,,,POINT (13.2972443 52.5135992),Charlottenburg-Wilmersdorf,Charlottenburg,0401,11004004
446099267,,,['glass_bottles'],,13.3816281,52.3969716,,,,"Schichauweg, 12307 Berlin",,,,,,,,,,,,POINT (13.3816281 52.3969716),Tempelhof-Schöneberg,Marienfelde,0705,11007007
446099340,,,['glass_bottles'],,13.3827548,52.4042664,,,,"Nunsdorfer Ring, 12277 Berlin",,,,,,,,,,,,POINT (13.3827548 52.4042664),Tempelhof-Schöneberg,Marienfelde,0705,11007007
446904791,,,['glass_bottles'],,13.4367734,52.4660887,Karl Meyer Rohstoffverwertung,['operator: Karl Meyer Rohstoffverwertung'],,"Kranoldplatz, 12051 Berlin",,,,,,,,,,,,POINT (13.4367734 52.4660887),Neukölln,Neukölln,0801,11008008
447563042,,,['glass_bottles'],,13.5849639,52.4932325,,,,"Weg 1, 12621 Berlin",,,,,,,,,,,,POINT (13.5849639 52.4932325),Marzahn-Hellersdorf,Kaulsdorf,1003,11010010
447737051,,,['glass_bottles'],,13.331005,52.4870315,Karl Meyer Rohstoffverwertung,['operator: Karl Meyer Rohstoffverwertung'],,"Bundesallee, 10715 Berlin",,,,,,,,,,,,POINT (13.331005 52.4870315),Charlottenburg-Wilmersdorf,Wilmersdorf,0402,11004004
447906316,,,['glass_bottles'],,13.436434,52.4888877,,,,"Pflügerstraße, 12045 Berlin",,,,,,,,,,,,POINT (13.436434 52.4888877),Neukölln,Neukölln,0801,11008008
447924125,,,['glass_bottles'],,13.3947623,52.5039222,,,,"Markgrafenstraße, 10969 Berlin",,,,,,,,,,,,POINT (13.3947623 52.5039222),Friedrichshain-Kreuzberg,Kreuzberg,0202,11002002
447938240,,,['glass_bottles'],,13.4093335,52.5337621,Karl Meyer Rohstoffverwertung,['operator: Karl Meyer Rohstoffverwertung'],,"Schwedter Straße, 10119 Berlin",,,,,,,,,,,,POINT (13.4093335 52.5337621),Pankow,Prenzlauer Berg,0301,11003003
448811299,,,['glass_bottles'],,13.4192696,52.4963397,Karl Meyer Rohstoffverwertung,['operator: Karl Meyer Rohstoffverwertung'],,"Regina-Jonas-Straße, 10999 Berlin",,,,,,,,,,,,POINT (13.4192696 52.4963397),Friedrichshain-Kreuzberg,Kreuzberg,0202,11002002
448818336,,,['glass_bottles'],,13.4461749,52.5585422,,,,"Gustav-Adolf-Straße, 13086 Berlin",,,,,,,,,,,,POINT (13.4461749 52.5585422),Pankow,Weißensee,0302,11003003
449219513,,,['glass_bottles'],,13.5197133,52.4649717,,,,"Triniusstraße, 12459 Berlin",,,,,,,,,,,,POINT (13.5197133 52.4649717),Treptow-Köpenick,Oberschöneweide,0909,11009009
452634938,,,['glass_bottles'],,13.4585534,52.4403083,,,,"Rudower Straße, 12351 Berlin",,,,,,,,,,,,POINT (13.4585534 52.4403083),Neukölln,Buckow,0803,11008008
453218058,,,['glass_bottles'],,13.471742,52.465751,,,,"Sonnenallee, 12057 Berlin",,,,,,,,,,,,POINT (13.471742 52.465751),Neukölln,Neukölln,0801,11008008
454490704,changeset 91932395,,"['glass_bottles', 'glass_bottles_green', 'glass_bottles_white']",,13.3205747,52.4832871,Karl Meyer Rohstoffverwertung,['operator: Karl Meyer Rohstoffverwertung'],,Am Volkspark Ecke Blissestr.,,,,,,,,,,,,POINT (13.3205747 52.4832871),Charlottenburg-Wilmersdorf,Wilmersdorf,0402,11004004
456393286,,,['glass_bottles'],,13.5005634,52.4475883,,,,"Königsheideweg, 12487 Berlin",,,,,,,,,,,,POINT (13.5005634 52.4475883),Treptow-Köpenick,Johannisthal,0904,11009009
457818480,,,['glass_bottles'],,13.4588106,52.4452311,,,,"Parchimer Allee, 12359 Berlin",,,,,,,,,,,,POINT (13.4588106 52.4452311),Neukölln,Britz,0802,11008008
457823907,,,['glass_bottles'],,13.441921,52.4565835,,,,"Franz-Körner-Straße, 12347 Berlin",,,,,,,,,,,,POINT (13.441921 52.4565835),Neukölln,Britz,0802,11008008
457824254,,,['glass_bottles'],,13.4372103,52.4647296,Karl Meyer Rohstoffverwertung,['operator: Karl Meyer Rohstoffverwertung'],,"Bendastraße, 12051 Berlin",,,,,,,,,,,,POINT (13.4372103 52.4647296),Neukölln,Neukölln,0801,11008008
458754762,,,['clothes'],,13.3586903,52.4342588,Loop Textil Recycling Nord,['operator: Loop Textil Recycling Nord'],,"Kamenzer Damm, 12249 Berlin",,,,,,,,,,,,POINT (13.3586903 52.4342588),Steglitz-Zehlendorf,Lankwitz,0603,11006006
459786552,,,['glass_bottles'],,13.3394059,52.5574212,,,,"Müllerstraße, 13349 Berlin",,,,,,,,,,,,POINT (13.3394059 52.5574212),Mitte,Wedding,0105,11001001
462694088,,,"['clothes', 'shoes']",,13.3494786,52.4494788,Deutsches Rotes Kreuz e.V.,['operator: Deutsches Rotes Kreuz e.V.'],,"Steglitzer Damm, 12169 Berlin",,,,,,,,,,,,POINT (13.3494786 52.4494788),Steglitz-Zehlendorf,Steglitz,0601,11006006
465499973,,,"['glass_bottles', 'glass_bottles_white', 'glass_bottles_green', 'glass_bottles_brown']",,13.3359866,52.4997583,Karl Meyer Rohstoffverwertung,['operator: Karl Meyer Rohstoffverwertung'],,Nürnberger Str. 41 Ecke Lietzenburger Str.,,,,,,,,,,,,POINT (13.3359866 52.4997583),Charlottenburg-Wilmersdorf,Wilmersdorf,0402,11004004
472441901,,,['glass_bottles'],,13.4548357,52.4232609,,,,"Kölner Damm, 12353 Berlin",,,,,,,,,,,,POINT (13.4548357 52.4232609),Neukölln,Gropiusstadt,0805,11008008
472463190,,,['clothes'],,13.4210755,52.4144025,,,,"Drusenheimer Weg, 12349 Berlin",,,,,,,,,,,,POINT (13.4210755 52.4144025),Neukölln,Buckow,0803,11008008
472466212,,,['clothes'],,13.415176,52.4221675,,,,"Quarzweg, 12349 Berlin",,,,,,,,,,,,POINT (13.415176 52.4221675),Neukölln,Buckow,0803,11008008
472470011,,,['glass_bottles'],,13.4066725,52.4273682,,,,"Quarzweg, 12349 Berlin",,,,,,,,,,,,POINT (13.4066725 52.4273682),Neukölln,Britz,0802,11008008
472470025,,,['clothes'],,13.3981014,52.4399728,Humana,['operator: Humana'],,"Britzer Straße, 12109 Berlin",,,,,,,,,,,,POINT (13.3981014 52.4399728),Tempelhof-Schöneberg,Mariendorf,0704,11007007
472472559,,,['glass_bottles'],,13.4302674,52.4427817,,,,"Neumarkplan, 12349 Berlin",,,,,,,,,,,,POINT (13.4302674 52.4427817),Neukölln,Britz,0802,11008008
472496597,,,['glass_bottles'],,13.4313963,52.5128187,,,,"Lange Straße, 10243 Berlin",,,,,,,,,,,,POINT (13.4313963 52.5128187),Friedrichshain-Kreuzberg,Friedrichshain,0201,11002002
472505334,,,['glass_bottles'],,13.5148792,52.488706,,,,"Odinstraße, 10318 Berlin",,,,,,,,,,"hours=Mo-Sa 07:00-13:00,15:00-20:00",,POINT (13.5148792 52.488706),Lichtenberg,Karlshorst,1102,11011011
473428818,,,['glass_bottles'],,13.55391,52.3991735,,,,"Dorfplatz, 12526 Berlin",,,,,,,,,,,,POINT (13.55391 52.3991735),Treptow-Köpenick,Bohnsdorf,0908,11009009
476243463,,,['glass_bottles'],,13.4667724,52.4854248,,,,"Am Treptower Park, 12435 Berlin",,,,,,,,,,,,POINT (13.4667724 52.4854248),Treptow-Köpenick,Plänterwald,0902,11009009
476258119,,,['glass_bottles'],,13.4504955,52.4769279,,,,"Thiemannstraße, 12059 Berlin",,,,yes,,,,,Wheelchair accessible,,,POINT (13.4504955 52.4769279),Neukölln,Neukölln,0801,11008008
476260483,,,['glass_bottles'],,13.4466309,52.4725019,Karl Meyer Rohstoffverwertung,['operator: Karl Meyer Rohstoffverwertung'],,"Böhmische Straße, 12055 Berlin",,,,,,,,,,,,POINT (13.4466309 52.4725019),Neukölln,Neukölln,0801,11008008
476674871,,,['glass_bottles'],,13.2996901,52.4214856,,,,"Ortlerweg, 12207 Berlin",,,,,,,,,,,,POINT (13.2996901 52.4214856),Steglitz-Zehlendorf,Lichterfelde,0602,11006006
476675294,senstadtu dop10-c 2011 erlaubnis 1002-12,,['glass_bottles'],,13.3029591,52.4252454,Karl Meyer Rohstoffverwertung,['operator: Karl Meyer Rohstoffverwertung'],,"Ortlerweg, 12205 Berlin",,,,,,,,,,,,POINT (13.3029591 52.4252454),Steglitz-Zehlendorf,Lichterfelde,0602,11006006
477352263,,,"['glass_bottles', 'clothes', 'shoes']",,13.2933841,52.4368795,,,,"Ringstraße, 12205 Berlin",,,,,,,,,,,,POINT (13.2933841 52.4368795),Steglitz-Zehlendorf,Lichterfelde,0602,11006006
477578563,,,['glass_bottles'],,13.4790821,52.5329744,,,,"Landsberger Allee, 10367 Berlin",,,,,,,,,,,,POINT (13.4790821 52.5329744),Lichtenberg,Fennpfuhl,1111,11011011
479301800,,,['glass_bottles'],,13.2969918,52.4231157,,,,"Appenzeller Straße, 12205 Berlin",,,,,,,,,,,,POINT (13.2969918 52.4231157),Steglitz-Zehlendorf,Lichterfelde,0602,11006006
485950622,,,"['clothes', 'shoes']",,13.5119792,52.5082429,Fa. Cavtex (www.cavtex.de),['operator: Fa. Cavtex (www.cavtex.de)'],,"Robert-Uhrig-Straße, 10315 Berlin",,,,,,,,,,,,POINT (13.5119792 52.5082429),Lichtenberg,Friedrichsfelde,1101,11011011
485950623,,,['glass_bottles'],,13.5119677,52.5078361,,,,"Robert-Uhrig-Straße, 10315 Berlin",,,,yes,,,,,Wheelchair accessible,"hours=Mo-Sa 07:00-13:00,15:00-20:00",,POINT (13.5119677 52.5078361),Lichtenberg,Friedrichsfelde,1101,11011011
485950624,,,"['clothes', 'shoes']",,13.5116186,52.5054228,TEXAID Deutschland,['operator: TEXAID Deutschland'],,"Zachertstraße, 10315 Berlin",,,,,,,,,,,,POINT (13.5116186 52.5054228),Lichtenberg,Friedrichsfelde,1101,11011011
485950625,,,['glass_bottles'],,13.5113917,52.5046476,,,,"Robert-Uhrig-Straße, 10315 Berlin",,,,yes,,,,,Wheelchair accessible,"hours=Mo-Sa 07:00-13:00,15:00-20:00",,POINT (13.5113917 52.5046476),Lichtenberg,Friedrichsfelde,1101,11011011
492025511,survey,,"['glass_bottles', 'glass_bottles_white', 'glass_bottles_green', 'glass_bottles_brown']",,13.4620492,52.5294655,,,,"Karl-Lade-Straße, 10369 Berlin",,,,,,,,,,,,POINT (13.4620492 52.5294655),Lichtenberg,Fennpfuhl,1111,11011011
492062434,,,['glass_bottles'],,13.5455305,52.5462933,,,,"Basdorfer Straße, 12679 Berlin",,,,,,,,,,,,POINT (13.5455305 52.5462933),Marzahn-Hellersdorf,Marzahn,1001,11010010
492142391,survey,,['glass_bottles'],,13.4712389,52.5311162,,,,"Landsberger Allee, 10369 Berlin",,,,,,,,,,,,POINT (13.4712389 52.5311162),Lichtenberg,Fennpfuhl,1111,11011011
492264503,,,['glass_bottles'],,13.5184686,52.5078064,,,,"Am Tierpark, 10315 Berlin",,,,yes,,,,,Wheelchair accessible,"hours=Mo-Sa 07:00-13:00,15:00-20:00",,POINT (13.5184686 52.5078064),Lichtenberg,Friedrichsfelde,1101,11011011
493149696,,,['glass_bottles'],,13.4451257,52.523593,,,,"Richard-Sorge-Straße, 10249 Berlin",,,,,,,,,,,,POINT (13.4451257 52.523593),Friedrichshain-Kreuzberg,Friedrichshain,0201,11002002
495534555,,,"['glass_bottles', 'glass_bottles_white', 'glass_bottles_green', 'glass_bottles_brown']",,13.3205353,52.4980355,Rhenus,['operator: Rhenus'],,Ludwigkirchplatz Ecke Emser Str.,,,,,,,,,,,,POINT (13.3205353 52.4980355),Charlottenburg-Wilmersdorf,Wilmersdorf,0402,11004004
496042346,,,['glass_bottles'],,13.5434218,52.5307573,,,,"Murtzaner Ring, 12681 Berlin",,,,,,,,,,,,POINT (13.5434218 52.5307573),Marzahn-Hellersdorf,Marzahn,1001,11010010
499987314,survey,,['glass_bottles'],,13.4696453,52.5088198,Altglas,['name: Altglas'],,"Weserstraße, 10247 Berlin",,,yes,yes,,,0.0,,Wheelchair accessible,,,POINT (13.4696453 52.5088198),Friedrichshain-Kreuzberg,Friedrichshain,0201,11002002
499987331,,,['glass_bottles'],,13.466411,52.5117097,,,,"Oderstraße, 10247 Berlin",,,,,,,,,,,,POINT (13.466411 52.5117097),Friedrichshain-Kreuzberg,Friedrichshain,0201,11002002
502325486,,,['glass_bottles'],,13.4669762,52.4684586,,,,"Planetenstraße, 12057 Berlin",,,,,,,,,,,,POINT (13.4669762 52.4684586),Neukölln,Neukölln,0801,11008008
502375520,,,['clothes'],,13.4766848,52.4621982,,,,"Sonnenallee, 12057 Berlin",,,,,,,,,,,,POINT (13.4766848 52.4621982),Neukölln,Neukölln,0801,11008008
506480293,,,['glass_bottles'],,13.2119003,52.5753268,,,,"Rustweg, 13587 Berlin",,,,,,,,,,,,POINT (13.2119003 52.5753268),Spandau,Hakenfelde,0507,11005005
508540559,,,"['paper', 'PET', 'cardboard', 'plastic', 'plastic_bottles', 'plastic_packaging']",,13.4868846,52.5088491,,,,"Albert-Hößler-Straße, 10365 Berlin",,,,,,,,,,,,POINT (13.4868846 52.5088491),Lichtenberg,Lichtenberg,1103,11011011
510603223,,,['glass_bottles'],,13.413352,52.4577697,,,,"Gottlieb-Dunkel-Straße, 12099 Berlin",,,,,,,,,,,,POINT (13.413352 52.4577697),Tempelhof-Schöneberg,Tempelhof,0703,11007007
510799080,,,['glass_bottles'],,13.393392,52.459895,,,,"Albrechtstraße, 12099 Berlin",,,,,,,,,,,,POINT (13.393392 52.459895),Tempelhof-Schöneberg,Tempelhof,0703,11007007
513998869,,,['glass_bottles'],,13.436905,52.474541,,,,"Mittelweg, 12053 Berlin",,,,,,,,,,,,POINT (13.436905 52.474541),Neukölln,Neukölln,0801,11008008
515071499,,,['glass_bottles'],,13.3053447,52.4323588,,,,"Finckensteinallee, 12205 Berlin",,,,,,,,,,,,POINT (13.3053447 52.4323588),Steglitz-Zehlendorf,Lichterfelde,0602,11006006
530568687,,,"['glass_bottles', 'glass_bottles_white', 'glass_bottles_green', 'glass_bottles_brown']",,13.3589297,52.5397407,,,,"Tegeler Straße, 13353 Berlin",,,,,,,,,,,,POINT (13.3589297 52.5397407),Mitte,Wedding,0105,11001001
530715897,changeset 91932395,,"['glass_bottles', 'glass_bottles_green', 'glass_bottles_white']",,13.3552299,52.5438218,,,,"Tegeler Straße, 13353 Berlin",,,,,,,,,,,,POINT (13.3552299 52.5438218),Mitte,Wedding,0105,11001001
530715899,,,['glass_bottles'],,13.3562041,52.5433985,Deutsches Rotes Kreuz,['operator: Deutsches Rotes Kreuz'],,"Triftstraße, 13353 Berlin",,,,,,,,,,,,POINT (13.3562041 52.5433985),Mitte,Wedding,0105,11001001
531221905,,,"['clothes', 'shoes']",,13.3759006,52.5425111,Deutsches Rotes Kreuz,['operator: Deutsches Rotes Kreuz'],,"Neue Hochstraße, 13347 Berlin",,,,,,,,2,,hours=24/7,,POINT (13.3759006 52.5425111),Mitte,Gesundbrunnen,0106,11001001
538247124,,,"['glass_bottles', 'glass_bottles_white', 'glass_bottles_green', 'glass_bottles_brown']",,13.5754175,52.5706802,,,,"Schorfheidestraße, 12689 Berlin",,,,,,,,,,,,POINT (13.5754175 52.5706802),Marzahn-Hellersdorf,Marzahn,1001,11010010
538247126,,,['glass_bottles'],,13.5750145,52.5705673,,,,"Eichhorster Straße, 12689 Berlin",,,,,,,,,,,,POINT (13.5750145 52.5705673),Marzahn-Hellersdorf,Marzahn,1001,11010010
549220914,,,['glass_bottles'],,13.3985599,52.583664,,,,"Waldstraße, 13156 Berlin",,,,,,,,,,,,POINT (13.3985599 52.583664),Pankow,Niederschönhausen,0311,11003003
559645663,,,,,13.5018337,52.5545166,,,,"Degnerstraße, 13053 Berlin",,,,,,,,,,,,POINT (13.5018337 52.5545166),Lichtenberg,Alt-Hohenschönhausen,1110,11011011
559945799,,,['glass_bottles'],,13.4314464,52.4976836,Karl Meyer Rohstoffverwertung,['operator: Karl Meyer Rohstoffverwertung'],,"Wiener Straße, 10999 Berlin",,,,,,,,,,,,POINT (13.4314464 52.4976836),Friedrichshain-Kreuzberg,Kreuzberg,0202,11002002
562662738,,,"['glass_bottles', 'glass_bottles_white', 'glass_bottles_green', 'glass_bottles_brown']",,13.3530969,52.541336,,,,"Sprengelstraße, 13353 Berlin",,,,,,,,,,,,POINT (13.3530969 52.541336),Mitte,Wedding,0105,11001001
564123151,,,['glass_bottles'],,13.4905536,52.5182555,,,,"Gotlindestraße, 10365 Berlin",,,,no,,,,,Not wheelchair accessible,,,POINT (13.4905536 52.5182555),Lichtenberg,Lichtenberg,1103,11011011
565034843,,,['glass_bottles'],,13.2901862,52.5103497,Karl Meyer Rohstoffverwertung,['operator: Karl Meyer Rohstoffverwertung'],,Kaiserdamm / Erwin-Barth-Platz / Witzlebenplatz,,,,,,,,,,,,POINT (13.2901862 52.5103497),Charlottenburg-Wilmersdorf,Charlottenburg,0401,11004004
568282889,,,['glass_bottles'],,13.4973199,52.5497371,,,,"Degnerstraße, 13053 Berlin",,,,,,,,,,,,POINT (13.4973199 52.5497371),Lichtenberg,Alt-Hohenschönhausen,1110,11011011
568320414,,,['glass_bottles'],,13.4956676,52.5468671,,,,"Oberseestraße, 13053 Berlin",,,,,,,,,,,,POINT (13.4956676 52.5468671),Lichtenberg,Alt-Hohenschönhausen,1110,11011011
571799792,,,['glass_bottles'],,13.3001055,52.5047417,Rhenus,['operator: Rhenus'],,Windscheidstr. Ecke Stuttgarte Platz 24,,,,,,,,,,,,POINT (13.3001055 52.5047417),Charlottenburg-Wilmersdorf,Charlottenburg,0401,11004004
572213133,,,"['glass_bottles', 'glass_bottles_white', 'glass_bottles_green', 'glass_bottles_brown']",,13.3663387,52.4364242,,,,"Alt-Lankwitz, 12247 Berlin",,,,,,,,,,,,POINT (13.3663387 52.4364242),Steglitz-Zehlendorf,Lankwitz,0603,11006006
572257043,,,['glass_bottles'],,13.505926,52.5465601,,,,"Heckelberger Ring, 13055 Berlin",,,,,,,,,,,,POINT (13.505926 52.5465601),Lichtenberg,Alt-Hohenschönhausen,1110,11011011
573810917,,,"['glass_bottles', 'clothes', 'shoes']",,13.4918185,52.5440885,,,,"Orankestraße, 13053 Berlin",,,,,,,,,,,,POINT (13.4918185 52.5440885),Lichtenberg,Alt-Hohenschönhausen,1110,11011011
577292534,,,['glass_bottles'],,13.5122178,52.5381283,,,,"Worbiser Straße, 13055 Berlin",,,,,,,,,,,,POINT (13.5122178 52.5381283),Lichtenberg,Alt-Hohenschönhausen,1110,11011011
582464843,,,['glass_bottles'],,13.4945157,52.5596656,,,,"Hansastraße, 13088 Berlin",,,,,,,,,,,,POINT (13.4945157 52.5596656),Lichtenberg,Alt-Hohenschönhausen,1110,11011011
583790772,gps,,['glass_bottles'],,13.4468207,52.5688247,,,,"Wildstrubelpfad, 13089 Berlin",,,,,,,,,,,,POINT (13.4468207 52.5688247),Pankow,Heinersdorf,0304,11003003
599034310,,,['glass_bottles'],,13.4918105,52.5416703,,,,"Werneuchener Straße, 13055 Berlin",,,,,,,,,,,,POINT (13.4918105 52.5416703),Lichtenberg,Alt-Hohenschönhausen,1110,11011011
600095365,,,['glass_bottles'],,13.5168765,52.5519913,,,,"Bennostraße, 13053 Berlin",,,,,,,,,,,,POINT (13.5168765 52.5519913),Lichtenberg,Alt-Hohenschönhausen,1110,11011011
600109294,,,['glass_bottles'],,13.5209127,52.5524228,,,,"Theobaldstraße, 13053 Berlin",,,,,,,,,,,,POINT (13.5209127 52.5524228),Lichtenberg,Alt-Hohenschönhausen,1110,11011011
600406053,,,['glass_bottles'],,13.5102354,52.4193419,,,,"Neudecker Weg, 12355 Berlin",,,,,,,,,,,,POINT (13.5102354 52.4193419),Neukölln,Rudow,0804,11008008
600406054,,,['cans'],,13.5120329,52.418837,,,,"Neudecker Weg, 12355 Berlin",,,,,,,,,,,,POINT (13.5120329 52.418837),Neukölln,Rudow,0804,11008008
600406056,,,,,13.5132564,52.4191439,,,,"Neudecker Weg, 12355 Berlin",,,,,,,,,,,,POINT (13.5132564 52.4191439),Neukölln,Rudow,0804,11008008
600818471,,,['glass_bottles'],,13.4858996,52.5494842,,,,"Oberseeplatz, 13053 Berlin",,,,,,,,,,,,POINT (13.4858996 52.5494842),Lichtenberg,Alt-Hohenschönhausen,1110,11011011
603774189,,,['glass_bottles'],,13.4861931,52.5477932,,,,"Waldowstraße, 13053 Berlin",,,,,,,,,,,,POINT (13.4861931 52.5477932),Lichtenberg,Alt-Hohenschönhausen,1110,11011011
603796618,,,['glass_bottles'],,13.4853333,52.5446315,,,,"Roedernstraße, 13053 Berlin",,,,,,,,,,,,POINT (13.4853333 52.5446315),Lichtenberg,Alt-Hohenschönhausen,1110,11011011
610896721,,,['glass_bottles'],,13.5010751,52.5387136,,,,"Plauener Straße, 13055 Berlin",,,,,,,,,,,,POINT (13.5010751 52.5387136),Lichtenberg,Alt-Hohenschönhausen,1110,11011011
611144224,,,['glass_bottles'],,13.4206493,52.542545,,,,"Dunckerstraße, 10437 Berlin",,,,,,,,,,hours=24/7,,POINT (13.4206493 52.542545),Pankow,Prenzlauer Berg,0301,11003003
612926210,survey,,['clothes'],,13.3272048,52.4485471,,,,"Klingsorstraße, 12167 Berlin",,,,,,,,,,,,POINT (13.3272048 52.4485471),Steglitz-Zehlendorf,Steglitz,0601,11006006
615020653,,,['glass_bottles'],,13.4431247,52.500598,Karl Meyer Rohstoffverwertung,['operator: Karl Meyer Rohstoffverwertung'],,"Schlesische Straße, 10997 Berlin",,,,,,,,,,,,POINT (13.4431247 52.500598),Friedrichshain-Kreuzberg,Kreuzberg,0202,11002002
615952480,,,['glass_bottles'],,13.314968,52.416215,,,,"Celsiusstraße, 12207 Berlin",,,,,,,,,,,,POINT (13.314968 52.416215),Steglitz-Zehlendorf,Lichterfelde,0602,11006006
615952482,,,['clothes'],,13.314684,52.4161334,,,,"Celsiusstraße, 12207 Berlin",,,,,,,,,,,,POINT (13.314684 52.4161334),Steglitz-Zehlendorf,Lichterfelde,0602,11006006
615952491,,,['glass_bottles'],,13.3291522,52.4182919,,,,"Hildburghauser Straße, 12209 Berlin",,,,,,,,,,,,POINT (13.3291522 52.4182919),Steglitz-Zehlendorf,Lichterfelde,0602,11006006
615952493,,,['glass_bottles'],,13.3283336,52.4243682,,,,"Oberhofer Platz, 12209 Berlin",,,,,,,,,,,,POINT (13.3283336 52.4243682),Steglitz-Zehlendorf,Lichterfelde,0602,11006006
615952495,,,['glass_bottles'],,13.3261926,52.4298428,,,,"Bahnhofstraße, 12207 Berlin",,,,,,,,,,,,POINT (13.3261926 52.4298428),Steglitz-Zehlendorf,Lichterfelde,0602,11006006
618443483,,,['paper'],,13.4454814,52.5723836,,,,"Blankenburger Straße, 13089 Berlin",,,,,,,,,,,,POINT (13.4454814 52.5723836),Pankow,Heinersdorf,0304,11003003
623071167,senstadtu dop10-c 2011 erlaubnis 1002-12,,['glass_bottles'],,13.2868764,52.4219495,Karl Meyer Rohstoffverwertung,['operator: Karl Meyer Rohstoffverwertung'],,"Platz des 4. Juli, 14167 Berlin",,,,,,,,,,,,POINT (13.2868764 52.4219495),Steglitz-Zehlendorf,Lichterfelde,0602,11006006
634882452,survey,,"['glass_bottles', 'glass_bottles_white', 'glass_bottles_green', 'glass_bottles_brown']",,13.285967,52.4866048,berlin recycling,['operator: berlin recycling'],,Warmbrunner Str. ggü. Nr. 6 / Hubertussportplatz,,,,,,,,,,,,POINT (13.285967 52.4866048),Charlottenburg-Wilmersdorf,Grunewald,0404,11004004
634920762,,,"['glass_bottles', 'clothes']",,13.287565,52.4599532,,,,"Pacelliallee, 14195 Berlin",,,,,,,,,,,,POINT (13.287565 52.4599532),Steglitz-Zehlendorf,Dahlem,0605,11006006
656348919,,,"['glass_bottles', 'glass_bottles_white', 'glass_bottles_green', 'glass_bottles_brown']",,13.5443538,52.5256717,,,,"Allee der Kosmonauten, 12681 Berlin",,,,,,,,,,,,POINT (13.5443538 52.5256717),Marzahn-Hellersdorf,Marzahn,1001,11010010
656348929,,,"['glass_bottles', 'glass_bottles_white', 'glass_bottles_green', 'glass_bottles_brown']",,13.5577032,52.5252212,,,,"Kornmandelweg, 12683 Berlin",,,,,,,,,,,,POINT (13.5577032 52.5252212),Marzahn-Hellersdorf,Biesdorf,1002,11010010
656450757,,,"['glass_bottles', 'glass_bottles_white', 'glass_bottles_green', 'glass_bottles_brown']",,13.3281228,52.4772927,Karl Meyer Rohstoffverwertung GmbH,['operator: Karl Meyer Rohstoffverwertung GmbH'],,"Südwestkorso, 12161 Berlin",operator:phone: +49 30 29666893,,,,,,,,,,,POINT (13.3281228 52.4772927),Tempelhof-Schöneberg,Friedenau,0702,11007007
658617877,,,['glass_bottles'],,13.4315905,52.4722731,,,,"Thomasstraße, 12053 Berlin",,,,,,,,,,,,POINT (13.4315905 52.4722731),Neukölln,Neukölln,0801,11008008
659935547,bing,,['glass_bottles'],,13.3317821,52.487566,Karl Meyer Rohstoffverwertung,['operator: Karl Meyer Rohstoffverwertung'],,Bundesallee 180 Ecke Berliner Str. vor Euro Gida,,,,,,,,,,,,POINT (13.3317821 52.487566),Charlottenburg-Wilmersdorf,Wilmersdorf,0402,11004004
663078299,,,['glass_bottles'],,13.2822464,52.4783534,Rhenus,['operator: Rhenus'],,"Karlsbader Straße, 14193 Berlin",,,,,,,,,,,,POINT (13.2822464 52.4783534),Charlottenburg-Wilmersdorf,Schmargendorf,0403,11004004
663611902,,,['clothes'],,13.2904208,52.4708438,Deutsches Rotes Kreuz,['operator: Deutsches Rotes Kreuz'],,"Heiligendammer Straße, 14199 Berlin",,,,,,,,,,,,POINT (13.2904208 52.4708438),Charlottenburg-Wilmersdorf,Schmargendorf,0403,11004004
663956204,,,['glass_bottles'],,13.5054246,52.4095861,,,,"Waltersdorfer Chaussee, 12355 Berlin",,,,,,,,,,,,POINT (13.5054246 52.4095861),Neukölln,Rudow,0804,11008008
663956206,,,['glass_bottles'],,13.5086072,52.406672,,,,"Waltersdorfer Chaussee, 12355 Berlin",,,,,,,,,,,,POINT (13.5086072 52.406672),Neukölln,Rudow,0804,11008008
663956471,,,['glass_bottles'],,13.4978976,52.4153964,,,,"Waltersdorfer Chaussee, 12355 Berlin",,,,,,,,,,,,POINT (13.4978976 52.4153964),Neukölln,Rudow,0804,11008008
664165944,,,['clothes'],,13.508621,52.4351073,,,,"Straße am Flugplatz, 12487 Berlin",,,,,,,,,,,,POINT (13.508621 52.4351073),Treptow-Köpenick,Johannisthal,0904,11009009
664165945,,,['clothes'],,13.5055443,52.4380594,,,,"Winckelmannstraße, 12487 Berlin",,,,,,,,,,,,POINT (13.5055443 52.4380594),Treptow-Köpenick,Johannisthal,0904,11009009
664165960,,,['clothes'],,13.5071745,52.4395204,,,,"Segelfliegerdamm, 12487 Berlin",,,,,,,,,,,,POINT (13.5071745 52.4395204),Treptow-Köpenick,Johannisthal,0904,11009009
664244043,,,['glass_bottles'],,13.2826323,52.4766244,Karl Meyer Rohstoffverwertung,['operator: Karl Meyer Rohstoffverwertung'],,Hohenzollerndamm 105 am Betty-Hirsch-Platz,,,,,,,,,,,,POINT (13.2826323 52.4766244),Charlottenburg-Wilmersdorf,Schmargendorf,0403,11004004
665535057,,,['glass_bottles'],,13.3017853,52.5078891,Karl Meyer Rohstoffverwertung,['operator: Karl Meyer Rohstoffverwertung'],,Pestalozzistr. Ecke Kaiser-Friedrich-Str. ARAL-Tankstelle,,,,,,,,,,,,POINT (13.3017853 52.5078891),Charlottenburg-Wilmersdorf,Charlottenburg,0401,11004004
666388887,,,['glass_bottles'],,13.3145002,52.4915661,,,,"Württembergische Straße, 10707 Berlin",,,,,,,,,,,,POINT (13.3145002 52.4915661),Charlottenburg-Wilmersdorf,Wilmersdorf,0402,11004004
666427342,,,['glass_bottles'],,13.2562765,52.5193996,Karl Meyer Rohstoffverwertung,['operator: Karl Meyer Rohstoffverwertung'],,Reichsstr. 37 ggü. / Brixplatz,,,,,,,,,,,,POINT (13.2562765 52.5193996),Charlottenburg-Wilmersdorf,Westend,0405,11004004
667211336,aerowest,,['glass_bottles'],,13.2640205,52.5145534,Karl Meyer Rohstoffverwertung,['operator: Karl Meyer Rohstoffverwertung'],,Reichsstr. 88A ggü. Ecke Kirschallee,,,,,,,,,,,,POINT (13.2640205 52.5145534),Charlottenburg-Wilmersdorf,Westend,0405,11004004
668246113,,,"['glass_bottles', 'clothes', 'shoes']",,13.2547114,52.4502288,,,,"Riemeisterstraße, 14169 Berlin",,,,,,,,,,,,POINT (13.2547114 52.4502288),Steglitz-Zehlendorf,Zehlendorf,0604,11006006
669088713,,,['glass_bottles'],,13.5000689,52.44,,,,"Sterndamm, 12487 Berlin",,,,,,,,,,,,POINT (13.5000689 52.44),Treptow-Köpenick,Johannisthal,0904,11009009
669692992,,,['clothes'],,13.5032336,52.4408893,,,,"Mühlbergstraße, 12487 Berlin",,,,,,,,,,,,POINT (13.5032336 52.4408893),Treptow-Köpenick,Johannisthal,0904,11009009
669693018,,,['clothes'],,13.502931,52.4418694,,,,"Vereinsstraße, 12487 Berlin",,,,,,,,,,,,POINT (13.502931 52.4418694),Treptow-Köpenick,Johannisthal,0904,11009009
670658007,,,['glass_bottles'],,13.3465274,52.4825375,Karl Meyer Rohstoffverwertung,['operator: Karl Meyer Rohstoffverwertung'],,"Fritz-Elsas-Straße, 10825 Berlin",,,,,,,,,,,,POINT (13.3465274 52.4825375),Tempelhof-Schöneberg,Schöneberg,0701,11007007
670658013,,,['glass_bottles'],,13.345319,52.4871817,Karl Meyer Rohstoffverwertung,['operator: Karl Meyer Rohstoffverwertung'],,"Martin-Luther-Straße, 10825 Berlin",,,,,,,,,,,,POINT (13.345319 52.4871817),Tempelhof-Schöneberg,Schöneberg,0701,11007007
670658027,,,['glass_bottles'],,13.346407,52.4963133,,,,"Martin-Luther-Straße, 10777 Berlin",,,,,,,,,,,,POINT (13.346407 52.4963133),Tempelhof-Schöneberg,Schöneberg,0701,11007007
673084078,,,['glass_bottles'],,13.4130937,52.5586064,,,,"Berliner Straße, 13189 Berlin",,,,,,,,,,,,POINT (13.4130937 52.5586064),Pankow,Pankow,0307,11003003
675112472,,,['clothes'],,13.5044715,52.4364074,,,,"Akeleiweg, 12487 Berlin",,,,,,,,,,,,POINT (13.5044715 52.4364074),Treptow-Köpenick,Johannisthal,0904,11009009
675450901,,,['glass_bottles'],,13.4267432,52.5629254,,,,"Arnold-Zweig-Straße, 13189 Berlin",,,,,,,,,,,,POINT (13.4267432 52.5629254),Pankow,Pankow,0307,11003003
676171381,,,['glass_bottles'],,13.4363371,52.5657889,Karl Meyer,['operator: Karl Meyer'],,"Tino-Schwierzina-Straße, 13089 Berlin",,,,no,,,,,Not wheelchair accessible,"hours=Mo-Sa 07:00-13:00,15:00-20:00; PH closed",,POINT (13.4363371 52.5657889),Pankow,Heinersdorf,0304,11003003
677845120,,,['glass_bottles'],,13.4834761,52.6197503,Karl Meyer Rohstoffverwertung,['operator: Karl Meyer Rohstoffverwertung'],,"Busonistraße, 13125 Berlin",,,,,,,,,,,,POINT (13.4834761 52.6197503),Pankow,Karow,0305,11003003
678901078,,,['clothes'],,13.291589,52.4462616,,,,"Ladenbergstraße, 14195 Berlin",,,,,,,,,,,,POINT (13.291589 52.4462616),Steglitz-Zehlendorf,Dahlem,0605,11006006
678901093,,,['glass_bottles'],,13.3015088,52.4569601,,,,"Gustav-Meyer-Straße, 14195 Berlin",,,,,,,,,,,,POINT (13.3015088 52.4569601),Steglitz-Zehlendorf,Dahlem,0605,11006006
678901096,,,['clothes'],,13.302012,52.4586119,Humana,['operator: Humana'],,"Königin-Luise-Straße, 14195 Berlin",,,,,,,,,,,,POINT (13.302012 52.4586119),Steglitz-Zehlendorf,Dahlem,0605,11006006
681324362,,,"['clothes', 'shoes']",,13.4967416,52.4416479,,,,"Lindhorstweg, 12487 Berlin",,,,,,,,,,,,POINT (13.4967416 52.4416479),Treptow-Köpenick,Johannisthal,0904,11009009
686534293,,,['glass_bottles'],,13.3589432,52.5208646,,,,"Lüneburger Straße, 10557 Berlin",,,,,,,,,,,,POINT (13.3589432 52.5208646),Mitte,Moabit,0102,11001001
687954412,,,['glass_bottles'],,13.4324821,52.4885552,,,,"Pannierstraße, 12047 Berlin",,,,,,,,,,,,POINT (13.4324821 52.4885552),Neukölln,Neukölln,0801,11008008
689563346,,,['glass_bottles'],,13.2966299,52.4464728,,,,"Unter den Eichen, 12203 Berlin",,,,,,,,,,,,POINT (13.2966299 52.4464728),Steglitz-Zehlendorf,Lichterfelde,0602,11006006
689563388,,,['glass_bottles'],,13.3385347,52.4740287,,,,"Hauptstraße, 12159 Berlin",,,,,,,,,,hours=Mo-Sa 07:00-20:00; PH closed,,POINT (13.3385347 52.4740287),Tempelhof-Schöneberg,Friedenau,0702,11007007
689563394,,,['clothes'],,13.3494981,52.4823138,,,,"Hauptstraße, 10827 Berlin",,,,,,,,,,,,POINT (13.3494981 52.4823138),Tempelhof-Schöneberg,Schöneberg,0701,11007007
689563395,,,['glass_bottles'],,13.3511517,52.4833251,,,,"Hauptstraße, 10827 Berlin",,,,,,,,,,,,POINT (13.3511517 52.4833251),Tempelhof-Schöneberg,Schöneberg,0701,11007007
690291927,,,['glass_bottles'],,13.511705,52.4454805,,,,"Engelhardstraße, 12487 Berlin",,,,,,,,,,,,POINT (13.511705 52.4454805),Treptow-Köpenick,Johannisthal,0904,11009009
691484498,,,['clothes'],,13.317398,52.4501272,Obdachlosenhilfe Die Brücke,['operator: Obdachlosenhilfe Die Brücke'],,"Gélieustraße, 12205 Berlin",,,,,,,,,,,,POINT (13.317398 52.4501272),Steglitz-Zehlendorf,Lichterfelde,0602,11006006
691484526,,,['glass_bottles'],,13.3204025,52.4524565,,,,"Birkbuschstraße, 12165 Berlin",,,,,,,,,,,,POINT (13.3204025 52.4524565),Steglitz-Zehlendorf,Steglitz,0601,11006006
691484559,,,"['clothes', 'shoes']",,13.3237847,52.4546969,GAK Textilrecycling,['operator: GAK Textilrecycling'],,"Mittelstraße, 12165 Berlin",contact:phone: +49 163 954 77 95; contact:email: servicecontainer@web.de,,,,,,,,,,,POINT (13.3237847 52.4546969),Steglitz-Zehlendorf,Steglitz,0601,11006006
691484863,,,['clothes'],,13.3422676,52.4774109,,,,"Hauptstraße, 12159 Berlin",,,,,,,,,,,,POINT (13.3422676 52.4774109),Tempelhof-Schöneberg,Friedenau,0702,11007007
693251387,,,['glass_bottles'],,13.4944524,52.566167,,,,"Dierhagener Straße, 13051 Berlin",,,,,,,,,,,,POINT (13.4944524 52.566167),Lichtenberg,Neu-Hohenschönhausen,1109,11011011
693892009,,,['clothes'],,13.3034941,52.4949871,GAK Textilrecycling,['operator: GAK Textilrecycling'],,"Albrecht-Achilles-Straße, 10709 Berlin",,,,,,,,,,,,POINT (13.3034941 52.4949871),Charlottenburg-Wilmersdorf,Wilmersdorf,0402,11004004
693892033,,,['clothes'],,13.3104158,52.5047905,,,,"Niebuhrstraße, 10629 Berlin",,,,,,,,,,,,POINT (13.3104158 52.5047905),Charlottenburg-Wilmersdorf,Charlottenburg,0401,11004004
696733150,,,['glass_bottles'],,13.4101677,52.3824218,,,,"Horstwalder Straße, 12307 Berlin",,,,,,,,,,,,POINT (13.4101677 52.3824218),Tempelhof-Schöneberg,Lichtenrade,0706,11007007
697737311,,,['glass_bottles'],,13.4080661,52.5319397,Karl Meyer Rohstoffverwertung,['operator: Karl Meyer Rohstoffverwertung'],,"Templiner Straße, 10119 Berlin",,,,,,,,,,,,POINT (13.4080661 52.5319397),Pankow,Prenzlauer Berg,0301,11003003
698776030,,,['glass_bottles'],,13.4859766,52.5112797,,,,"Harnackstraße, 10365 Berlin",,,,yes,,,,,Wheelchair accessible,"hours=Mo-Sa 07:00-13:00,15:00-20:00",,POINT (13.4859766 52.5112797),Lichtenberg,Lichtenberg,1103,11011011
698938901,,,['glass_bottles'],,13.3435103,52.4713002,,,,"Rembrandtstraße, 12157 Berlin",,,,,,,,,,,,POINT (13.3435103 52.4713002),Tempelhof-Schöneberg,Schöneberg,0701,11007007
699534099,,,['glass_bottles'],,13.4936098,52.4103536,,,,"Waßmannsdorfer Chaussee, 12355 Berlin",,,,,,,,,,,,POINT (13.4936098 52.4103536),Neukölln,Rudow,0804,11008008
699540604,,,,,13.5000924,52.4046724,,,,"Schönefelder Straße, 12355 Berlin",,,,,,,,,,,,POINT (13.5000924 52.4046724),Neukölln,Rudow,0804,11008008
701733262,,,['glass_bottles'],,13.6417348,52.3781889,,,,"Godbersenstraße, 12527 Berlin",,,,,,,,,,,,POINT (13.6417348 52.3781889),Treptow-Köpenick,Schmöckwitz,0915,11009009
701809316,,,['glass_bottles'],,13.4857952,52.618705,,,,"Teichbergstraße, 13125 Berlin",,,,,,,,,,,,POINT (13.4857952 52.618705),Pankow,Karow,0305,11003003
704002930,,,['glass_bottles'],,13.3311917,52.4899238,Karl Meyer Rohstoffverwertung,['operator: Karl Meyer Rohstoffverwertung'],,Bundesallee 189 Ecke Tharandter Str.,,,,,,,,,,,,POINT (13.3311917 52.4899238),Charlottenburg-Wilmersdorf,Wilmersdorf,0402,11004004
704913882,,,['glass_bottles'],,13.3360768,52.4947033,Karl Meyer Rohstoffverwertung,['operator: Karl Meyer Rohstoffverwertung'],,"Nachodstraße, 10779 Berlin",,,,,,,,,,,,POINT (13.3360768 52.4947033),Charlottenburg-Wilmersdorf,Wilmersdorf,0402,11004004
705513418,,,['clothes'],,13.3005897,52.5076632,,,,"Fritschestraße, 10627 Berlin",,,,,,,,,,,,POINT (13.3005897 52.5076632),Charlottenburg-Wilmersdorf,Charlottenburg,0401,11004004
707456091,,,['glass_bottles'],,13.3706611,52.5484962,,,,"Wiesenstraße, 13357 Berlin",,,,,,,,,,,,POINT (13.3706611 52.5484962),Mitte,Gesundbrunnen,0106,11001001
710761818,,,['glass_bottles'],,13.5360847,52.4776911,,,,"Stolzenfelsstraße, 10318 Berlin",,,,,,,,,,,,POINT (13.5360847 52.4776911),Lichtenberg,Karlshorst,1102,11011011
712159917,,,['clothes'],,13.4769238,52.5641786,,,,"Piesporter Straße, 13088 Berlin",,,,,,,,,,,,POINT (13.4769238 52.5641786),Pankow,Weißensee,0302,11003003
715040105,,,['clothes'],,13.3477155,52.4465983,,,,"Stephanstraße, 12167 Berlin",,,,,,,,,,,,POINT (13.3477155 52.4465983),Steglitz-Zehlendorf,Steglitz,0601,11006006
715203762,,,['glass_bottles'],,13.3123926,52.479009,BR Berlin Recycling GmbH,['operator: BR Berlin Recycling GmbH'],,"Heidelberger Platz, Höhe U-Bahn Eingang",,,,,,,,,,,,POINT (13.3123926 52.479009),Charlottenburg-Wilmersdorf,Wilmersdorf,0402,11004004
715203808,,,"['glass_bottles', 'glass_bottles_white', 'glass_bottles_green', 'glass_bottles_brown']",,13.3072849,52.477229,Karl Meyer Rohstoffverwertung,['operator: Karl Meyer Rohstoffverwertung'],,"Mecklenburgische Straße, 14197 Berlin",,,,,,,,,,,,POINT (13.3072849 52.477229),Charlottenburg-Wilmersdorf,Wilmersdorf,0402,11004004
715911573,,,"['clothes', 'shoes']",,13.3109955,52.5105155,TEXAID Deutschland,['operator: TEXAID Deutschland'],,"Schillerstraße, 10625 Berlin",,,,,,,,,,,,POINT (13.3109955 52.5105155),Charlottenburg-Wilmersdorf,Charlottenburg,0401,11004004
715911676,,,['glass_bottles'],,13.3000416,52.5100716,Karl Meyer Rohstoffverwertung,['operator: Karl Meyer Rohstoffverwertung'],,"Fritschestraße, 10627 Berlin",,,,,,,,,,,,POINT (13.3000416 52.5100716),Charlottenburg-Wilmersdorf,Charlottenburg,0401,11004004
718143699,,,['glass_bottles'],,13.289686,52.5065385,Karl Meyer Rohstoffverwertung,['operator: Karl Meyer Rohstoffverwertung'],,Neue Kantstr. Ecke Kuno-Fischer-Str.,,,,,,,,,,,,POINT (13.289686 52.5065385),Charlottenburg-Wilmersdorf,Charlottenburg,0401,11004004
718143743,,,['clothes'],,13.2279117,52.5077048,,,,"Heerstraße 136, 14055 Berlin",,,,,,,,,,,,POINT (13.2279117 52.5077048),Charlottenburg-Wilmersdorf,Westend,0405,11004004
718143788,aerowest,,"['glass_bottles', 'glass_bottles_white', 'glass_bottles_green', 'glass_bottles_brown']",,13.2522393,52.5159272,Karl Meyer Rohstoffverwertung,['operator: Karl Meyer Rohstoffverwertung'],,"Olympische Straße, 14052 Berlin",,,,,,,,,,,,POINT (13.2522393 52.5159272),Charlottenburg-Wilmersdorf,Westend,0405,11004004
718143820,,,['glass_bottles'],,13.2282412,52.5074263,Rhenus,['operator: Rhenus'],,Schirwindter Allee 2 ggü. Nähe Scholzplatz neben Aral,,,,,,,,,,,,POINT (13.2282412 52.5074263),Charlottenburg-Wilmersdorf,Westend,0405,11004004
718143856,,,['glass_bottles'],,13.2286519,52.5093155,Karl Meyer Rohstoffverwertung,['operator: Karl Meyer Rohstoffverwertung'],,Schirwindter Allee ggü. Nr. 22,,,,,,,,,,,,POINT (13.2286519 52.5093155),Charlottenburg-Wilmersdorf,Westend,0405,11004004
726675244,,,['glass_bottles'],,13.4498647,52.5267477,,,,"Landsberger Allee, 10249 Berlin",,,,,,,,,,,,POINT (13.4498647 52.5267477),Friedrichshain-Kreuzberg,Friedrichshain,0201,11002002
726675246,,,"['cans', 'paper', 'plastic', 'green_waste']",,13.4495214,52.5266563,,,,"Landsberger Allee, 10249 Berlin",,,,,,,,,,,,POINT (13.4495214 52.5266563),Friedrichshain-Kreuzberg,Friedrichshain,0201,11002002
727851982,,,['glass_bottles'],,13.3493276,52.4914572,Karl Meyer Rohstoffverwertung,['operator: Karl Meyer Rohstoffverwertung'],,"Eisenacher Straße, 10781 Berlin",,,,,,,,,,,,POINT (13.3493276 52.4914572),Tempelhof-Schöneberg,Schöneberg,0701,11007007
727852002,,,['glass_bottles'],,13.3520991,52.4885692,Karl Meyer Rohstoffverwertung,['operator: Karl Meyer Rohstoffverwertung'],,"Apostel-Paulus-Straße, 10823 Berlin",,,,,,,,,,,,POINT (13.3520991 52.4885692),Tempelhof-Schöneberg,Schöneberg,0701,11007007
727852091,,,['glass_bottles'],,13.3588949,52.485693,Karl Meyer Rohstoffverwertung,['operator: Karl Meyer Rohstoffverwertung'],,"Herbertstraße, 10827 Berlin",,,,,,,,,,,,POINT (13.3588949 52.485693),Tempelhof-Schöneberg,Schöneberg,0701,11007007
730172922,,,['glass_bottles'],,13.3643119,52.4954408,Karl Meyer Rohstoffverwertung,['operator: Karl Meyer Rohstoffverwertung'],,"Alvenslebenstraße, 10783 Berlin",,,,,,,,,,,,POINT (13.3643119 52.4954408),Tempelhof-Schöneberg,Schöneberg,0701,11007007
735944516,,,"['clothes', 'shoes']",,13.5632818,52.4466515,,,,"Ottomar-Geschke-Straße, 12555 Berlin",,,,,,,,,,,,POINT (13.5632818 52.4466515),Treptow-Köpenick,Köpenick,0910,11009009
737212481,,,['glass_bottles'],,13.4396464,52.5411124,,,,"Storkower Straße, 10409 Berlin",,,,,,,,,,,,POINT (13.4396464 52.5411124),Pankow,Prenzlauer Berg,0301,11003003
737216262,,,['glass_bottles'],"['clothes', 'cans', 'paper', 'plastic']",13.4294318,52.5449491,Karl Meyer Rohstoffverwertung GmbH,['operator: Karl Meyer Rohstoffverwertung GmbH'],,"Grellstraße, 10409",,,,,,,,,,,,POINT (13.4294318 52.5449491),Pankow,Prenzlauer Berg,0301,11003003
737216267,,,['glass_bottles'],,13.4320442,52.5438226,,,,"Grellstraße, 10409 Berlin",,,,,,,,,,,,POINT (13.4320442 52.5438226),Pankow,Prenzlauer Berg,0301,11003003
743382953,,,['glass_bottles'],,13.3388778,52.5329326,,,,"Unionstraße, 10551 Berlin",,,,,,,,,,,,POINT (13.3388778 52.5329326),Mitte,Moabit,0102,11001001
752903317,,,['glass_bottles'],,13.4526791,52.4726658,Karl Meyer Rohstoffverwertung,['operator: Karl Meyer Rohstoffverwertung'],,"Schudomastraße, 12055 Berlin",,,,,,,,,,,,POINT (13.4526791 52.4726658),Neukölln,Neukölln,0801,11008008
761371627,,,['glass_bottles'],,13.5640995,52.4457914,,,,"Oberspreestraße, 12555 Berlin",,,yes,,,,,,,,,POINT (13.5640995 52.4457914),Treptow-Köpenick,Köpenick,0910,11009009
762003698,,,['glass_bottles'],,13.5757771,52.4900402,,,,"Chemnitzer Straße, 12621 Berlin",,,,,,,,,,,,POINT (13.5757771 52.4900402),Marzahn-Hellersdorf,Kaulsdorf,1003,11010010
762607349,,,['clothes'],,13.3499131,52.5420366,Familienschutzwerk,['operator: Familienschutzwerk'],,"Torfstraße, 13353 Berlin",,,,,,,,,,,,POINT (13.3499131 52.5420366),Mitte,Wedding,0105,11001001
762607352,,,['glass_bottles'],,13.3499436,52.5420068,Karl Meyer Rohstoffverwertung,['operator: Karl Meyer Rohstoffverwertung'],,"Torfstraße, 13353 Berlin",,,,,,,,,,,,POINT (13.3499436 52.5420068),Mitte,Wedding,0105,11001001
764609993,survey,,['glass_bottles'],,13.447836,52.4979991,Karl Meyer Rohstoffverwertung,['operator: Karl Meyer Rohstoffverwertung'],,"Schlesische Straße, 10997 Berlin",,,,yes,,,0.0,,Wheelchair accessible,,,POINT (13.447836 52.4979991),Friedrichshain-Kreuzberg,Kreuzberg,0202,11002002
766484393,,,['glass_bottles'],,13.4587991,52.5272039,,,,"Storkower Straße, 10369 Berlin",,,,,,,,,,,,POINT (13.4587991 52.5272039),Lichtenberg,Fennpfuhl,1111,11011011
766718536,,,['glass_bottles'],,13.4214277,52.5824598,,,,"Karower Straße, 13156 Berlin",,,,,,,,,,,,POINT (13.4214277 52.5824598),Pankow,Niederschönhausen,0311,11003003
766728455,,,['glass_bottles'],,13.4134212,52.488687,Karl Meyer Rohstoffverwertung,['operator: Karl Meyer Rohstoffverwertung'],,"Fichtestraße, 10967 Berlin",,,,,,,,,,,,POINT (13.4134212 52.488687),Friedrichshain-Kreuzberg,Kreuzberg,0202,11002002
768871965,,,"['glass_bottles', 'glass_bottles_white', 'glass_bottles_green', 'glass_bottles_brown']",,13.2899543,52.4757409,Karl Meyer Rohstoffverwertung,['operator: Karl Meyer Rohstoffverwertung'],,Friedrichshaller Str. Ecke Breite Str. / Berkaer Str.,,,,,,,,,,,,POINT (13.2899543 52.4757409),Charlottenburg-Wilmersdorf,Schmargendorf,0403,11004004
770651401,,,"['clothes', 'shoes']",,13.4333751,52.5577404,Deutsches Rotes Kreuz,['operator: Deutsches Rotes Kreuz'],,"Am Steinberg, 13086 Berlin",,,,,,,,,,,,POINT (13.4333751 52.5577404),Pankow,Weißensee,0302,11003003
775342942,,,"['glass_bottles', 'clothes']",,13.3059399,52.4591099,Karl Meyer Rohstoffverwertung,['operator: Karl Meyer Rohstoffverwertung'],,"Königin-Luise-Straße, 14195 Berlin",,,,,,,,,,,,POINT (13.3059399 52.4591099),Steglitz-Zehlendorf,Steglitz,0601,11006006
779033050,,,['glass_bottles'],,13.4061901,52.505638,,,,"Alexandrinenstraße, 10969 Berlin",,,,,,,,,,,,POINT (13.4061901 52.505638),Friedrichshain-Kreuzberg,Kreuzberg,0202,11002002
783500754,,,['glass_bottles'],,13.4464436,52.5113242,Karl Meyer Rohstoffverwertung,['operator: Karl Meyer Rohstoffverwertung'],,"Rüdersdorfer Straße, 10243 Berlin",,,,,,,,,,"hours=Mo-Sa 07:00-13:00,15:00-20:00",,POINT (13.4464436 52.5113242),Friedrichshain-Kreuzberg,Friedrichshain,0201,11002002
790502649,,,['glass_bottles'],,13.4190374,52.5343193,Karl Meyer Rohstoffverwertung,['operator: Karl Meyer Rohstoffverwertung'],,"Knaackstraße, 10405 Berlin",,,,,,,,,,,,POINT (13.4190374 52.5343193),Pankow,Prenzlauer Berg,0301,11003003
790509210,,,['clothes'],,13.4230098,52.5258235,Karl Meyer Rohstoffverwertung,['operator: Karl Meyer Rohstoffverwertung'],,"Barnimstraße, 10249 Berlin",,,,,,,,,,,,POINT (13.4230098 52.5258235),Friedrichshain-Kreuzberg,Friedrichshain,0201,11002002
793020070,survey,,['glass_bottles'],,13.3906406,52.5365496,Karl Meyer Rohstoffverwertung,['operator: Karl Meyer Rohstoffverwertung'],,"Hussitenstraße, 13355 Berlin",,,,,,,0.0,,,,,POINT (13.3906406 52.5365496),Mitte,Gesundbrunnen,0106,11001001
793735858,,,"['clothes', 'shoes']",,13.3991853,52.5386552,RS,['operator: RS'],,"Ruppiner Straße, 10115 Berlin",,,,,,,,,,,,POINT (13.3991853 52.5386552),Mitte,Mitte,0101,11001001
799244028,,,['glass_bottles'],,13.4640787,52.51292,,,,"Scharnweberstraße, 10247 Berlin",,,,,,,,,,,,POINT (13.4640787 52.51292),Friedrichshain-Kreuzberg,Friedrichshain,0201,11002002
801749159,,,['glass_bottles'],,13.4145711,52.504279,,,,"Luckauer Straße, 10999 Berlin",,,,,,,,,,,,POINT (13.4145711 52.504279),Friedrichshain-Kreuzberg,Kreuzberg,0202,11002002
801993440,,,,,13.3188242,52.4137162,,,,"Osdorfer Straße, 12207 Berlin",,,,,,,,,,,,POINT (13.3188242 52.4137162),Steglitz-Zehlendorf,Lichterfelde,0602,11006006
801994162,,,['glass_bottles'],,13.3172846,52.4118086,,,,"Mercatorweg, 12207 Berlin",,,,,,,,,,,,POINT (13.3172846 52.4118086),Steglitz-Zehlendorf,Lichterfelde,0602,11006006
802697241,,,['glass_bottles'],,13.3611328,52.4961463,Karl Meyer Rohstoffverwertung,['operator: Karl Meyer Rohstoffverwertung'],,"Potsdamer Straße, 10783 Berlin",,,,,,,,,,,,POINT (13.3611328 52.4961463),Tempelhof-Schöneberg,Schöneberg,0701,11007007
809926775,,,['glass_bottles'],,13.2144891,52.5630498,Berliner Stadtreinigungsbetriebe,"['operator: Berliner Stadtreinigungsbetriebe', 'operator:short: BSR']",,"Goltzstraße, 13587 Berlin",,,,yes,,,,,Wheelchair accessible,,,POINT (13.2144891 52.5630498),Spandau,Hakenfelde,0507,11005005
818852684,,,['glass_bottles'],,13.452075,52.5395821,,,,"Hanns-Eisler-Straße, 10409 Berlin",,,,,,,,,,,,POINT (13.452075 52.5395821),Pankow,Prenzlauer Berg,0301,11003003
823788768,,,['glass_bottles'],,13.3034173,52.4495551,Karl Meyer Rohstoffverwertung,['operator: Karl Meyer Rohstoffverwertung'],,"Asternplatz, 12203 Berlin",,contact:website: https://berlin-recycling.de,,,,,0.0,,,"hours=Mo-Sa 07:00-13:00, 15:00-20:00",,POINT (13.3034173 52.4495551),Steglitz-Zehlendorf,Lichterfelde,0602,11006006
824505895,,,['glass_bottles'],,13.3908972,52.4877956,Karl Meyer Rohstoffverwertung,['operator: Karl Meyer Rohstoffverwertung'],,"Willibald-Alexis-Straße, 10965 Berlin",,,,,,,,,,,,POINT (13.3908972 52.4877956),Friedrichshain-Kreuzberg,Kreuzberg,0202,11002002
829287428,,,['glass_bottles'],,13.3392348,52.4615266,,,,"Bismarckstraße, 12157 Berlin",,,,,,,,,,,,POINT (13.3392348 52.4615266),Steglitz-Zehlendorf,Steglitz,0601,11006006
829287977,,,['glass_bottles'],,13.3450342,52.4616365,,,,"Thorwaldsenstraße, 12157 Berlin",,,,,,,,,,,,POINT (13.3450342 52.4616365),Steglitz-Zehlendorf,Steglitz,0601,11006006
830077041,,,,,13.4321876,52.5497418,,,,"Ostseestraße, 10409 Berlin",,,private,,,,,,Access restricted (private),,,POINT (13.4321876 52.5497418),Pankow,Prenzlauer Berg,0301,11003003
831530060,,,['glass_bottles'],,13.3677036,52.5746038,Karl Meyer Rohstoffverwertung,['operator: Karl Meyer Rohstoffverwertung'],,"Klemkestraße, 13409 Berlin",,,,,,,,,,,,POINT (13.3677036 52.5746038),Reinickendorf,Reinickendorf,1201,11012012
831530114,,,['clothes'],,13.3679061,52.5746738,,,,"Klemkestraße, 13409 Berlin",,,,yes,,,,,Wheelchair accessible,hours=24/7,,POINT (13.3679061 52.5746738),Reinickendorf,Reinickendorf,1201,11012012
832549923,,,['glass_bottles'],,13.3667106,52.5580505,Gew. Fa. Mettex,['operator: Gew. Fa. Mettex'],,"Reginhardstraße, 13409 Berlin",,,,,,,,,,,,POINT (13.3667106 52.5580505),Mitte,Gesundbrunnen,0106,11001001
832549963,,,['glass_bottles'],,13.3667606,52.5580632,Karl Meyer Rohstoffverwertung,['operator: Karl Meyer Rohstoffverwertung'],,"Reginhardstraße, 13409 Berlin",,,,,,,,,,,,POINT (13.3667606 52.5580632),Mitte,Gesundbrunnen,0106,11001001
832835230,,,['glass_bottles'],,13.3672002,52.5521892,Karl Meyer Rohstoffverwertung,['operator: Karl Meyer Rohstoffverwertung'],,"Reinickendorfer Straße, 13347 Berlin",,,,,,,,,,,,POINT (13.3672002 52.5521892),Mitte,Wedding,0105,11001001
832835258,,,"['clothes', 'shoes']",,13.3657411,52.5548419,Gew. Fa. Mettex,['operator: Gew. Fa. Mettex'],,"Reinickendorfer Straße, 13347 Berlin",,,,,,,,,,,,POINT (13.3657411 52.5548419),Mitte,Wedding,0105,11001001
832913693,,,['glass_bottles'],,13.3880473,52.6208296,,,,"Schildower Straße, 13159 Berlin",,,,,,,,,,,,POINT (13.3880473 52.6208296),Pankow,Blankenfelde,0308,11003003
833044272,,,['glass_bottles'],,13.5147372,52.4460212,,,,"Groß-Berliner Damm, 12487 Berlin",,,,,,,,,,"hours=Mo-Fr 07:00-13:00,15:00-20:00; PH closed",,POINT (13.5147372 52.4460212),Treptow-Köpenick,Johannisthal,0904,11009009
833045001,,,['clothes'],,13.5055483,52.4539935,,,,"Südostallee 212, 12487 Berlin",,,,,,,,,,,,POINT (13.5055483 52.4539935),Treptow-Köpenick,Johannisthal,0904,11009009
833177053,,,['glass_bottles'],,13.4361101,52.4979143,Karl Meyer Rohstoffverwertung,['operator: Karl Meyer Rohstoffverwertung'],,"Görlitzer Straße, 10997 Berlin",,,,,,,,,,,,POINT (13.4361101 52.4979143),Friedrichshain-Kreuzberg,Kreuzberg,0202,11002002
835804609,,,['clothes'],,13.4971784,52.4372432,,,,"Springbornstraße, 12487 Berlin",,,,,,,,,,,,POINT (13.4971784 52.4372432),Treptow-Köpenick,Johannisthal,0904,11009009
835804757,,,['clothes'],,13.497113,52.4401595,,,,"Springbornstraße 250, 12487 Berlin",,,,,,,,,,,,POINT (13.497113 52.4401595),Treptow-Köpenick,Johannisthal,0904,11009009
835805178,,,['clothes'],,13.4932322,52.4386004,,,,"Springbornstraße, 12487 Berlin",,,,,,,,,,,,POINT (13.4932322 52.4386004),Treptow-Köpenick,Johannisthal,0904,11009009
835805867,,,['glass_bottles'],,13.4931487,52.4386724,,,,"Springbornstraße, 12487 Berlin",,,,,parking obstruction,,,,Obstacles: parking obstruction,,,POINT (13.4931487 52.4386724),Treptow-Köpenick,Johannisthal,0904,11009009
837696579,,,['clothes'],,13.5141208,52.447966,,,,"Pilotenstraße, 12487 Berlin",,,,,,,,,,,,POINT (13.5141208 52.447966),Treptow-Köpenick,Johannisthal,0904,11009009
837697248,,,"['clothes', 'shoes']",,13.5096802,52.4504759,,,,"Pietschkerstraße, 12487 Berlin",,,,,,,,,,,,POINT (13.5096802 52.4504759),Treptow-Köpenick,Johannisthal,0904,11009009
846642223,,,['glass_bottles'],,13.3331522,52.4822309,Karl Meyer Rohstoffverwertung,['operator: Karl Meyer Rohstoffverwertung'],,Prinzregentenstr. 35 Ecke Am Volkspark,,,,,,,,,,,,POINT (13.3331522 52.4822309),Charlottenburg-Wilmersdorf,Wilmersdorf,0402,11004004
849518351,,,['glass_bottles'],,13.5979887,52.4414702,,,,"Erwin-Bock-Straße, 12559 Berlin",,,,,,,,,,,,POINT (13.5979887 52.4414702),Treptow-Köpenick,Köpenick,0910,11009009
851572172,,,['glass_bottles'],,13.5310079,52.404977,,,,"Ortolfstraße, 12524 Berlin",,,,,,,,,,,,POINT (13.5310079 52.404977),Treptow-Köpenick,Altglienicke,0906,11009009
851572206,,,['glass_bottles'],,13.5265796,52.4012739,,,,"Siriusstraße, 12524 Berlin",,,,,,,,,,,,POINT (13.5265796 52.4012739),Treptow-Köpenick,Altglienicke,0906,11009009
851572318,,,['glass_bottles'],,13.5258583,52.406534,,,,"Venusstraße, 12524 Berlin",,,,,,,,,,,,POINT (13.5258583 52.406534),Treptow-Köpenick,Altglienicke,0906,11009009
851572524,,,['clothes'],,13.5355462,52.4179618,,,,"Schönefelder Chaussee, 12524 Berlin",,,,,,,,,,,,POINT (13.5355462 52.4179618),Treptow-Köpenick,Altglienicke,0906,11009009
851572590,,,['glass_bottles'],,13.5586995,52.410232,,,,"Rosestraße, 12524 Berlin",,,,,,,,,,,,POINT (13.5586995 52.410232),Treptow-Köpenick,Altglienicke,0906,11009009
851572679,,,['glass_bottles'],,13.547842,52.4171325,,,,"Germanenplatz, 12524 Berlin",,,,,,,,,,,,POINT (13.547842 52.4171325),Treptow-Köpenick,Altglienicke,0906,11009009
851572967,,,['glass_bottles'],,13.5272745,52.4246024,,,,"Semmelweisstraße, 12524 Berlin",,,,,,,,,,,,POINT (13.5272745 52.4246024),Treptow-Köpenick,Altglienicke,0906,11009009
853380844,,,['glass_bottles'],,13.4997665,52.4597499,,,,"Rixdorfer Straße, 12487 Berlin",,,,limited,,,,,Limited wheelchair access,,,POINT (13.4997665 52.4597499),Treptow-Köpenick,Baumschulenweg,0903,11009009
853810625,survey,,['glass_bottles'],,13.3970778,52.488942,Karl Meyer Rohstoffverwertung,['operator: Karl Meyer Rohstoffverwertung'],,"Bergmannstraße, 10961 Berlin",,,,,,,0.0,,,,,POINT (13.3970778 52.488942),Friedrichshain-Kreuzberg,Kreuzberg,0202,11002002
853852735,,,['glass_bottles'],,13.4105734,52.4139766,,,,"Baldersheimer Weg, 12349 Berlin",,,,,,,,,,,,POINT (13.4105734 52.4139766),Neukölln,Buckow,0803,11008008
853852739,,,['glass_bottles'],,13.4060799,52.4161093,,,,"Grauwackeweg, 12349 Berlin",,,,,,,,,,,,POINT (13.4060799 52.4161093),Neukölln,Buckow,0803,11008008
854327266,,,['glass_bottles'],,13.4346484,52.5356465,,,,"Danziger Straße, 10407 Berlin",,,,,,,,,,,,POINT (13.4346484 52.5356465),Pankow,Prenzlauer Berg,0301,11003003
854333484,,,['glass_bottles'],,13.3373641,52.4624749,,,,"Sachsenwaldstraße, 12157 Berlin",,,,,,,,,,,,POINT (13.3373641 52.4624749),Steglitz-Zehlendorf,Steglitz,0601,11006006
855356177,,,['glass_bottles'],,13.5285195,52.4123849,,,,"Schönefelder Chaussee, 12524 Berlin",,,,,,,,,,,,POINT (13.5285195 52.4123849),Treptow-Köpenick,Altglienicke,0906,11009009
855356560,,,['glass_bottles'],,13.5243961,52.4057504,,,,"Schönefelder Chaussee, 12524 Berlin",,,,,,,,,,,,POINT (13.5243961 52.4057504),Treptow-Köpenick,Altglienicke,0906,11009009
856852056,,,['clothes'],,13.5112604,52.447065,,,,"Pilotenstraße, 12487 Berlin",,,,,,,,,,,,POINT (13.5112604 52.447065),Treptow-Köpenick,Johannisthal,0904,11009009
859558760,,,['glass_bottles'],,13.5356545,52.4400324,,,,"Neltestraße, 12489 Berlin",,,,,,,,,,,,POINT (13.5356545 52.4400324),Treptow-Köpenick,Adlershof,0907,11009009
861798091,,,['glass_bottles'],,13.4326808,52.4991694,Karl Meyer Rohstoffverwertung,['operator: Karl Meyer Rohstoffverwertung'],,"Görlitzer Straße, 10997 Berlin",,,,,,,,,,"hours=Mo-Sa 07:00-13:00, 15:00-20:00; Su,PH off",,POINT (13.4326808 52.4991694),Friedrichshain-Kreuzberg,Kreuzberg,0202,11002002
864945521,,,['clothes'],,13.3946182,52.4641608,,,,"Götzstraße, 12099 Berlin",,,,,,,,,,,,POINT (13.3946182 52.4641608),Tempelhof-Schöneberg,Tempelhof,0703,11007007
865282143,,,"['glass_bottles', 'glass_bottles_white', 'glass_bottles_green', 'glass_bottles_brown']",,13.3256788,52.5216065,Karl Meyer Rohstoffverwertung,['operator: Karl Meyer Rohstoffverwertung'],,Helmholtzstr. ggü. Nr. 28,,,,,,,,,,,,POINT (13.3256788 52.5216065),Charlottenburg-Wilmersdorf,Charlottenburg,0401,11004004
874146200,,,['glass_bottles'],,13.1637043,52.5516317,,,,"Falkenseer Chaussee, 13589 Berlin",,,,,,,,,,,,POINT (13.1637043 52.5516317),Spandau,Falkenhagener Feld,0508,11005005
874146205,,,['glass_bottles'],,13.1715152,52.5501356,,,,"Falkenseer Chaussee, 13589 Berlin",,,,,,,,,,,,POINT (13.1715152 52.5501356),Spandau,Falkenhagener Feld,0508,11005005
884859291,,,['glass_bottles'],,13.5335601,52.4599252,,,,"Waldowplatz, 12459 Berlin",,,,,,,,,,,,POINT (13.5335601 52.4599252),Treptow-Köpenick,Oberschöneweide,0909,11009009
884859342,,,['glass_bottles'],,13.5214177,52.461054,,,,"Firlstraße, 12459 Berlin",,,,,,,,,,,,POINT (13.5214177 52.461054),Treptow-Köpenick,Oberschöneweide,0909,11009009
884890208,,,['glass_bottles'],,13.4649924,52.5071659,Karl Meyer Rohstoffverwertung,['operator: Karl Meyer Rohstoffverwertung'],,"Holteistraße, 10245 Berlin",,,,,,,,,,,,POINT (13.4649924 52.5071659),Friedrichshain-Kreuzberg,Friedrichshain,0201,11002002
918358084,,,"['glass_bottles', 'glass_bottles_white', 'glass_bottles_green', 'glass_bottles_brown']",,13.2903219,52.5189274,Karl Meyer Rohstoffverwertung,['operator: Karl Meyer Rohstoffverwertung'],,"Spandauer Damm, 14059 Berlin",,,,,,,,,,,,POINT (13.2903219 52.5189274),Charlottenburg-Wilmersdorf,Charlottenburg,0401,11004004
919808836,,,['glass_bottles'],,13.34786,52.4857974,Karl Meyer Rohstoffverwertung,['operator: Karl Meyer Rohstoffverwertung'],,"Gothaer Straße, 10823 Berlin",,,,,,,,,,,,POINT (13.34786 52.4857974),Tempelhof-Schöneberg,Schöneberg,0701,11007007
921503175,,,['glass_bottles'],,13.3800068,52.4977021,Karl Meyer Rohstoffverwertung,['operator: Karl Meyer Rohstoffverwertung'],,"Möckernstraße, 10963 Berlin",,,,,,,,,,,,POINT (13.3800068 52.4977021),Friedrichshain-Kreuzberg,Kreuzberg,0202,11002002
922500807,,,['glass_bottles'],,13.5051227,52.5178734,,,,"Gotlindestraße, 10365 Berlin",,,private,,,,,,Access restricted (private),,,POINT (13.5051227 52.5178734),Lichtenberg,Lichtenberg,1103,11011011
924592708,,,['glass_bottles'],,13.4905839,52.4048025,,,,"Waßmannsdorfer Chaussee, 12355 Berlin",,,,,,,,,,,,POINT (13.4905839 52.4048025),Neukölln,Rudow,0804,11008008
926632450,,,['glass_bottles'],,13.4358834,52.5217582,,,,"Friedenstraße, 10249 Berlin",,,,,,,,,,,,POINT (13.4358834 52.5217582),Friedrichshain-Kreuzberg,Friedrichshain,0201,11002002
926945643,,,['clothes'],,13.3284308,52.5299299,Deutsches Rotes Kreuz,['operator: Deutsches Rotes Kreuz'],,"Beusselstraße, 10553 Berlin",,,,,,,,,,,,POINT (13.3284308 52.5299299),Mitte,Moabit,0102,11001001
937153160,,,['glass_bottles'],,13.4949467,52.4318999,,,,"Seidelbastweg, 12357 Berlin",,,,,,,,,,,,POINT (13.4949467 52.4318999),Neukölln,Rudow,0804,11008008
937385028,,,['glass_bottles'],,13.4481781,52.4812443,,,,"Werrastraße, 12059 Berlin",,,,,,,,,,,,POINT (13.4481781 52.4812443),Neukölln,Neukölln,0801,11008008
937964262,,,['glass_bottles'],,13.4860905,52.4247903,,,,"Stubenrauchstraße, 12357 Berlin",,,,,,,,,,,,POINT (13.4860905 52.4247903),Neukölln,Rudow,0804,11008008
937964565,,,['glass_bottles'],,13.42022,52.3903811,,,,"Nahariyastraße, 12309 Berlin",,,,,,,,,,,,POINT (13.42022 52.3903811),Tempelhof-Schöneberg,Lichtenrade,0706,11007007
937965208,,,['glass_bottles'],,13.4903862,52.4134906,,,,"Groß-Ziethener Chaussee, 12355 Berlin",,,,,,,,,,,,POINT (13.4903862 52.4134906),Neukölln,Rudow,0804,11008008
937965360,,,['glass_bottles'],,13.4838161,52.4166393,,,,"Bildhauerweg, 12355 Berlin",,,,,,,,,,,,POINT (13.4838161 52.4166393),Neukölln,Rudow,0804,11008008
937965437,,,['clothes'],,13.4840775,52.4233134,,,,"Zwickauer Damm, 12353 Berlin",,,,,,,,,,,,POINT (13.4840775 52.4233134),Neukölln,Gropiusstadt,0805,11008008
937965627,,,['glass_bottles'],,13.4845339,52.423196,,,,"Sattlerstraße, 12355 Berlin",,,,,,,,,,,,POINT (13.4845339 52.423196),Neukölln,Rudow,0804,11008008
937965725,,,['glass_bottles'],,13.4946089,52.4309913,,,,"Stubenrauchstraße, 12357 Berlin",,,,,,,,,,,,POINT (13.4946089 52.4309913),Neukölln,Rudow,0804,11008008
942862141,,,"['glass_bottles', 'clothes', 'shoes']",,13.5768683,52.4030508,,,,"Schulzendorfer Straße, 12526 Berlin",,,,,,,,,,,,POINT (13.5768683 52.4030508),Treptow-Köpenick,Bohnsdorf,0908,11009009
942863649,,,['glass_bottles'],,13.5827279,52.3935365,,,,"Eichbuschplatz, 12526 Berlin",,,,,,,,,,,,POINT (13.5827279 52.3935365),Treptow-Köpenick,Bohnsdorf,0908,11009009
944604661,,,['glass_bottles'],,13.5472138,52.5482971,,,,"Zühlsdorfer Straße, 12679 Berlin",,,,,,,,,,,,POINT (13.5472138 52.5482971),Marzahn-Hellersdorf,Marzahn,1001,11010010
946947315,,,['glass_bottles'],,13.5606542,52.4033896,,,,"Paradiesstraße, 12526 Berlin",,,,,parking obstruction,,,,Obstacles: parking obstruction,,,POINT (13.5606542 52.4033896),Treptow-Köpenick,Bohnsdorf,0908,11009009
946947593,,,['clothes'],,13.5607441,52.4036568,,,,"Paradiesstraße, 12526 Berlin",,,,,,,,,,,,POINT (13.5607441 52.4036568),Treptow-Köpenick,Bohnsdorf,0908,11009009
946947869,,,['glass_bottles'],,13.5616208,52.4009421,,,,"Paradiesstraße, 12526 Berlin",,,,,,,,,,,,POINT (13.5616208 52.4009421),Treptow-Köpenick,Bohnsdorf,0908,11009009
948654950,,,['glass_bottles'],,13.4915525,52.4206526,,,,"Alt-Rudow, 12357 Berlin",,,,,,,,,,,,POINT (13.4915525 52.4206526),Neukölln,Rudow,0804,11008008
948654983,,,['glass_bottles'],,13.5019542,52.4278736,,,,"Mistelweg, 12357 Berlin",,,,,,,,,,,,POINT (13.5019542 52.4278736),Neukölln,Rudow,0804,11008008
948655119,,,['glass_bottles'],,13.4896753,52.4197724,,,,"Bildhauerweg, 12355 Berlin",,,,,,,,,,,,POINT (13.4896753 52.4197724),Neukölln,Rudow,0804,11008008
948655153,,,['clothes'],,13.501819,52.4183961,,,,"Neudecker Weg, 12355 Berlin",,,,,,,,,,,,POINT (13.501819 52.4183961),Neukölln,Rudow,0804,11008008
948655796,,,['clothes'],,13.5118962,52.4232776,,,,"Köpenicker Straße, 12355 Berlin",,,,,,,,,,,,POINT (13.5118962 52.4232776),Neukölln,Rudow,0804,11008008
948655804,,,['glass_bottles'],,13.5141735,52.424239,,,,"Kanalstraße, 12357 Berlin",,,,,,,,,,,,POINT (13.5141735 52.424239),Neukölln,Rudow,0804,11008008
948655907,,,['glass_bottles'],,13.4997919,52.4172608,,,,"Deutschtaler Straße, 12355 Berlin",,,,,,,,,,,,POINT (13.4997919 52.4172608),Neukölln,Rudow,0804,11008008
948656042,,,['glass_bottles'],,13.5012338,52.4202118,,,,"Köpenicker Straße, 12355 Berlin",,,,,,,,,,,,POINT (13.5012338 52.4202118),Neukölln,Rudow,0804,11008008
948656045,,,['clothes'],,13.4946495,52.4164176,,,,"Neuköllner Straße, 12355 Berlin",,,,,,,,,,,,POINT (13.4946495 52.4164176),Neukölln,Rudow,0804,11008008
948656075,,,"['clothes', 'shoes']",,13.4875507,52.4222193,,,,"Neuköllner Straße, 12357 Berlin",,,,,,,,,,,,POINT (13.4875507 52.4222193),Neukölln,Rudow,0804,11008008
948656111,,,['glass_bottles'],,13.5055415,52.4186196,,,,"Selgenauer Weg, 12355 Berlin",,,,,,,,,,,,POINT (13.5055415 52.4186196),Neukölln,Rudow,0804,11008008
956276550,,,['glass_bottles'],,13.514252,52.4157965,,,,"Künnekeweg, 12355 Berlin",,,,,,,,,,,,POINT (13.514252 52.4157965),Neukölln,Rudow,0804,11008008
956276614,,,['clothes'],,13.5081179,52.4035287,,,,"Elfriede-Kuhr-Straße, 12355 Berlin",,,,,,,,,,,,POINT (13.5081179 52.4035287),Neukölln,Rudow,0804,11008008
956276717,,,['clothes'],,13.5237463,52.401925,,,,"Siriusstraße, 12524 Berlin",,,,,,,,,,,,POINT (13.5237463 52.401925),Treptow-Köpenick,Altglienicke,0906,11009009
956276836,,,['clothes'],,13.4986872,52.4106029,,,,"Neuhofer Straße, 12355 Berlin",,,,,,,,,,,,POINT (13.4986872 52.4106029),Neukölln,Rudow,0804,11008008
956276870,,,['clothes'],,13.5121949,52.4026984,,,,"Waltersdorfer Chaussee, 12355 Berlin",,,,,,,,,,,,POINT (13.5121949 52.4026984),Neukölln,Rudow,0804,11008008
956276929,,,"['clothes', 'shoes']",,13.5070337,52.4031322,TEXAID Deutschland,['operator: TEXAID Deutschland'],,"Lieselotte-Berger-Straße, 12355 Berlin",,,,,,,,,,,,POINT (13.5070337 52.4031322),Neukölln,Rudow,0804,11008008
956277024,,,['clothes'],,13.5140002,52.416017,Jugendhilfe e.V.,['operator: Jugendhilfe e.V.'],,"Lettberger Straße, 12355 Berlin",,,,,,,,,,,,POINT (13.5140002 52.416017),Neukölln,Rudow,0804,11008008
957862932,,,['glass_bottles'],,13.416429,52.5027345,,,,"Oranienplatz, 10999 Berlin",,,,,,,,,,,,POINT (13.416429 52.5027345),Friedrichshain-Kreuzberg,Kreuzberg,0202,11002002
958860088,,,['glass_bottles'],,13.4051623,52.5220888,,,,"Rochstraße, 10178 Berlin",,,,,,,,,,,,POINT (13.4051623 52.5220888),Mitte,Mitte,0101,11001001
961626597,survey,,['glass_bottles'],,13.4034413,52.527267,Karl Meyer Rohstoffverwertung,['operator: Karl Meyer Rohstoffverwertung'],,"Kleine Rosenthaler Straße, 10119 Berlin",,,,yes,,,0.0,,Wheelchair accessible,,,POINT (13.4034413 52.527267),Mitte,Mitte,0101,11001001
961626645,survey,,['glass_bottles'],,13.4034481,52.5272229,Bera Textilrecycling,['operator: Bera Textilrecycling'],,"Kleine Rosenthaler Straße, 10119 Berlin",,,,yes,,,0.0,,Wheelchair accessible,,,POINT (13.4034481 52.5272229),Mitte,Mitte,0101,11001001
963600605,,,['glass_bottles'],,13.3972985,52.5237641,RS,['operator: RS'],,"Oranienburger Straße, 10117 Berlin",,,,,,,,,,,,POINT (13.3972985 52.5237641),Mitte,Mitte,0101,11001001
963600641,,,['glass_bottles'],,13.3971987,52.5237868,Karl Meyer Rohstoffverwertung,['operator: Karl Meyer Rohstoffverwertung'],,"Oranienburger Straße, 10117 Berlin",,,,,,,,,,,,POINT (13.3971987 52.5237868),Mitte,Mitte,0101,11001001
963643052,,,['glass_bottles'],,13.3910334,52.4922484,Karl Meyer Rohstoffverwertung,['operator: Karl Meyer Rohstoffverwertung'],,"Gneisenaustraße, 10961 Berlin",,,,,,,,,,,,POINT (13.3910334 52.4922484),Friedrichshain-Kreuzberg,Kreuzberg,0202,11002002
963681287,,,['glass_bottles'],,13.3978396,52.49088,Karl Meyer Rohstoffverwertung,['operator: Karl Meyer Rohstoffverwertung'],,"Schleiermacherstraße, 10961 Berlin",,,,,,,,,,,,POINT (13.3978396 52.49088),Friedrichshain-Kreuzberg,Kreuzberg,0202,11002002
963681293,,,['glass_bottles'],,13.4022158,52.4851587,Karl Meyer Rohstoffverwertung,['operator: Karl Meyer Rohstoffverwertung'],,"Züllichauer Straße, 10965 Berlin",,,,,,,,,,,,POINT (13.4022158 52.4851587),Friedrichshain-Kreuzberg,Kreuzberg,0202,11002002
963695809,,,['glass_bottles'],,13.4100864,52.546176,,,,"Cantianstraße, 10437 Berlin",,,,,,,,,,,,POINT (13.4100864 52.546176),Pankow,Prenzlauer Berg,0301,11003003
967206095,,,['clothes'],,13.2879878,52.499298,GAK Textilrecycling,['operator: GAK Textilrecycling'],,"Ringbahnstraße, 10711 Berlin",,,,,,,,,,,,POINT (13.2879878 52.499298),Charlottenburg-Wilmersdorf,Halensee,0407,11004004
968062920,,,['glass_bottles'],,13.329559,52.4599315,,,,"Körnerstraße, 12169 Berlin",,,,,,,,,,,,POINT (13.329559 52.4599315),Steglitz-Zehlendorf,Steglitz,0601,11006006
968062923,,,"['clothes', 'shoes']",,13.3296376,52.4597584,,,,"Joachim-Tiburtius-Brücke, 12157 Berlin",,,,,,,,,,,,POINT (13.3296376 52.4597584),Steglitz-Zehlendorf,Steglitz,0601,11006006
968062927,,,"['clothes', 'shoes']",,13.3297043,52.4592986,Firma Rotextil,['operator: Firma Rotextil'],,"Körnerstraße, 12169 Berlin",,,,,,,,,,,,POINT (13.3297043 52.4592986),Steglitz-Zehlendorf,Steglitz,0601,11006006
972319896,,,['glass_bottles'],,13.4158312,52.5099962,Karl Meyer Rohstoffverwertung,['operator: Karl Meyer Rohstoffverwertung'],,"Heinrich-Heine-Straße, 10179 Berlin",,,,,,,,,,,,POINT (13.4158312 52.5099962),Mitte,Mitte,0101,11001001
975866429,,,['glass_bottles'],,13.4002459,52.4903906,,,,"Baerwaldstraße, 10961 Berlin",,,,,,,,,,,,POINT (13.4002459 52.4903906),Friedrichshain-Kreuzberg,Kreuzberg,0202,11002002
975885891,,,['glass_bottles'],,13.4139915,52.4933321,Karl Meyer Rohstoffverwertung,['operator: Karl Meyer Rohstoffverwertung'],,"Dieffenbachstraße, 10967 Berlin",,,,,,,,,,,,POINT (13.4139915 52.4933321),Friedrichshain-Kreuzberg,Kreuzberg,0202,11002002
985901930,,,['glass_bottles'],,13.4942476,52.6274872,,,,"Bruno-Apitz-Straße, 13125 Berlin",,,,,,,,,,,,POINT (13.4942476 52.6274872),Pankow,Buch,0309,11003003
986312021,,,"['clothes', 'shoes']",,13.293417,52.4885794,Humana,['operator: Humana'],,"Charlottenbrunner Straße, 14193 Berlin",,,,,,,,,,,,POINT (13.293417 52.4885794),Charlottenburg-Wilmersdorf,Schmargendorf,0403,11004004
988742272,,,['glass_bottles'],,13.3666879,52.6050309,,,,"Zerpenschleuser Ring, 13439 Berlin",,,,,,,,,,,,POINT (13.3666879 52.6050309),Reinickendorf,Märkisches Viertel,1210,11012012
990239062,,,['glass_bottles'],,13.4252037,52.5563093,,,,"Eschengraben, 13189 Berlin",,,,,,,,,,hours=24/7,,POINT (13.4252037 52.5563093),Pankow,Pankow,0307,11003003
998082301,,,['clothes'],,13.2746457,52.4350071,,,,"Sundgauer Straße, 14167 Berlin",,,,,,,,,,,,POINT (13.2746457 52.4350071),Steglitz-Zehlendorf,Zehlendorf,0604,11006006
1005959577,,,['glass_bottles'],,13.578863,52.5638358,,,,"Belziger Ring, 12689 Berlin",,,,,,,,,,,,POINT (13.578863 52.5638358),Marzahn-Hellersdorf,Marzahn,1001,11010010
1005959581,,,['glass_bottles'],,13.5759237,52.5631543,,,,"Belziger Ring, 12689 Berlin",,,,,,,,,,,,POINT (13.5759237 52.5631543),Marzahn-Hellersdorf,Marzahn,1001,11010010
1005959589,,,['glass_bottles'],,13.5678173,52.5638332,,,,"Wittenberger Straße, 12689 Berlin",,,,,,,,,,,,POINT (13.5678173 52.5638332),Marzahn-Hellersdorf,Marzahn,1001,11010010
1005959644,,,['glass_bottles'],,13.579729,52.5696433,,,,"Golliner Straße, 12689 Berlin",,,,,,,,,,,,POINT (13.579729 52.5696433),Marzahn-Hellersdorf,Marzahn,1001,11010010
1005966025,,,['glass_bottles'],,13.571007,52.5674152,,,,"Wörlitzer Straße, 12689 Berlin",,,,,,,,,,,,POINT (13.571007 52.5674152),Marzahn-Hellersdorf,Marzahn,1001,11010010
1026507211,,,['glass_bottles'],,13.2775498,52.5099993,Karl Meyer Rohstoffverwertung,['operator: Karl Meyer Rohstoffverwertung'],,Soorstr. 26 Ecke Kaiserdamm Shell-Tankstelle,,,,,,,,,,,,POINT (13.2775498 52.5099993),Charlottenburg-Wilmersdorf,Westend,0405,11004004
1026507217,aerowest,,['glass_bottles'],,13.281218,52.5154843,Karl Meyer Rohstoffverwertung,['operator: Karl Meyer Rohstoffverwertung'],,"Königin-Elisabeth-Straße, 14059 Berlin",,,,,,,,,,,,POINT (13.281218 52.5154843),Charlottenburg-Wilmersdorf,Westend,0405,11004004
1032978528,,,"['paper', 'plastic']",,13.4887844,52.5344697,Deutsches Rotes Kreuz,['operator: Deutsches Rotes Kreuz'],,"Landsberger Allee 241, 13055 Berlin",,,,,,,,,,,,POINT (13.4887844 52.5344697),Lichtenberg,Alt-Hohenschönhausen,1110,11011011
1038217542,,,['glass_bottles'],,13.1724843,52.5606455,,,,"Radelandstraße, 13589 Berlin",,,,,,,,,,,,POINT (13.1724843 52.5606455),Spandau,Hakenfelde,0507,11005005
1038217561,,,['glass_bottles'],,13.163901,52.5512842,,,,"Falkenseer Chaussee, 13589 Berlin",,,,,,,,,,,,POINT (13.163901 52.5512842),Spandau,Falkenhagener Feld,0508,11005005
1083639793,,,['green_waste'],,13.4056959,52.4877041,,,,"Südstern, 10961 Berlin",,,,,,,,,,,,POINT (13.4056959 52.4877041),Friedrichshain-Kreuzberg,Kreuzberg,0202,11002002
1107912178,,,['glass_bottles'],,13.4476349,52.4836871,,,,"Kiehlufer, 12059 Berlin",,,,,,,,,,,,POINT (13.4476349 52.4836871),Neukölln,Neukölln,0801,11008008
1115341318,,,['glass_bottles'],,13.4291053,52.4880536,Karl Meyer Rohstoffverwertung,['operator: Karl Meyer Rohstoffverwertung'],,"Nansenstraße, 12047 Berlin",,,,,,,,,,,,POINT (13.4291053 52.4880536),Neukölln,Neukölln,0801,11008008
1129802454,,,['glass_bottles'],,13.4903877,52.415207,,,,"Buchbinderweg, 12355 Berlin",,,,,,,,,,,,POINT (13.4903877 52.415207),Neukölln,Rudow,0804,11008008
1141974517,changeset 91932395,,"['glass_bottles', 'glass_bottles_brown', 'glass_bottles_green', 'glass_bottles_white']",,13.4287403,52.5025586,,,,"Muskauer Straße, 10997 Berlin",,,,,,,,,,,,POINT (13.4287403 52.5025586),Friedrichshain-Kreuzberg,Kreuzberg,0202,11002002
1150615777,,,"['glass_bottles', 'clothes', 'glass_bottles_white', 'glass_bottles_green', 'glass_bottles_brown']",,13.2178258,52.5090517,,,,"Heerstraße, 14055 Berlin",,,,,,,,,,,,POINT (13.2178258 52.5090517),Charlottenburg-Wilmersdorf,Westend,0405,11004004
1168914557,,,,,13.3102374,52.5717078,,,,"Auguste-Viktoria-Allee, 13403 Berlin",,,private,,,,,,Access restricted (private),,,POINT (13.3102374 52.5717078),Reinickendorf,Reinickendorf,1201,11012012
1176698906,,,['glass_bottles'],,13.4055713,52.4967965,,,,"Prinzenstraße, 10969 Berlin",,,,,,,,,,,,POINT (13.4055713 52.4967965),Friedrichshain-Kreuzberg,Kreuzberg,0202,11002002
1181625838,,,['glass_bottles'],,13.4534204,52.508069,Karl Meyer Rohstoffverwertung,['operator: Karl Meyer Rohstoffverwertung'],,"Revaler Straße, 10245 Berlin",,,,,,,,,,,,POINT (13.4534204 52.508069),Friedrichshain-Kreuzberg,Friedrichshain,0201,11002002
1181625848,,,['glass_bottles'],,13.4533911,52.5080739,Berlin-Textilrecycling,['operator: Berlin-Textilrecycling'],,"Revaler Straße, 10245 Berlin",,,,,,,,,,,,POINT (13.4533911 52.5080739),Friedrichshain-Kreuzberg,Friedrichshain,0201,11002002
1194597912,,,"['glass_bottles', 'glass_bottles_white', 'glass_bottles_green', 'glass_bottles_brown']",,13.3068301,52.5168879,Karl Meyer Rohstoffverwertung,['operator: Karl Meyer Rohstoffverwertung'],,"Richard-Wagner-Straße, 10585 Berlin",,,,,,,,,,,,POINT (13.3068301 52.5168879),Charlottenburg-Wilmersdorf,Charlottenburg,0401,11004004
1194782040,,,['glass_bottles'],,13.2968067,52.5160188,Karl Meyer Rohstoffverwertung,['operator: Karl Meyer Rohstoffverwertung'],,"Schloßstraße, 14059 Berlin",,,,,,,,,,,,POINT (13.2968067 52.5160188),Charlottenburg-Wilmersdorf,Charlottenburg,0401,11004004
1194782103,,,"['glass_bottles', 'clothes']",,13.2972039,52.5136229,Karl Meyer Rohstoffverwertung,['operator: Karl Meyer Rohstoffverwertung'],,Schloßstr. Ecke Hebbelstr.,,,,,,,,,,,,POINT (13.2972039 52.5136229),Charlottenburg-Wilmersdorf,Charlottenburg,0401,11004004
1195413136,,,,,13.3560612,52.4084315,,,,"Ahrensdorfer Straße, 12279 Berlin",,,,,,,,,,,,POINT (13.3560612 52.4084315),Tempelhof-Schöneberg,Marienfelde,0705,11007007
1196902269,,,,,13.4503211,52.449979,,,,"Fritz-Reuter-Allee, 12359 Berlin",,,residents,,,,,,Access restricted (residents),,,POINT (13.4503211 52.449979),Neukölln,Britz,0802,11008008
1198768306,,,['glass_bottles'],,13.3539671,52.5238092,,,,"Spenerstraße, 10557 Berlin",,,,,,,,,,,,POINT (13.3539671 52.5238092),Mitte,Moabit,0102,11001001
1198768360,,,['glass_bottles'],,13.3160602,52.4670346,,,,"Kreuznacher Straße, 14197 Berlin",,,,,,,,,,,,POINT (13.3160602 52.4670346),Steglitz-Zehlendorf,Steglitz,0601,11006006
1198768423,,,['glass_bottles'],,13.3897922,52.4942643,,,,"Baruther Straße, 10961 Berlin",,,,,,,,,,,,POINT (13.3897922 52.4942643),Friedrichshain-Kreuzberg,Kreuzberg,0202,11002002
1212618122,,,['glass_bottles'],,13.5245081,52.4805459,,,,"Wandlitzstraße, 10318 Berlin",,,,,,,,,,,,POINT (13.5245081 52.4805459),Lichtenberg,Karlshorst,1102,11011011
1237777021,,,['glass_bottles'],,13.4245178,52.4970817,,,,"Manteuffelstraße, 10999 Berlin",,,,,,,,,,,,POINT (13.4245178 52.4970817),Friedrichshain-Kreuzberg,Kreuzberg,0202,11002002
1240609775,changeset 91932395,,"['glass_bottles', 'glass_bottles_green', 'glass_bottles_white']",,13.2963457,52.4837565,Rhenus,['operator: Rhenus'],,Fritz-Wildung-Str. Ecke Cunostr. im Parkhafen,,,,,,,,,,,,POINT (13.2963457 52.4837565),Charlottenburg-Wilmersdorf,Schmargendorf,0403,11004004
1241970079,,,"['clothes', 'shoes']",,13.4991269,52.5011484,Deutsches Rotes Kreuz e.V.,['operator: Deutsches Rotes Kreuz e.V.'],,"Rummelsburger Straße, 10315 Berlin",,,,,,,,,,,,POINT (13.4991269 52.5011484),Lichtenberg,Friedrichsfelde,1101,11011011
1242393463,,,['glass_bottles'],,13.6460657,52.3492957,,,,"Schmöckwitzer Damm, 12527 Berlin",,,,,,,,,,,,POINT (13.6460657 52.3492957),Treptow-Köpenick,Schmöckwitz,0915,11009009
1256825703,,,['glass_bottles'],,13.3461007,52.5202074,Karl Meyer Rohstoffverwertung,['operator: Karl Meyer Rohstoffverwertung'],,"Flensburger Straße, 10557 Berlin",,,,,,,,,,,,POINT (13.3461007 52.5202074),Mitte,Hansaviertel,0103,11001001
1256825711,,,"['clothes', 'shoes']",,13.3401384,52.5185676,Deutsches Rotes Kreuz,['operator: Deutsches Rotes Kreuz'],,"Altonaer Straße, 10555 Berlin",,,,,,,,,,,,POINT (13.3401384 52.5185676),Mitte,Hansaviertel,0103,11001001
1256942896,,,"['clothes', 'shoes']","['glass', 'batteries', 'cans', 'paper', 'scrap_metal']",13.1880493,52.4209448,Deutsches Rotes Kreuz,['operator: Deutsches Rotes Kreuz'],,"Dreilindenstraße, 14109 Berlin",,,,,,,,,,,,POINT (13.1880493 52.4209448),Steglitz-Zehlendorf,Nikolassee,0606,11006006
1257922172,,,['glass_bottles'],,13.4775937,52.5028741,,,,"Türrschmidtstraße, 10317 Berlin",,,,yes,,,,,Wheelchair accessible,"hours=Mo-Sa 07:00-13:00,15:00-20:00",,POINT (13.4775937 52.5028741),Lichtenberg,Rummelsburg,1112,11011011
1278665294,,,['glass_bottles'],,13.1869258,52.4260841,,,,"Nymphenufer, 14109 Berlin",,,,,,,,,,,,POINT (13.1869258 52.4260841),Steglitz-Zehlendorf,Nikolassee,0606,11006006
1281747185,,,['glass_bottles'],,13.4975046,52.5426627,,,,"Freienwalder Straße, 13055 Berlin",,,,,,,,,,,,POINT (13.4975046 52.5426627),Lichtenberg,Alt-Hohenschönhausen,1110,11011011
1289470037,,,['glass_bottles'],,13.3335945,52.479797,Karl Meyer Rohstoffverwertung,['operator: Karl Meyer Rohstoffverwertung'],,"Durlacher Straße, 10715 Berlin",,,,,,,,,,,,POINT (13.3335945 52.479797),Charlottenburg-Wilmersdorf,Wilmersdorf,0402,11004004
1289505014,,,['glass_bottles'],,13.4429592,52.5179131,,,,"Weidenweg, 10249 Berlin",,,,,,,,,,,,POINT (13.4429592 52.5179131),Friedrichshain-Kreuzberg,Friedrichshain,0201,11002002
1289505019,,,['glass_bottles'],,13.4426402,52.5179367,,,,"Weidenweg, 10249 Berlin",,,,,,,,2,,,,POINT (13.4426402 52.5179367),Friedrichshain-Kreuzberg,Friedrichshain,0201,11002002
1289968044,,,['glass_bottles'],,13.4032069,52.5371829,Genehmigte Sammlung Berlin,['operator: Genehmigte Sammlung Berlin'],,"Granseer Straße, 10435 Berlin",,,,,,,,2,,,,POINT (13.4032069 52.5371829),Mitte,Mitte,0101,11001001
1294001869,,,,,13.5022889,52.4420625,,,,"Vereinsstraße, 12487 Berlin",,,private,,,,,,Access restricted (private),,,POINT (13.5022889 52.4420625),Treptow-Köpenick,Johannisthal,0904,11009009
1295543645,,,"['cans', 'paper', 'scrap_metal', 'plastic']",,13.5432716,52.4273129,,,,"Wilhelm-Ostwald-Straße, 12489 Berlin",,,,,,,,,,,,POINT (13.5432716 52.4273129),Treptow-Köpenick,Adlershof,0907,11009009
1295813853,,,['glass_bottles'],,13.3878297,52.4604161,,,,"Wenckebachstraße, 12099 Berlin",,,,,,,,,,,,POINT (13.3878297 52.4604161),Tempelhof-Schöneberg,Tempelhof,0703,11007007
1298546584,,,,,13.53352,52.4264823,,,,"Landeskalibrierstrecke Berlin, 12489 Berlin",,,,,,,,,,,,POINT (13.53352 52.4264823),Treptow-Köpenick,Adlershof,0907,11009009
1299614073,,,"['cans', 'paper', 'plastic_packaging']",['plastic'],13.531202,52.4283619,,,,"Albert-Einstein-Straße, 12489 Berlin",,,private,,,,,,Access restricted (private),,,POINT (13.531202 52.4283619),Treptow-Köpenick,Adlershof,0907,11009009
1302791742,,,,,13.5298308,52.4277457,,,,"Albert-Einstein-Straße, 12489 Berlin",,,private,,,,,,Access restricted (private),,,POINT (13.5298308 52.4277457),Treptow-Köpenick,Adlershof,0907,11009009
1305230435,,,['glass_bottles'],,13.3154343,52.5178918,Karl Meyer Rohstoffverwertung,['operator: Karl Meyer Rohstoffverwertung'],,Guerickestr. Ecke Galvanistr.,,,,,,,,,,,,POINT (13.3154343 52.5178918),Charlottenburg-Wilmersdorf,Charlottenburg,0401,11004004
1307115282,,,['glass_bottles'],,13.4300438,52.4694907,Karl Meyer Rohstoffverwertung,['operator: Karl Meyer Rohstoffverwertung'],,"Hermannstraße, 12051 Berlin",,,,,,,,,,,,POINT (13.4300438 52.4694907),Neukölln,Neukölln,0801,11008008
1313558833,,,['glass_bottles'],,13.3770187,52.4835691,Karl Meyer Rohstoffverwertung,['operator: Karl Meyer Rohstoffverwertung'],,"Boelckestraße, 12101 Berlin",,,,,,,,,,,,POINT (13.3770187 52.4835691),Tempelhof-Schöneberg,Tempelhof,0703,11007007
1313558834,,,['glass_bottles'],,13.376716,52.486865,Karl Meyer Rohstoffverwertung,['operator: Karl Meyer Rohstoffverwertung'],,"Katzbachstraße, 10965 Berlin",,,,,,,,,,,,POINT (13.376716 52.486865),Friedrichshain-Kreuzberg,Kreuzberg,0202,11002002
1315007273,,,['glass_bottles'],,13.3894158,52.5397515,,,,"Usedomer Straße, 13355 Berlin",,,,,,,,,,,,POINT (13.3894158 52.5397515),Mitte,Gesundbrunnen,0106,11001001
1322514269,,,['clothes'],,13.3146358,52.4163461,,,,"Celsiusstraße, 12207 Berlin",,,,,,,,,,,,POINT (13.3146358 52.4163461),Steglitz-Zehlendorf,Lichterfelde,0602,11006006
1329525671,,,['glass_bottles'],,13.4757908,52.4758697,,,,"Bergaustraße, 12437 Berlin",,,,,,,,,,,,POINT (13.4757908 52.4758697),Treptow-Köpenick,Plänterwald,0902,11009009
