{
"type": "FeatureCollection",
"name": "gas_stations_transformed",
"crs": { "type": "name", "properties": { "name": "urn:ogc:def:crs:OGC:1.3:CRS84" } },
"features": [
{ "type": "Feature", "properties": { "name": "Aral", "poi_type": "fuel_station", "brand": "Aral", "operator": null, "opening_hours": "24/7", "address": null, "latitude": 52.5463147, "longitude": 13.345599, "district": "Mitte", "district_id": "01", "neighborhood": "Wedding", "neighborhood_id": "Wedding" }, "geometry": { "type": "Point", "coordinates": [ 13.345599, 52.5463147 ] } },
{ "type": "Feature", "properties": { "name": "Aral", "poi_type": "fuel_station", "brand": "Aral", "operator": "Mike Seitz", "opening_hours": "24/7", "address": "Beusselstraße 55, 10553 Berlin", "latitude": 52.5306943, "longitude": 13.3282249, "district": "Mitte", "district_id": "01", "neighborhood": "Moabit", "neighborhood_id": "Moabit" }, "geometry": { "type": "Point", "coordinates": [ 13.3282249, 52.5306943 ] } },
{ "type": "Feature", "properties": { "name": "Bavaria petrol", "poi_type": "fuel_station", "brand": null, "operator": "Bavaria Petrol", "opening_hours": "Mo-Fr 07:00-20:00; Sa 07:00-18:00", "address": "Heilbronner Straße 14, 10711 Berlin", "latitude": 52.5019744, "longitude": 13.2944957, "district": "Charlottenburg-Wilmersdorf", "district_id": "04", "neighborhood": "Halensee", "neighborhood_id": "Halensee" }, "geometry": { "type": "Point", "coordinates": [ 13.2944957, 52.5019744 ] } },
{ "type": "Feature", "properties": { "name": "Aral", "poi_type": "fuel_station", "brand": "Aral", "operator": null, "opening_hours": "24/7", "address": null, "latitude": 52.4842654, "longitude": 13.3206691, "district": "Charlottenburg-Wilmersdorf", "district_id": "04", "neighborhood": "Wilmersdorf", "neighborhood_id": "Wilmersdorf" }, "geometry": { "type": "Point", "coordinates": [ 13.3206691, 52.4842654 ] } },
{ "type": "Feature", "properties": { "name": "Esso", "poi_type": "fuel_station", "brand": "Esso", "operator": null, "opening_hours": "PH,Mo-Su 00:00-24:00", "address": "Kronprinzessinnenweg 120, 14129 Berlin", "latitude": 52.4346409, "longitude": 13.1917042, "district": "Steglitz-Zehlendorf", "district_id": "06", "neighborhood": "Nikolassee", "neighborhood_id": "Nikolassee" }, "geometry": { "type": "Point", "coordinates": [ 13.1917042, 52.4346409 ] } },
{ "type": "Feature", "properties": { "name": "Esso", "poi_type": "fuel_station", "brand": "Esso", "operator": null, "opening_hours": null, "address": "Lessingstraße 4, 10555 Berlin", "latitude": 52.5197221, "longitude": 13.3414212, "district": "Mitte", "district_id": "01", "neighborhood": "Hansaviertel", "neighborhood_id": "Hansaviertel" }, "geometry": { "type": "Point", "coordinates": [ 13.3414212, 52.5197221 ] } },
{ "type": "Feature", "properties": { "name": "Star", "poi_type": "fuel_station", "brand": "star", "operator": null, "opening_hours": null, "address": null, "latitude": 52.5189572, "longitude": 13.3029625, "district": "Charlottenburg-Wilmersdorf", "district_id": "04", "neighborhood": "Charlottenburg", "neighborhood_id": "Charlottenburg" }, "geometry": { "type": "Point", "coordinates": [ 13.3029625, 52.5189572 ] } },
{ "type": "Feature", "properties": { "name": "Aral", "poi_type": "fuel_station", "brand": "Aral", "operator": "Anne Notzke", "opening_hours": "24/7", "address": "Messedamm 8-10, 14057 Berlin", "latitude": 52.5083702, "longitude": 13.2809474, "district": "Charlottenburg-Wilmersdorf", "district_id": "04", "neighborhood": "Westend", "neighborhood_id": "Westend" }, "geometry": { "type": "Point", "coordinates": [ 13.2809474, 52.5083702 ] } },
{ "type": "Feature", "properties": { "name": "HEM", "poi_type": "fuel_station", "brand": "HEM", "operator": null, "opening_hours": null, "address": "Wittestraße 16, 13509 Berlin", "latitude": 52.5775827, "longitude": 13.3064854, "district": "Reinickendorf", "district_id": "12", "neighborhood": "Tegel", "neighborhood_id": "Tegel" }, "geometry": { "type": "Point", "coordinates": [ 13.3064854, 52.5775827 ] } },
{ "type": "Feature", "properties": { "name": "Aral", "poi_type": "fuel_station", "brand": "Aral", "operator": "Aral", "opening_hours": "24/7", "address": "Westfälische Straße 9-10, 10709 Berlin", "latitude": 52.4924086, "longitude": 13.3091456, "district": "Charlottenburg-Wilmersdorf", "district_id": "04", "neighborhood": "Wilmersdorf", "neighborhood_id": "Wilmersdorf" }, "geometry": { "type": "Point", "coordinates": [ 13.3091456, 52.4924086 ] } },
{ "type": "Feature", "properties": { "name": "Aral", "poi_type": "fuel_station", "brand": "Aral", "operator": "Holger Klugmann", "opening_hours": "24/7", "address": "Holzmarktstraße 12/14, 10179 Berlin", "latitude": 52.5138544, "longitude": 13.421876, "district": "Mitte", "district_id": "01", "neighborhood": "Mitte", "neighborhood_id": "Mitte" }, "geometry": { "type": "Point", "coordinates": [ 13.421876, 52.5138544 ] } },
{ "type": "Feature", "properties": { "name": "Aral", "poi_type": "fuel_station", "brand": "Aral", "operator": "Maciej Daniluk", "opening_hours": "24/7", "address": "Vor dem Schlesischen Tor 2, 10997 Berlin", "latitude": 52.4972334, "longitude": 13.4498737, "district": "Friedrichshain-Kreuzberg", "district_id": "02", "neighborhood": "Kreuzberg", "neighborhood_id": "Kreuzberg" }, "geometry": { "type": "Point", "coordinates": [ 13.4498737, 52.4972334 ] } },
{ "type": "Feature", "properties": { "name": "JET", "poi_type": "fuel_station", "brand": "JET", "operator": null, "opening_hours": null, "address": "Märkische Allee 246, 12679 Berlin", "latitude": 52.5519896, "longitude": 13.5501124, "district": "Marzahn-Hellersdorf", "district_id": "10", "neighborhood": "Marzahn", "neighborhood_id": "Marzahn" }, "geometry": { "type": "Point", "coordinates": [ 13.5501124, 52.5519896 ] } },
{ "type": "Feature", "properties": { "name": "Total", "poi_type": "fuel_station", "brand": "TotalEnergies", "operator": "Total", "opening_hours": "24/7", "address": "Indira-Gandhi-Straße 106, 13053 Berlin", "latitude": 52.5475627, "longitude": 13.4680868, "district": "Lichtenberg", "district_id": "11", "neighborhood": "Alt-Hohenschönhausen", "neighborhood_id": "Alt-Hohenschönhausen" }, "geometry": { "type": "Point", "coordinates": [ 13.4680868, 52.5475627 ] } },
{ "type": "Feature", "properties": { "name": "Hem", "poi_type": "fuel_station", "brand": "HEM", "operator": null, "opening_hours": null, "address": "Alt-Friedrichsfelde 61, 10315 Berlin", "latitude": 52.5096766, "longitude": 13.5313646, "district": "Lichtenberg", "district_id": "11", "neighborhood": "Friedrichsfelde", "neighborhood_id": "Friedrichsfelde" }, "geometry": { "type": "Point", "coordinates": [ 13.5313646, 52.5096766 ] } },
{ "type": "Feature", "properties": { "name": "sun", "poi_type": "fuel_station", "brand": "sun", "operator": "Germania Petrol GmbH", "opening_hours": "24/7", "address": "Oranienburger Straße 181, 13437 Berlin", "latitude": 52.5987115, "longitude": 13.3319568, "district": "Reinickendorf", "district_id": "12", "neighborhood": "Wittenau", "neighborhood_id": "Wittenau" }, "geometry": { "type": "Point", "coordinates": [ 13.3319568, 52.5987115 ] } },
{ "type": "Feature", "properties": { "name": "Esso", "poi_type": "fuel_station", "brand": "Esso", "operator": null, "opening_hours": "24/7", "address": "Holländerstraße 52, 13407 Berlin", "latitude": 52.5646652, "longitude": 13.3358283, "district": "Reinickendorf", "district_id": "12", "neighborhood": "Reinickendorf", "neighborhood_id": "Reinickendorf" }, "geometry": { "type": "Point", "coordinates": [ 13.3358283, 52.5646652 ] } },
{ "type": "Feature", "properties": { "name": "AGIP ENI", "poi_type": "fuel_station", "brand": "Eni", "operator": null, "opening_hours": "Mo-Fr 06:00-21:00; Sa,Su 07:00-21:00", "address": "Belßstraße 51, 12249 Berlin", "latitude": 52.4274591, "longitude": 13.3649346, "district": "Steglitz-Zehlendorf", "district_id": "06", "neighborhood": "Lankwitz", "neighborhood_id": "Lankwitz" }, "geometry": { "type": "Point", "coordinates": [ 13.3649346, 52.4274591 ] } },
{ "type": "Feature", "properties": { "name": "Shell", "poi_type": "fuel_station", "brand": "Shell", "operator": "Shell", "opening_hours": null, "address": "Streitstraße 19, 13587 Berlin", "latitude": 52.5588844, "longitude": 13.2085296, "district": "Spandau", "district_id": "05", "neighborhood": "Hakenfelde", "neighborhood_id": "Hakenfelde" }, "geometry": { "type": "Point", "coordinates": [ 13.2085296, 52.5588844 ] } },
{ "type": "Feature", "properties": { "name": "JET", "poi_type": "fuel_station", "brand": "JET", "operator": "Jet", "opening_hours": "Mo-Fr 05:00-23:00; Sa,Su 06:00-23:00", "address": "Charlottenburger Chaussee 47, 13597 Berlin", "latitude": 52.5270741, "longitude": 13.2342804, "district": "Spandau", "district_id": "05", "neighborhood": "Spandau", "neighborhood_id": "Spandau" }, "geometry": { "type": "Point", "coordinates": [ 13.2342804, 52.5270741 ] } },
{ "type": "Feature", "properties": { "name": "Aral", "poi_type": "fuel_station", "brand": "Aral", "operator": null, "opening_hours": "Mo-Su,PH 00:00-24:00", "address": null, "latitude": 52.4682682, "longitude": 13.3110209, "district": "Charlottenburg-Wilmersdorf", "district_id": "04", "neighborhood": "Wilmersdorf", "neighborhood_id": "Wilmersdorf" }, "geometry": { "type": "Point", "coordinates": [ 13.3110209, 52.4682682 ] } },
{ "type": "Feature", "properties": { "name": "SB Tank", "poi_type": "fuel_station", "brand": "SB Tank", "operator": null, "opening_hours": null, "address": null, "latitude": 52.5214343, "longitude": 13.5403704, "district": "Marzahn-Hellersdorf", "district_id": "10", "neighborhood": "Marzahn", "neighborhood_id": "Marzahn" }, "geometry": { "type": "Point", "coordinates": [ 13.5403704, 52.5214343 ] } },
{ "type": "Feature", "properties": { "name": "Agip", "poi_type": "fuel_station", "brand": "Agip", "operator": null, "opening_hours": "Mo-Fr 05:30-22:00; Sa 06:00-22:00; PH,Su 06:30-22:00", "address": "Ahrensfelder Chaussee 152, 12689 Berlin", "latitude": 52.5721481, "longitude": 13.5650466, "district": "Marzahn-Hellersdorf", "district_id": "10", "neighborhood": "Marzahn", "neighborhood_id": "Marzahn" }, "geometry": { "type": "Point", "coordinates": [ 13.5650466, 52.5721481 ] } },
{ "type": "Feature", "properties": { "name": "Sprint", "poi_type": "fuel_station", "brand": "Sprint", "operator": "Sprint", "opening_hours": null, "address": "Seegefelder Straße 41, 13583 Berlin", "latitude": 52.5359854, "longitude": 13.1911088, "district": "Spandau", "district_id": "05", "neighborhood": "Spandau", "neighborhood_id": "Spandau" }, "geometry": { "type": "Point", "coordinates": [ 13.1911088, 52.5359854 ] } },
{ "type": "Feature", "properties": { "name": "Total", "poi_type": "fuel_station", "brand": "Total", "operator": null, "opening_hours": null, "address": "Bulgarische Straße 9, 12435 Berlin", "latitude": 52.4838045, "longitude": 13.4786593, "district": "Treptow-Köpenick", "district_id": "09", "neighborhood": "Plänterwald", "neighborhood_id": "Plänterwald" }, "geometry": { "type": "Point", "coordinates": [ 13.4786593, 52.4838045 ] } },
{ "type": "Feature", "properties": { "name": "Aral", "poi_type": "fuel_station", "brand": "Aral", "operator": null, "opening_hours": null, "address": "Schöneberger Straße 20, 12103 Berlin", "latitude": 52.4700245, "longitude": 13.3709897, "district": "Tempelhof-Schöneberg", "district_id": "07", "neighborhood": "Tempelhof", "neighborhood_id": "Tempelhof" }, "geometry": { "type": "Point", "coordinates": [ 13.3709897, 52.4700245 ] } },
{ "type": "Feature", "properties": { "name": "Total", "poi_type": "fuel_station", "brand": "Total", "operator": "Total", "opening_hours": "24/7", "address": "Späthstraße 158, 12359 Berlin", "latitude": 52.4531463, "longitude": 13.4570058, "district": "Neukölln", "district_id": "08", "neighborhood": "Britz", "neighborhood_id": "Britz" }, "geometry": { "type": "Point", "coordinates": [ 13.4570058, 52.4531463 ] } },
{ "type": "Feature", "properties": { "name": "Star", "poi_type": "fuel_station", "brand": "star", "operator": "Jennifer Bulst", "opening_hours": "24/7", "address": "Altentreptower Straße 2, 12683 Berlin", "latitude": 52.5132492, "longitude": 13.5635805, "district": "Marzahn-Hellersdorf", "district_id": "10", "neighborhood": "Biesdorf", "neighborhood_id": "Biesdorf" }, "geometry": { "type": "Point", "coordinates": [ 13.5635805, 52.5132492 ] } },
{ "type": "Feature", "properties": { "name": "Shell", "poi_type": "fuel_station", "brand": "Shell", "operator": null, "opening_hours": "24/7", "address": null, "latitude": 52.6160844, "longitude": 13.3005814, "district": "Reinickendorf", "district_id": "12", "neighborhood": "Hermsdorf", "neighborhood_id": "Hermsdorf" }, "geometry": { "type": "Point", "coordinates": [ 13.3005814, 52.6160844 ] } },
{ "type": "Feature", "properties": { "name": "SB-Tank", "poi_type": "fuel_station", "brand": "SB Tank", "operator": null, "opening_hours": null, "address": null, "latitude": 52.5054346, "longitude": 13.5878738, "district": "Marzahn-Hellersdorf", "district_id": "10", "neighborhood": "Kaulsdorf", "neighborhood_id": "Kaulsdorf" }, "geometry": { "type": "Point", "coordinates": [ 13.5878738, 52.5054346 ] } },
{ "type": "Feature", "properties": { "name": "Star", "poi_type": "fuel_station", "brand": "star", "operator": "Orlen Deutschland", "opening_hours": "24/7", "address": null, "latitude": 52.5044926, "longitude": 13.6110566, "district": "Marzahn-Hellersdorf", "district_id": "10", "neighborhood": "Mahlsdorf", "neighborhood_id": "Mahlsdorf" }, "geometry": { "type": "Point", "coordinates": [ 13.6110566, 52.5044926 ] } },
{ "type": "Feature", "properties": { "name": "Shell", "poi_type": "fuel_station", "brand": "Shell", "operator": "Shell", "opening_hours": null, "address": "Ruppiner Chaussee 339, 13503 Berlin", "latitude": 52.6205239, "longitude": 13.2358164, "district": "Reinickendorf", "district_id": "12", "neighborhood": "Heiligensee", "neighborhood_id": "Heiligensee" }, "geometry": { "type": "Point", "coordinates": [ 13.2358164, 52.6205239 ] } },
{ "type": "Feature", "properties": { "name": "TotalEnergies", "poi_type": "fuel_station", "brand": "TotalEnergies", "operator": null, "opening_hours": null, "address": "Argentinische Allee 49, 14163 Berlin", "latitude": 52.444543, "longitude": 13.2425522, "district": "Steglitz-Zehlendorf", "district_id": "06", "neighborhood": "Zehlendorf", "neighborhood_id": "Zehlendorf" }, "geometry": { "type": "Point", "coordinates": [ 13.2425522, 52.444543 ] } },
{ "type": "Feature", "properties": { "name": "Shell", "poi_type": "fuel_station", "brand": "Shell", "operator": "Shell", "opening_hours": "Mo-Su,PH 06:00-24:00", "address": "Potsdamer Chaussee 24, 14129 Berlin", "latitude": 52.4296886, "longitude": 13.223231, "district": "Steglitz-Zehlendorf", "district_id": "06", "neighborhood": "Nikolassee", "neighborhood_id": "Nikolassee" }, "geometry": { "type": "Point", "coordinates": [ 13.223231, 52.4296886 ] } },
{ "type": "Feature", "properties": { "name": "Shell", "poi_type": "fuel_station", "brand": "Shell", "operator": "Shell", "opening_hours": "24/7", "address": "Karl-Marx-Straße 267, 12057 Berlin", "latitude": 52.4652723, "longitude": 13.4430158, "district": "Neukölln", "district_id": "08", "neighborhood": "Neukölln", "neighborhood_id": "Neukölln" }, "geometry": { "type": "Point", "coordinates": [ 13.4430158, 52.4652723 ] } },
{ "type": "Feature", "properties": { "name": "JET", "poi_type": "fuel_station", "brand": "JET", "operator": null, "opening_hours": "Mo-Su,PH 00:00-24:00", "address": "Kreuzbergstraße 41, 10965 Berlin", "latitude": 52.489294, "longitude": 13.3744681, "district": "Tempelhof-Schöneberg", "district_id": "07", "neighborhood": "Schöneberg", "neighborhood_id": "Schöneberg" }, "geometry": { "type": "Point", "coordinates": [ 13.3744681, 52.489294 ] } },
{ "type": "Feature", "properties": { "name": "Agip", "poi_type": "fuel_station", "brand": "Agip", "operator": "Agip", "opening_hours": "Mo-Fr 06:00-22:00; PH,Sa,Su 07:00-22:00", "address": "Alt-Mahlsdorf 93A, 12623 Berlin", "latitude": 52.5040082, "longitude": 13.619215, "district": "Marzahn-Hellersdorf", "district_id": "10", "neighborhood": "Mahlsdorf", "neighborhood_id": "Mahlsdorf" }, "geometry": { "type": "Point", "coordinates": [ 13.619215, 52.5040082 ] } },
{ "type": "Feature", "properties": { "name": "Total Alt Mahlsdorf", "poi_type": "fuel_station", "brand": "TotalEnergies", "operator": "Total", "opening_hours": null, "address": "Alt-Mahlsdorf 60, 12623 Berlin", "latitude": 52.5043627, "longitude": 13.6243176, "district": "Marzahn-Hellersdorf", "district_id": "10", "neighborhood": "Mahlsdorf", "neighborhood_id": "Mahlsdorf" }, "geometry": { "type": "Point", "coordinates": [ 13.6243176, 52.5043627 ] } },
{ "type": "Feature", "properties": { "name": "HEM", "poi_type": "fuel_station", "brand": "HEM", "operator": null, "opening_hours": "24/7", "address": "Kaulsdorfer Straße 124,126, 12555 Berlin", "latitude": 52.4719674, "longitude": 13.5711621, "district": "Treptow-Köpenick", "district_id": "09", "neighborhood": "Köpenick", "neighborhood_id": "Köpenick" }, "geometry": { "type": "Point", "coordinates": [ 13.5711621, 52.4719674 ] } },
{ "type": "Feature", "properties": { "name": "Jet", "poi_type": "fuel_station", "brand": "JET", "operator": null, "opening_hours": "Mo-Fr 05:00-23:00; Sa,Su 06:00-23:00", "address": "Bellevuestraße 14, 12555 Berlin", "latitude": 52.4542006, "longitude": 13.5923789, "district": "Treptow-Köpenick", "district_id": "09", "neighborhood": "Köpenick", "neighborhood_id": "Köpenick" }, "geometry": { "type": "Point", "coordinates": [ 13.5923789, 52.4542006 ] } },
{ "type": "Feature", "properties": { "name": "HEM", "poi_type": "fuel_station", "brand": "HEM", "operator": null, "opening_hours": null, "address": "Attilastraße 124, 12105 Berlin", "latitude": 52.4490475, "longitude": 13.3661359, "district": "Tempelhof-Schöneberg", "district_id": "07", "neighborhood": "Tempelhof", "neighborhood_id": "Tempelhof" }, "geometry": { "type": "Point", "coordinates": [ 13.3661359, 52.4490475 ] } },
{ "type": "Feature", "properties": { "name": "Aral", "poi_type": "fuel_station", "brand": "Aral", "operator": null, "opening_hours": "24/7", "address": "Britzer Damm 204, 12347 Berlin", "latitude": 52.4453426, "longitude": 13.4331109, "district": "Neukölln", "district_id": "08", "neighborhood": "Britz", "neighborhood_id": "Britz" }, "geometry": { "type": "Point", "coordinates": [ 13.4331109, 52.4453426 ] } },
{ "type": "Feature", "properties": { "name": "Spreves", "poi_type": "fuel_station", "brand": null, "operator": null, "opening_hours": "Mo-Su 00:00-24:00", "address": "Friedrichshagener Straße 4, Berlin", "latitude": 52.452062, "longitude": 13.5784714, "district": "Treptow-Köpenick", "district_id": "09", "neighborhood": "Köpenick", "neighborhood_id": "Köpenick" }, "geometry": { "type": "Point", "coordinates": [ 13.5784714, 52.452062 ] } },
{ "type": "Feature", "properties": { "name": "Shell", "poi_type": "fuel_station", "brand": "Shell", "operator": "Shell", "opening_hours": "Mo-Su 06:00-22:00", "address": "Rothenbachstraße 1, 13089 Berlin", "latitude": 52.5716016, "longitude": 13.4296019, "district": "Pankow", "district_id": "03", "neighborhood": "Heinersdorf", "neighborhood_id": "Heinersdorf" }, "geometry": { "type": "Point", "coordinates": [ 13.4296019, 52.5716016 ] } },
{ "type": "Feature", "properties": { "name": "Esso", "poi_type": "fuel_station", "brand": "Esso", "operator": "Uwe Schmidt", "opening_hours": null, "address": "Chemnitzer Straße 179, 12621 Berlin", "latitude": 52.4895059, "longitude": 13.5760187, "district": "Marzahn-Hellersdorf", "district_id": "10", "neighborhood": "Kaulsdorf", "neighborhood_id": "Kaulsdorf" }, "geometry": { "type": "Point", "coordinates": [ 13.5760187, 52.4895059 ] } },
{ "type": "Feature", "properties": { "name": "Jet", "poi_type": "fuel_station", "brand": "JET", "operator": null, "opening_hours": "24/7", "address": "Siegfriedstraße 179, 10365 Berlin", "latitude": 52.521361, "longitude": 13.4990227, "district": "Lichtenberg", "district_id": "11", "neighborhood": "Lichtenberg", "neighborhood_id": "Lichtenberg" }, "geometry": { "type": "Point", "coordinates": [ 13.4990227, 52.521361 ] } },
{ "type": "Feature", "properties": { "name": "Total", "poi_type": "fuel_station", "brand": "TotalEnergies", "operator": "Total", "opening_hours": "24/7", "address": "Tempelhofer Ufer 33-35, 10963 Berlin", "latitude": 52.5004782, "longitude": 13.3766736, "district": "Friedrichshain-Kreuzberg", "district_id": "02", "neighborhood": "Kreuzberg", "neighborhood_id": "Kreuzberg" }, "geometry": { "type": "Point", "coordinates": [ 13.3766736, 52.5004782 ] } },
{ "type": "Feature", "properties": { "name": "Star", "poi_type": "fuel_station", "brand": "star", "operator": null, "opening_hours": "Mo-Su 06:00-22:00", "address": null, "latitude": 52.6017721, "longitude": 13.2433659, "district": "Reinickendorf", "district_id": "12", "neighborhood": "Heiligensee", "neighborhood_id": "Heiligensee" }, "geometry": { "type": "Point", "coordinates": [ 13.2433659, 52.6017721 ] } },
{ "type": "Feature", "properties": { "name": "BEHALA", "poi_type": "fuel_station", "brand": null, "operator": null, "opening_hours": null, "address": "Westhafenstraße 1, 13353 Berlin", "latitude": 52.5369734, "longitude": 13.3417491, "district": "Mitte", "district_id": "01", "neighborhood": "Moabit", "neighborhood_id": "Moabit" }, "geometry": { "type": "Point", "coordinates": [ 13.3417491, 52.5369734 ] } },
{ "type": "Feature", "properties": { "name": "Total", "poi_type": "fuel_station", "brand": "TotalEnergies", "operator": "André Rückmann", "opening_hours": "24/7", "address": null, "latitude": 52.4144679, "longitude": 13.5728652, "district": "Treptow-Köpenick", "district_id": "09", "neighborhood": "Grünau", "neighborhood_id": "Grünau" }, "geometry": { "type": "Point", "coordinates": [ 13.5728652, 52.4144679 ] } },
{ "type": "Feature", "properties": { "name": "Esso", "poi_type": "fuel_station", "brand": "Esso", "operator": "Frank Wilke", "opening_hours": "PH,Mo-Su 00:00-24:00", "address": "Martin-Luther-Straße 67, 10779 Berlin", "latitude": 52.4901196, "longitude": 13.3454654, "district": "Tempelhof-Schöneberg", "district_id": "07", "neighborhood": "Schöneberg", "neighborhood_id": "Schöneberg" }, "geometry": { "type": "Point", "coordinates": [ 13.3454654, 52.4901196 ] } },
{ "type": "Feature", "properties": { "name": "Star", "poi_type": "fuel_station", "brand": "star", "operator": null, "opening_hours": "Mo-Su 06:00-22:00", "address": "Teltower Damm 164, 14167 Berlin", "latitude": 52.4191711, "longitude": 13.2643834, "district": "Steglitz-Zehlendorf", "district_id": "06", "neighborhood": "Zehlendorf", "neighborhood_id": "Zehlendorf" }, "geometry": { "type": "Point", "coordinates": [ 13.2643834, 52.4191711 ] } },
{ "type": "Feature", "properties": { "name": "Shell", "poi_type": "fuel_station", "brand": "Shell", "operator": null, "opening_hours": "PH,Mo-Su 06:00-22:00", "address": "Berliner Straße 83, 13189 Berlin", "latitude": 52.5563681, "longitude": 13.4150223, "district": "Pankow", "district_id": "03", "neighborhood": "Pankow", "neighborhood_id": "Pankow" }, "geometry": { "type": "Point", "coordinates": [ 13.4150223, 52.5563681 ] } },
{ "type": "Feature", "properties": { "name": "JET", "poi_type": "fuel_station", "brand": "JET", "operator": null, "opening_hours": null, "address": "Storkower Straße 130, 10407 Berlin", "latitude": 52.5338295, "longitude": 13.4523516, "district": "Pankow", "district_id": "03", "neighborhood": "Prenzlauer Berg", "neighborhood_id": "Prenzlauer Berg" }, "geometry": { "type": "Point", "coordinates": [ 13.4523516, 52.5338295 ] } },
{ "type": "Feature", "properties": { "name": "Sprint", "poi_type": "fuel_station", "brand": "Sprint", "operator": "Sprint", "opening_hours": null, "address": "Lietzenburger Straße 97, 10719 Berlin", "latitude": 52.4994455, "longitude": 13.3193638, "district": "Charlottenburg-Wilmersdorf", "district_id": "04", "neighborhood": "Wilmersdorf", "neighborhood_id": "Wilmersdorf" }, "geometry": { "type": "Point", "coordinates": [ 13.3193638, 52.4994455 ] } },
{ "type": "Feature", "properties": { "name": "Sprint", "poi_type": "fuel_station", "brand": "Sprint", "operator": null, "opening_hours": "Mo-Sa 06:00-22:00; Su 07:00-22:00", "address": "Barnetstraße 67A, 12305 Berlin", "latitude": 52.3946677, "longitude": 13.4001754, "district": "Tempelhof-Schöneberg", "district_id": "07", "neighborhood": "Lichtenrade", "neighborhood_id": "Lichtenrade" }, "geometry": { "type": "Point", "coordinates": [ 13.4001754, 52.3946677 ] } },
{ "type": "Feature", "properties": { "name": "HEM", "poi_type": "fuel_station", "brand": "HEM", "operator": null, "opening_hours": "Mo-Su,PH 06:00-22:00", "address": "Berliner Straße 140, 13467 Berlin", "latitude": 52.6134558, "longitude": 13.3152178, "district": "Reinickendorf", "district_id": "12", "neighborhood": "Hermsdorf", "neighborhood_id": "Hermsdorf" }, "geometry": { "type": "Point", "coordinates": [ 13.3152178, 52.6134558 ] } },
{ "type": "Feature", "properties": { "name": "Star", "poi_type": "fuel_station", "brand": "star", "operator": "Star", "opening_hours": null, "address": null, "latitude": 52.6110564, "longitude": 13.3189479, "district": "Reinickendorf", "district_id": "12", "neighborhood": "Waidmannslust", "neighborhood_id": "Waidmannslust" }, "geometry": { "type": "Point", "coordinates": [ 13.3189479, 52.6110564 ] } },
{ "type": "Feature", "properties": { "name": "Esso", "poi_type": "fuel_station", "brand": "Esso", "operator": "Mike Praum", "opening_hours": "24/7", "address": "Wilhelmsruher Damm 160, 13435 Berlin", "latitude": 52.596489, "longitude": 13.3470882, "district": "Reinickendorf", "district_id": "12", "neighborhood": "Märkisches Viertel", "neighborhood_id": "Märkisches Viertel" }, "geometry": { "type": "Point", "coordinates": [ 13.3470882, 52.596489 ] } },
{ "type": "Feature", "properties": { "name": "HEM", "poi_type": "fuel_station", "brand": "HEM", "operator": null, "opening_hours": null, "address": null, "latitude": 52.6088139, "longitude": 13.3277742, "district": "Reinickendorf", "district_id": "12", "neighborhood": "Waidmannslust", "neighborhood_id": "Waidmannslust" }, "geometry": { "type": "Point", "coordinates": [ 13.3277742, 52.6088139 ] } },
{ "type": "Feature", "properties": { "name": "Star", "poi_type": "fuel_station", "brand": "star", "operator": "Germania Petrol GmbH", "opening_hours": "24/7", "address": "Gatower Straße 173, 13595 Berlin", "latitude": 52.5047405, "longitude": 13.1805626, "district": "Spandau", "district_id": "05", "neighborhood": "Wilhelmstadt", "neighborhood_id": "Wilhelmstadt" }, "geometry": { "type": "Point", "coordinates": [ 13.1805626, 52.5047405 ] } },
{ "type": "Feature", "properties": { "name": "Orlen", "poi_type": "fuel_station", "brand": "Orlen", "operator": "Orlen", "opening_hours": null, "address": "Mariendorfer Damm 306, 12107 Berlin", "latitude": 52.4258602, "longitude": 13.3940775, "district": "Tempelhof-Schöneberg", "district_id": "07", "neighborhood": "Mariendorf", "neighborhood_id": "Mariendorf" }, "geometry": { "type": "Point", "coordinates": [ 13.3940775, 52.4258602 ] } },
{ "type": "Feature", "properties": { "name": "Shell", "poi_type": "fuel_station", "brand": "Shell", "operator": "Shell", "opening_hours": null, "address": "Am Juliusturm 33, 13599 Berlin", "latitude": 52.5366708, "longitude": 13.2219474, "district": "Spandau", "district_id": "05", "neighborhood": "Haselhorst", "neighborhood_id": "Haselhorst" }, "geometry": { "type": "Point", "coordinates": [ 13.2219474, 52.5366708 ] } },
{ "type": "Feature", "properties": { "name": "Star", "poi_type": "fuel_station", "brand": "star", "operator": "ORLEN Deutschland GmbH", "opening_hours": "24/7", "address": "Rhinstraße 47, 10315 Berlin", "latitude": 52.5226731, "longitude": 13.5188307, "district": "Lichtenberg", "district_id": "11", "neighborhood": "Lichtenberg", "neighborhood_id": "Lichtenberg" }, "geometry": { "type": "Point", "coordinates": [ 13.5188307, 52.5226731 ] } },
{ "type": "Feature", "properties": { "name": "Aral", "poi_type": "fuel_station", "brand": "Aral", "operator": "Aral", "opening_hours": "24/7", "address": "Mühlenstraße 26, 13187 Berlin", "latitude": 52.563621, "longitude": 13.4076934, "district": "Pankow", "district_id": "03", "neighborhood": "Pankow", "neighborhood_id": "Pankow" }, "geometry": { "type": "Point", "coordinates": [ 13.4076934, 52.563621 ] } },
{ "type": "Feature", "properties": { "name": "JET", "poi_type": "fuel_station", "brand": "JET", "operator": null, "opening_hours": "24/7", "address": "Kurt-Schumacher-Damm 36, 13405 Berlin", "latitude": 52.5612716, "longitude": 13.3241529, "district": "Reinickendorf", "district_id": "12", "neighborhood": "Reinickendorf", "neighborhood_id": "Reinickendorf" }, "geometry": { "type": "Point", "coordinates": [ 13.3241529, 52.5612716 ] } },
{ "type": "Feature", "properties": { "name": "Shell", "poi_type": "fuel_station", "brand": "Shell", "operator": "Shell", "opening_hours": "Mo-Fr 05:00-22:00; Sa,Su 06:00-22:00", "address": "Karower Damm 35, 13129 Berlin", "latitude": 52.5967386, "longitude": 13.4663679, "district": "Pankow", "district_id": "03", "neighborhood": "Blankenburg", "neighborhood_id": "Blankenburg" }, "geometry": { "type": "Point", "coordinates": [ 13.4663679, 52.5967386 ] } },
{ "type": "Feature", "properties": { "name": "Shell", "poi_type": "fuel_station", "brand": "Shell", "operator": "Shell", "opening_hours": "Mo-Fr 05:30-23:30; Sa 06:00-23:30; Su 06:00-22:30", "address": "Rudower Straße 102, 12351 Berlin", "latitude": 52.4359603, "longitude": 13.4653678, "district": "Neukölln", "district_id": "08", "neighborhood": "Buckow", "neighborhood_id": "Buckow" }, "geometry": { "type": "Point", "coordinates": [ 13.4653678, 52.4359603 ] } },
{ "type": "Feature", "properties": { "name": "Sprint", "poi_type": "fuel_station", "brand": "Sprint", "operator": null, "opening_hours": "Mo-Su,PH 06:00-22:00", "address": "Gosener Damm 15, 12559 Berlin", "latitude": 52.410097, "longitude": 13.6666753, "district": "Treptow-Köpenick", "district_id": "09", "neighborhood": "Müggelheim", "neighborhood_id": "Müggelheim" }, "geometry": { "type": "Point", "coordinates": [ 13.6666753, 52.410097 ] } },
{ "type": "Feature", "properties": { "name": "Aral", "poi_type": "fuel_station", "brand": "Aral", "operator": null, "opening_hours": null, "address": "Potsdamer Chaussee 6, 14163 Berlin", "latitude": 52.4330697, "longitude": 13.2375883, "district": "Steglitz-Zehlendorf", "district_id": "06", "neighborhood": "Zehlendorf", "neighborhood_id": "Zehlendorf" }, "geometry": { "type": "Point", "coordinates": [ 13.2375883, 52.4330697 ] } },
{ "type": "Feature", "properties": { "name": "Aral", "poi_type": "fuel_station", "brand": "Aral", "operator": "André Dymek", "opening_hours": "24/7", "address": "Hauptstraße 86, 12159 Berlin", "latitude": 52.4740539, "longitude": 13.3387578, "district": "Tempelhof-Schöneberg", "district_id": "07", "neighborhood": "Schöneberg", "neighborhood_id": "Schöneberg" }, "geometry": { "type": "Point", "coordinates": [ 13.3387578, 52.4740539 ] } },
{ "type": "Feature", "properties": { "name": "Esso", "poi_type": "fuel_station", "brand": "Esso", "operator": "Esso", "opening_hours": null, "address": null, "latitude": 52.4255117, "longitude": 13.4742439, "district": "Neukölln", "district_id": "08", "neighborhood": "Gropiusstadt", "neighborhood_id": "Gropiusstadt" }, "geometry": { "type": "Point", "coordinates": [ 13.4742439, 52.4255117 ] } },
{ "type": "Feature", "properties": { "name": "Aral", "poi_type": "fuel_station", "brand": "Aral", "operator": "Anne Notzke", "opening_hours": "24/7", "address": "Reichsstraße 13,14, 14052 Berlin", "latitude": 52.5135585, "longitude": 13.2661192, "district": "Charlottenburg-Wilmersdorf", "district_id": "04", "neighborhood": "Westend", "neighborhood_id": "Westend" }, "geometry": { "type": "Point", "coordinates": [ 13.2661192, 52.5135585 ] } },
{ "type": "Feature", "properties": { "name": "Total Access", "poi_type": "fuel_station", "brand": "TotalEnergies", "operator": null, "opening_hours": "Mo-Fr 06:00-22:00; Sa,Su 07:00-22:00", "address": "Reichsstraße 86, 14052 Berlin", "latitude": 52.5148615, "longitude": 13.2624559, "district": "Charlottenburg-Wilmersdorf", "district_id": "04", "neighborhood": "Westend", "neighborhood_id": "Westend" }, "geometry": { "type": "Point", "coordinates": [ 13.2624559, 52.5148615 ] } },
{ "type": "Feature", "properties": { "name": "Total", "poi_type": "fuel_station", "brand": "TotalEnergies", "operator": "Total Deutschland GmbH", "opening_hours": "24/7", "address": "Prenzlauer Allee 1, 10405 Berlin", "latitude": 52.5288716, "longitude": 13.4182496, "district": "Pankow", "district_id": "03", "neighborhood": "Prenzlauer Berg", "neighborhood_id": "Prenzlauer Berg" }, "geometry": { "type": "Point", "coordinates": [ 13.4182496, 52.5288716 ] } },
{ "type": "Feature", "properties": { "name": "Total Station", "poi_type": "fuel_station", "brand": "TotalEnergies", "operator": null, "opening_hours": "24/7", "address": "Margarete-Sommer-Straße 2, 10407 Berlin", "latitude": 52.5307766, "longitude": 13.4411584, "district": "Pankow", "district_id": "03", "neighborhood": "Prenzlauer Berg", "neighborhood_id": "Prenzlauer Berg" }, "geometry": { "type": "Point", "coordinates": [ 13.4411584, 52.5307766 ] } },
{ "type": "Feature", "properties": { "name": "unknown gas station", "poi_type": "fuel_station", "brand": null, "operator": "Tyczka Totalgaz GmbH", "opening_hours": null, "address": "Gradestraße 74-90, 12347 Berlin", "latitude": 52.4527676, "longitude": 13.4260843, "district": "Neukölln", "district_id": "08", "neighborhood": "Britz", "neighborhood_id": "Britz" }, "geometry": { "type": "Point", "coordinates": [ 13.4260843, 52.4527676 ] } },
{ "type": "Feature", "properties": { "name": "Autogas Fernholz Apparat...", "poi_type": "fuel_station", "brand": null, "operator": null, "opening_hours": "Mo-Fr 07:00-18:00; Sa 07:00-14:00", "address": "Sophie-Charlotten-Straße, 14059 Berlin", "latitude": 52.522, "longitude": 13.2852, "district": "Charlottenburg-Wilmersdorf", "district_id": "04", "neighborhood": "Charlottenburg", "neighborhood_id": "Charlottenburg" }, "geometry": { "type": "Point", "coordinates": [ 13.2852, 52.522 ] } },
{ "type": "Feature", "properties": { "name": "Grit Jarling", "poi_type": "fuel_station", "brand": null, "operator": null, "opening_hours": null, "address": "Alt-Biesdorf, 12683 Berlin", "latitude": 52.5050686, "longitude": 13.5749451, "district": "Marzahn-Hellersdorf", "district_id": "10", "neighborhood": "Biesdorf", "neighborhood_id": "Biesdorf" }, "geometry": { "type": "Point", "coordinates": [ 13.5749451, 52.5050686 ] } },
{ "type": "Feature", "properties": { "name": "BarMal Gas GmbH", "poi_type": "fuel_station", "brand": null, "operator": null, "opening_hours": null, "address": "13125 Berlin", "latitude": 52.6179283, "longitude": 13.4499981, "district": "Pankow", "district_id": "03", "neighborhood": "Französisch Buchholz", "neighborhood_id": "Französisch" }, "geometry": { "type": "Point", "coordinates": [ 13.4499981, 52.6179283 ] } },
{ "type": "Feature", "properties": { "name": "Streiber & Beetz", "poi_type": "fuel_station", "brand": null, "operator": null, "opening_hours": "Mo-Fr 08:00-20:00; Sa 08:00-14:00", "address": null, "latitude": 52.5951184, "longitude": 13.2843913, "district": "Reinickendorf", "district_id": "12", "neighborhood": "Tegel", "neighborhood_id": "Tegel" }, "geometry": { "type": "Point", "coordinates": [ 13.2843913, 52.5951184 ] } },
{ "type": "Feature", "properties": { "name": "Hager Autogas Service", "poi_type": "fuel_station", "brand": null, "operator": null, "opening_hours": "Mo-Fr 09:00-18:00; Sa 09:00-14:00", "address": "13509 Berlin", "latitude": 52.5838443, "longitude": 13.31511, "district": "Reinickendorf", "district_id": "12", "neighborhood": "Borsigwalde", "neighborhood_id": "Borsigwalde" }, "geometry": { "type": "Point", "coordinates": [ 13.31511, 52.5838443 ] } },
{ "type": "Feature", "properties": { "name": "Aral", "poi_type": "fuel_station", "brand": "Aral", "operator": null, "opening_hours": "Mo-Su,PH 00:00-24:00", "address": "Pasewalker Straße 110, 13127 Berlin", "latitude": 52.5861244, "longitude": 13.4302149, "district": "Pankow", "district_id": "03", "neighborhood": "Französisch Buchholz", "neighborhood_id": "Französisch" }, "geometry": { "type": "Point", "coordinates": [ 13.4302149, 52.5861244 ] } },
{ "type": "Feature", "properties": { "name": "Q1", "poi_type": "fuel_station", "brand": "Q1", "operator": "Sven Noack", "opening_hours": "24/7", "address": "Blankenburger Straße 36, 13156 Berlin", "latitude": 52.5818981, "longitude": 13.4098646, "district": "Pankow", "district_id": "03", "neighborhood": "Niederschönhausen", "neighborhood_id": "Niederschönhausen" }, "geometry": { "type": "Point", "coordinates": [ 13.4098646, 52.5818981 ] } },
{ "type": "Feature", "properties": { "name": "Star", "poi_type": "fuel_station", "brand": "star", "operator": null, "opening_hours": "Mo-Su 00:00-24:00", "address": "Kaiser-Friedrich-Straße 102, 10585 Berlin", "latitude": 52.5173581, "longitude": 13.3011932, "district": "Charlottenburg-Wilmersdorf", "district_id": "04", "neighborhood": "Charlottenburg", "neighborhood_id": "Charlottenburg" }, "geometry": { "type": "Point", "coordinates": [ 13.3011932, 52.5173581 ] } },
{ "type": "Feature", "properties": { "name": "HEM", "poi_type": "fuel_station", "brand": "HEM", "operator": "Hem", "opening_hours": null, "address": null, "latitude": 52.5678996, "longitude": 13.4283806, "district": "Pankow", "district_id": "03", "neighborhood": "Heinersdorf", "neighborhood_id": "Heinersdorf" }, "geometry": { "type": "Point", "coordinates": [ 13.4283806, 52.5678996 ] } },
{ "type": "Feature", "properties": { "name": "Shell", "poi_type": "fuel_station", "brand": "Shell", "operator": null, "opening_hours": null, "address": null, "latitude": 52.6009857, "longitude": 13.4324401, "district": "Pankow", "district_id": "03", "neighborhood": "Französisch Buchholz", "neighborhood_id": "Französisch" }, "geometry": { "type": "Point", "coordinates": [ 13.4324401, 52.6009857 ] } },
{ "type": "Feature", "properties": { "name": "HEM", "poi_type": "fuel_station", "brand": "HEM", "operator": null, "opening_hours": null, "address": null, "latitude": 52.5655644, "longitude": 13.472262, "district": "Pankow", "district_id": "03", "neighborhood": "Weißensee", "neighborhood_id": "Weißensee" }, "geometry": { "type": "Point", "coordinates": [ 13.472262, 52.5655644 ] } },
{ "type": "Feature", "properties": { "name": "Star", "poi_type": "fuel_station", "brand": "star", "operator": null, "opening_hours": "24/7", "address": null, "latitude": 52.560816, "longitude": 13.4667754, "district": "Pankow", "district_id": "03", "neighborhood": "Weißensee", "neighborhood_id": "Weißensee" }, "geometry": { "type": "Point", "coordinates": [ 13.4667754, 52.560816 ] } },
{ "type": "Feature", "properties": { "name": "Bft", "poi_type": "fuel_station", "brand": "bft", "operator": null, "opening_hours": null, "address": "Kladower Damm 332, 14089 Berlin", "latitude": 52.4576674, "longitude": 13.1493228, "district": "Spandau", "district_id": "05", "neighborhood": "Kladow", "neighborhood_id": "Kladow" }, "geometry": { "type": "Point", "coordinates": [ 13.1493228, 52.4576674 ] } },
{ "type": "Feature", "properties": { "name": "SPREVES", "poi_type": "fuel_station", "brand": null, "operator": null, "opening_hours": "PH,Mo-Su 00:10-23:40", "address": "Hermsdorfer Damm 180, 13467 Berlin", "latitude": 52.6193754, "longitude": 13.3042924, "district": "Reinickendorf", "district_id": "12", "neighborhood": "Hermsdorf", "neighborhood_id": "Hermsdorf" }, "geometry": { "type": "Point", "coordinates": [ 13.3042924, 52.6193754 ] } },
{ "type": "Feature", "properties": { "name": "JET", "poi_type": "fuel_station", "brand": "JET", "operator": "JET", "opening_hours": "24/7", "address": "Karl-Marx-Straße 259-263, 12057 Berlin", "latitude": 52.4657644, "longitude": 13.4429947, "district": "Neukölln", "district_id": "08", "neighborhood": "Neukölln", "neighborhood_id": "Neukölln" }, "geometry": { "type": "Point", "coordinates": [ 13.4429947, 52.4657644 ] } },
{ "type": "Feature", "properties": { "name": "Esso", "poi_type": "fuel_station", "brand": "Esso", "operator": null, "opening_hours": null, "address": "Falkenseer Chaussee 50, 13583 Berlin", "latitude": 52.5490727, "longitude": 13.1789512, "district": "Spandau", "district_id": "05", "neighborhood": "Falkenhagener Feld", "neighborhood_id": "Falkenhagener Feld" }, "geometry": { "type": "Point", "coordinates": [ 13.1789512, 52.5490727 ] } },
{ "type": "Feature", "properties": { "name": "Westfehling", "poi_type": "fuel_station", "brand": null, "operator": null, "opening_hours": "Mo-Fr 05:00-22:00; Sa 07:00-22:00; Su 09:00-22:00", "address": "Quitzowstraße 33, 10559 Berlin", "latitude": 52.5353743, "longitude": 13.3503177, "district": "Mitte", "district_id": "01", "neighborhood": "Moabit", "neighborhood_id": "Moabit" }, "geometry": { "type": "Point", "coordinates": [ 13.3503177, 52.5353743 ] } },
{ "type": "Feature", "properties": { "name": "Aral", "poi_type": "fuel_station", "brand": "Aral", "operator": null, "opening_hours": "24/7", "address": "Neuköllner Straße 219, 12357 Berlin", "latitude": 52.4287233, "longitude": 13.4797429, "district": "Neukölln", "district_id": "08", "neighborhood": "Rudow", "neighborhood_id": "Rudow" }, "geometry": { "type": "Point", "coordinates": [ 13.4797429, 52.4287233 ] } },
{ "type": "Feature", "properties": { "name": "unknown gas station", "poi_type": "fuel_station", "brand": null, "operator": null, "opening_hours": null, "address": null, "latitude": 52.465014, "longitude": 13.3672048, "district": "Tempelhof-Schöneberg", "district_id": "07", "neighborhood": "Schöneberg", "neighborhood_id": "Schöneberg" }, "geometry": { "type": "Point", "coordinates": [ 13.3672048, 52.465014 ] } },
{ "type": "Feature", "properties": { "name": "Shell", "poi_type": "fuel_station", "brand": "Shell", "operator": null, "opening_hours": null, "address": "Manteuffelstraße 6, 12103 Berlin", "latitude": 52.4645469, "longitude": 13.377083, "district": "Tempelhof-Schöneberg", "district_id": "07", "neighborhood": "Tempelhof", "neighborhood_id": "Tempelhof" }, "geometry": { "type": "Point", "coordinates": [ 13.377083, 52.4645469 ] } },
{ "type": "Feature", "properties": { "name": "Aral", "poi_type": "fuel_station", "brand": "Aral", "operator": "Stephan Wendt", "opening_hours": "24/7", "address": "Grenzallee 6, 12057 Berlin", "latitude": 52.4694612, "longitude": 13.4621154, "district": "Neukölln", "district_id": "08", "neighborhood": "Neukölln", "neighborhood_id": "Neukölln" }, "geometry": { "type": "Point", "coordinates": [ 13.4621154, 52.4694612 ] } },
{ "type": "Feature", "properties": { "name": "Shell", "poi_type": "fuel_station", "brand": "Shell", "operator": null, "opening_hours": "24/7", "address": "Tempelhofer Weg 102, 12347 Berlin", "latitude": 52.4504263, "longitude": 13.434389, "district": "Neukölln", "district_id": "08", "neighborhood": "Britz", "neighborhood_id": "Britz" }, "geometry": { "type": "Point", "coordinates": [ 13.434389, 52.4504263 ] } },
{ "type": "Feature", "properties": { "name": "Sprint", "poi_type": "fuel_station", "brand": "Sprint", "operator": null, "opening_hours": "Mo-Sa 06:00-22:00; Su 07:00-22:00", "address": "Grüner Weg 75, 12359 Berlin", "latitude": 52.4383901, "longitude": 13.4526535, "district": "Neukölln", "district_id": "08", "neighborhood": "Buckow", "neighborhood_id": "Buckow" }, "geometry": { "type": "Point", "coordinates": [ 13.4526535, 52.4383901 ] } },
{ "type": "Feature", "properties": { "name": "Esso", "poi_type": "fuel_station", "brand": "Esso", "operator": "Echo Tankstellen GmbH", "opening_hours": "Mo-Fr 06:00-20:00; Sa,Su 08:00-20:00", "address": "Buschkrugallee 84-92, 12359 Berlin", "latitude": 52.4557966, "longitude": 13.4493616, "district": "Neukölln", "district_id": "08", "neighborhood": "Britz", "neighborhood_id": "Britz" }, "geometry": { "type": "Point", "coordinates": [ 13.4493616, 52.4557966 ] } },
{ "type": "Feature", "properties": { "name": "Esso", "poi_type": "fuel_station", "brand": "Esso", "operator": null, "opening_hours": null, "address": "Fürstenwalder Allee 100, 12589 Berlin", "latitude": 52.4366512, "longitude": 13.6959591, "district": "Treptow-Köpenick", "district_id": "09", "neighborhood": "Rahnsdorf", "neighborhood_id": "Rahnsdorf" }, "geometry": { "type": "Point", "coordinates": [ 13.6959591, 52.4366512 ] } },
{ "type": "Feature", "properties": { "name": "TopTank", "poi_type": "fuel_station", "brand": "TopTank", "operator": "Demet Tankal", "opening_hours": "Mo-Su 05:00-22:00", "address": "Mariendorfer Damm 341, 12107 Berlin", "latitude": 52.4232523, "longitude": 13.3966119, "district": "Tempelhof-Schöneberg", "district_id": "07", "neighborhood": "Mariendorf", "neighborhood_id": "Mariendorf" }, "geometry": { "type": "Point", "coordinates": [ 13.3966119, 52.4232523 ] } },
{ "type": "Feature", "properties": { "name": "Shell", "poi_type": "fuel_station", "brand": "Shell", "operator": "Shell", "opening_hours": null, "address": "Wendenschloßstraße 292, 12557 Berlin", "latitude": 52.4292015, "longitude": 13.5838397, "district": "Treptow-Köpenick", "district_id": "09", "neighborhood": "Köpenick", "neighborhood_id": "Köpenick" }, "geometry": { "type": "Point", "coordinates": [ 13.5838397, 52.4292015 ] } },
{ "type": "Feature", "properties": { "name": "Shell", "poi_type": "fuel_station", "brand": "Shell", "operator": null, "opening_hours": null, "address": "Hultschiner Damm 129/131, 12623 Berlin", "latitude": 52.4865795, "longitude": 13.6038368, "district": "Marzahn-Hellersdorf", "district_id": "10", "neighborhood": "Mahlsdorf", "neighborhood_id": "Mahlsdorf" }, "geometry": { "type": "Point", "coordinates": [ 13.6038368, 52.4865795 ] } },
{ "type": "Feature", "properties": { "name": "Total", "poi_type": "fuel_station", "brand": "TotalEnergies", "operator": null, "opening_hours": "24/7", "address": "Ribnitzer Straße 42, 13051 Berlin", "latitude": 52.565754, "longitude": 13.4917345, "district": "Lichtenberg", "district_id": "11", "neighborhood": "Neu-Hohenschönhausen", "neighborhood_id": "Neu-Hohenschönhausen" }, "geometry": { "type": "Point", "coordinates": [ 13.4917345, 52.565754 ] } },
{ "type": "Feature", "properties": { "name": "Star", "poi_type": "fuel_station", "brand": "star", "operator": null, "opening_hours": "Mo-Fr 06:00-22:00; Sa-Su 07:00-22:00", "address": "Johannisthaler Chaussee 263, 12351 Berlin", "latitude": 52.4317914, "longitude": 13.4608631, "district": "Neukölln", "district_id": "08", "neighborhood": "Buckow", "neighborhood_id": "Buckow" }, "geometry": { "type": "Point", "coordinates": [ 13.4608631, 52.4317914 ] } },
{ "type": "Feature", "properties": { "name": "Esso", "poi_type": "fuel_station", "brand": "Esso", "operator": "Esso", "opening_hours": "24/7", "address": "Heerstraße 285, 13595 Berlin", "latitude": 52.5149223, "longitude": 13.1850247, "district": "Spandau", "district_id": "05", "neighborhood": "Wilhelmstadt", "neighborhood_id": "Wilhelmstadt" }, "geometry": { "type": "Point", "coordinates": [ 13.1850247, 52.5149223 ] } },
{ "type": "Feature", "properties": { "name": "Esso", "poi_type": "fuel_station", "brand": "Esso", "operator": null, "opening_hours": "24/7", "address": "Ruhlebener Straße 185, 13597 Berlin", "latitude": 52.527432, "longitude": 13.2102409, "district": "Spandau", "district_id": "05", "neighborhood": "Wilhelmstadt", "neighborhood_id": "Wilhelmstadt" }, "geometry": { "type": "Point", "coordinates": [ 13.2102409, 52.527432 ] } },
{ "type": "Feature", "properties": { "name": "Aral", "poi_type": "fuel_station", "brand": "Aral", "operator": "Hendrik Bolt", "opening_hours": "24/7", "address": "Falkenseer Damm 16, 13585 Berlin", "latitude": 52.5428548, "longitude": 13.1993023, "district": "Spandau", "district_id": "05", "neighborhood": "Spandau", "neighborhood_id": "Spandau" }, "geometry": { "type": "Point", "coordinates": [ 13.1993023, 52.5428548 ] } },
{ "type": "Feature", "properties": { "name": "Elan", "poi_type": "fuel_station", "brand": "Elan", "operator": null, "opening_hours": "24/7", "address": "Tino-Schwierzina-Straße 37, 13089 Berlin", "latitude": 52.5583444, "longitude": 13.4326989, "district": "Pankow", "district_id": "03", "neighborhood": "Heinersdorf", "neighborhood_id": "Heinersdorf" }, "geometry": { "type": "Point", "coordinates": [ 13.4326989, 52.5583444 ] } },
{ "type": "Feature", "properties": { "name": "Shell", "poi_type": "fuel_station", "brand": "Shell", "operator": null, "opening_hours": null, "address": "Oranienburger Straße 61, 13437 Berlin", "latitude": 52.5899503, "longitude": 13.3347971, "district": "Reinickendorf", "district_id": "12", "neighborhood": "Wittenau", "neighborhood_id": "Wittenau" }, "geometry": { "type": "Point", "coordinates": [ 13.3347971, 52.5899503 ] } },
{ "type": "Feature", "properties": { "name": "Aral", "poi_type": "fuel_station", "brand": "Aral", "operator": "Aral", "opening_hours": null, "address": "Berliner Straße 24, 13507 Berlin", "latitude": 52.5842436, "longitude": 13.2878052, "district": "Reinickendorf", "district_id": "12", "neighborhood": "Tegel", "neighborhood_id": "Tegel" }, "geometry": { "type": "Point", "coordinates": [ 13.2878052, 52.5842436 ] } },
{ "type": "Feature", "properties": { "name": "Aral", "poi_type": "fuel_station", "brand": "Aral", "operator": "Aral", "opening_hours": "Mo-Su,PH 00:00-24:00", "address": "Berliner Straße 67, 13507 Berlin", "latitude": 52.5815752, "longitude": 13.2912451, "district": "Reinickendorf", "district_id": "12", "neighborhood": "Tegel", "neighborhood_id": "Tegel" }, "geometry": { "type": "Point", "coordinates": [ 13.2912451, 52.5815752 ] } },
{ "type": "Feature", "properties": { "name": "Shell", "poi_type": "fuel_station", "brand": "Shell", "operator": null, "opening_hours": "24/7", "address": "Ollenhauerstraße 101, 13403 Berlin", "latitude": 52.5708936, "longitude": 13.3299926, "district": "Reinickendorf", "district_id": "12", "neighborhood": "Reinickendorf", "neighborhood_id": "Reinickendorf" }, "geometry": { "type": "Point", "coordinates": [ 13.3299926, 52.5708936 ] } },
{ "type": "Feature", "properties": { "name": "Agip", "poi_type": "fuel_station", "brand": "Agip", "operator": "Eni Deutschland GmbH", "opening_hours": null, "address": "Dannenwalder Weg 69, 13439 Berlin", "latitude": 52.5917599, "longitude": 13.3467762, "district": "Reinickendorf", "district_id": "12", "neighborhood": "Märkisches Viertel", "neighborhood_id": "Märkisches Viertel" }, "geometry": { "type": "Point", "coordinates": [ 13.3467762, 52.5917599 ] } },
{ "type": "Feature", "properties": { "name": "Total", "poi_type": "fuel_station", "brand": "Total", "operator": null, "opening_hours": null, "address": "Habichtstraße 13, 13505 Berlin", "latitude": 52.5859744, "longitude": 13.2316713, "district": "Reinickendorf", "district_id": "12", "neighborhood": "Konradshöhe", "neighborhood_id": "Konradshöhe" }, "geometry": { "type": "Point", "coordinates": [ 13.2316713, 52.5859744 ] } },
{ "type": "Feature", "properties": { "name": "Aral", "poi_type": "fuel_station", "brand": "Aral", "operator": null, "opening_hours": "Mo-Su 06:00-22:00", "address": "Residenzstraße 29, 13409 Berlin", "latitude": 52.5681774, "longitude": 13.3613138, "district": "Reinickendorf", "district_id": "12", "neighborhood": "Reinickendorf", "neighborhood_id": "Reinickendorf" }, "geometry": { "type": "Point", "coordinates": [ 13.3613138, 52.5681774 ] } },
{ "type": "Feature", "properties": { "name": "Aral", "poi_type": "fuel_station", "brand": "Aral", "operator": null, "opening_hours": null, "address": "Märkische Allee 155, 12681 Berlin", "latitude": 52.5318667, "longitude": 13.5362442, "district": "Marzahn-Hellersdorf", "district_id": "10", "neighborhood": "Marzahn", "neighborhood_id": "Marzahn" }, "geometry": { "type": "Point", "coordinates": [ 13.5362442, 52.5318667 ] } },
{ "type": "Feature", "properties": { "name": "Total", "poi_type": "fuel_station", "brand": "TotalEnergies", "operator": null, "opening_hours": "24/7", "address": "Landsberger Allee 526, 12681 Berlin", "latitude": 52.5448881, "longitude": 13.5689884, "district": "Marzahn-Hellersdorf", "district_id": "10", "neighborhood": "Marzahn", "neighborhood_id": "Marzahn" }, "geometry": { "type": "Point", "coordinates": [ 13.5689884, 52.5448881 ] } },
{ "type": "Feature", "properties": { "name": "BarMalGas GmbH", "poi_type": "fuel_station", "brand": "BarMalGas GmbH", "operator": "BarMalGas GmbH", "opening_hours": "24/7", "address": "Rathausstraße 42, 12105 Berlin", "latitude": 52.4403282, "longitude": 13.3811782, "district": "Tempelhof-Schöneberg", "district_id": "07", "neighborhood": "Mariendorf", "neighborhood_id": "Mariendorf" }, "geometry": { "type": "Point", "coordinates": [ 13.3811782, 52.4403282 ] } },
{ "type": "Feature", "properties": { "name": "Autogas 24h", "poi_type": "fuel_station", "brand": null, "operator": "Linde", "opening_hours": null, "address": null, "latitude": 52.4519744, "longitude": 13.4245066, "district": "Neukölln", "district_id": "08", "neighborhood": "Britz", "neighborhood_id": "Britz" }, "geometry": { "type": "Point", "coordinates": [ 13.4245066, 52.4519744 ] } },
{ "type": "Feature", "properties": { "name": "Esso", "poi_type": "fuel_station", "brand": "Esso", "operator": null, "opening_hours": null, "address": "Gneisenaustraße 106, 10961 Berlin", "latitude": 52.4927543, "longitude": 13.3903688, "district": "Friedrichshain-Kreuzberg", "district_id": "02", "neighborhood": "Kreuzberg", "neighborhood_id": "Kreuzberg" }, "geometry": { "type": "Point", "coordinates": [ 13.3903688, 52.4927543 ] } },
{ "type": "Feature", "properties": { "name": "Sprint", "poi_type": "fuel_station", "brand": "Sprint", "operator": null, "opening_hours": "05:00-23:00", "address": "Residenzstraße 79, 13409 Berlin", "latitude": 52.5588705, "longitude": 13.3704382, "district": "Mitte", "district_id": "01", "neighborhood": "Gesundbrunnen", "neighborhood_id": "Gesundbrunnen" }, "geometry": { "type": "Point", "coordinates": [ 13.3704382, 52.5588705 ] } },
{ "type": "Feature", "properties": { "name": "Elan", "poi_type": "fuel_station", "brand": "Elan", "operator": null, "opening_hours": null, "address": "Storkower Straße 116, 10407 Berlin", "latitude": 52.5353899, "longitude": 13.4508052, "district": "Pankow", "district_id": "03", "neighborhood": "Prenzlauer Berg", "neighborhood_id": "Prenzlauer Berg" }, "geometry": { "type": "Point", "coordinates": [ 13.4508052, 52.5353899 ] } },
{ "type": "Feature", "properties": { "name": "Aral", "poi_type": "fuel_station", "brand": "Aral", "operator": "Torsten Hauser", "opening_hours": "24/7", "address": "Bismarckstraße 1-2, Berlin", "latitude": 52.5127625, "longitude": 13.3193169, "district": "Charlottenburg-Wilmersdorf", "district_id": "04", "neighborhood": "Charlottenburg", "neighborhood_id": "Charlottenburg" }, "geometry": { "type": "Point", "coordinates": [ 13.3193169, 52.5127625 ] } },
{ "type": "Feature", "properties": { "name": "Total", "poi_type": "fuel_station", "brand": "TotalEnergies", "operator": "Total", "opening_hours": "24/7", "address": "Jafféstraße 35,37, 14055 Berlin", "latitude": 52.5082671, "longitude": 13.2605921, "district": "Charlottenburg-Wilmersdorf", "district_id": "04", "neighborhood": "Westend", "neighborhood_id": "Westend" }, "geometry": { "type": "Point", "coordinates": [ 13.2605921, 52.5082671 ] } },
{ "type": "Feature", "properties": { "name": "Propan Geppert", "poi_type": "fuel_station", "brand": null, "operator": null, "opening_hours": "Mo-Fr 07:00-16:00; Sa 09:00-12:00", "address": "Greinerstraße 10, 12107 Berlin", "latitude": 52.4352652, "longitude": 13.3706421, "district": "Tempelhof-Schöneberg", "district_id": "07", "neighborhood": "Mariendorf", "neighborhood_id": "Mariendorf" }, "geometry": { "type": "Point", "coordinates": [ 13.3706421, 52.4352652 ] } },
{ "type": "Feature", "properties": { "name": "Sprint", "poi_type": "fuel_station", "brand": "Sprint", "operator": null, "opening_hours": "24/7", "address": "Mecklenburgische Straße 76, 10713 Berlin", "latitude": 52.4793052, "longitude": 13.313516, "district": "Charlottenburg-Wilmersdorf", "district_id": "04", "neighborhood": "Wilmersdorf", "neighborhood_id": "Wilmersdorf" }, "geometry": { "type": "Point", "coordinates": [ 13.313516, 52.4793052 ] } },
{ "type": "Feature", "properties": { "name": "Hans Engelke Energie", "poi_type": "fuel_station", "brand": null, "operator": "Hans Engelke Energie", "opening_hours": "24/7", "address": "Tempelhofer Weg 10, 12099 Berlin", "latitude": 52.4586478, "longitude": 13.4222118, "district": "Tempelhof-Schöneberg", "district_id": "07", "neighborhood": "Tempelhof", "neighborhood_id": "Tempelhof" }, "geometry": { "type": "Point", "coordinates": [ 13.4222118, 52.4586478 ] } },
{ "type": "Feature", "properties": { "name": "Nordtanke", "poi_type": "fuel_station", "brand": null, "operator": "NORD-TANKE GmbH", "opening_hours": "07:00-19:00", "address": null, "latitude": 52.5773118, "longitude": 13.3144029, "district": "Reinickendorf", "district_id": "12", "neighborhood": "Reinickendorf", "neighborhood_id": "Reinickendorf" }, "geometry": { "type": "Point", "coordinates": [ 13.3144029, 52.5773118 ] } },
{ "type": "Feature", "properties": { "name": "Star", "poi_type": "fuel_station", "brand": "star", "operator": "PKN Orlen", "opening_hours": "24/7", "address": "Siegfriedstraße 170, 10365 Berlin", "latitude": 52.5243813, "longitude": 13.4990497, "district": "Lichtenberg", "district_id": "11", "neighborhood": "Lichtenberg", "neighborhood_id": "Lichtenberg" }, "geometry": { "type": "Point", "coordinates": [ 13.4990497, 52.5243813 ] } },
{ "type": "Feature", "properties": { "name": "unknown gas station", "poi_type": "fuel_station", "brand": "Independent", "operator": null, "opening_hours": "24/7", "address": null, "latitude": 52.4586228, "longitude": 13.3970949, "district": "Tempelhof-Schöneberg", "district_id": "07", "neighborhood": "Tempelhof", "neighborhood_id": "Tempelhof" }, "geometry": { "type": "Point", "coordinates": [ 13.3970949, 52.4586228 ] } },
{ "type": "Feature", "properties": { "name": "Q1", "poi_type": "fuel_station", "brand": "Q1", "operator": "Fast Forward GmbH", "opening_hours": "24/7", "address": "Mariendorfer Damm 11-13, 12109 Berlin", "latitude": 52.4520121, "longitude": 13.3850451, "district": "Tempelhof-Schöneberg", "district_id": "07", "neighborhood": "Mariendorf", "neighborhood_id": "Mariendorf" }, "geometry": { "type": "Point", "coordinates": [ 13.3850451, 52.4520121 ] } },
{ "type": "Feature", "properties": { "name": "Total", "poi_type": "fuel_station", "brand": "TotalEnergies", "operator": "Total", "opening_hours": "24/7", "address": "Britzer Damm 60, 12347 Berlin", "latitude": 52.4568511, "longitude": 13.4364, "district": "Neukölln", "district_id": "08", "neighborhood": "Britz", "neighborhood_id": "Britz" }, "geometry": { "type": "Point", "coordinates": [ 13.4364, 52.4568511 ] } },
{ "type": "Feature", "properties": { "name": "Shell", "poi_type": "fuel_station", "brand": "Shell", "operator": "Shell", "opening_hours": "24/7", "address": "Sachsendamm 90-92, 10829 Berlin", "latitude": 52.4786467, "longitude": 13.3550598, "district": "Tempelhof-Schöneberg", "district_id": "07", "neighborhood": "Schöneberg", "neighborhood_id": "Schöneberg" }, "geometry": { "type": "Point", "coordinates": [ 13.3550598, 52.4786467 ] } },
{ "type": "Feature", "properties": { "name": "Shell", "poi_type": "fuel_station", "brand": "Shell", "operator": "Shell", "opening_hours": "24/7", "address": "Kaiser-Friedrich-Straße 95, 10585 Berlin", "latitude": 52.5158799, "longitude": 13.3013692, "district": "Charlottenburg-Wilmersdorf", "district_id": "04", "neighborhood": "Charlottenburg", "neighborhood_id": "Charlottenburg" }, "geometry": { "type": "Point", "coordinates": [ 13.3013692, 52.5158799 ] } },
{ "type": "Feature", "properties": { "name": "TotalEnergies", "poi_type": "fuel_station", "brand": "TotalEnergies", "operator": null, "opening_hours": "Mo-Fr 05:00-22:00; Sa-Su 06:00-22:00", "address": "Wackenbergstraße 2-6, 13156 Berlin", "latitude": 52.5829768, "longitude": 13.4045194, "district": "Pankow", "district_id": "03", "neighborhood": "Niederschönhausen", "neighborhood_id": "Niederschönhausen" }, "geometry": { "type": "Point", "coordinates": [ 13.4045194, 52.5829768 ] } },
{ "type": "Feature", "properties": { "name": "Shell", "poi_type": "fuel_station", "brand": "Shell", "operator": "Shell", "opening_hours": "24/7", "address": "Letterhausweg 2, 13627 Berlin", "latitude": 52.5343192, "longitude": 13.28312, "district": "Charlottenburg-Wilmersdorf", "district_id": "04", "neighborhood": "Charlottenburg-Nord", "neighborhood_id": "Charlottenburg-Nord" }, "geometry": { "type": "Point", "coordinates": [ 13.28312, 52.5343192 ] } },
{ "type": "Feature", "properties": { "name": "Aral", "poi_type": "fuel_station", "brand": "Aral", "operator": null, "opening_hours": null, "address": "Königstraße 58, 14109 Berlin", "latitude": 52.4191027, "longitude": 13.1590065, "district": "Steglitz-Zehlendorf", "district_id": "06", "neighborhood": "Wannsee", "neighborhood_id": "Wannsee" }, "geometry": { "type": "Point", "coordinates": [ 13.1590065, 52.4191027 ] } },
{ "type": "Feature", "properties": { "name": "Total", "poi_type": "fuel_station", "brand": "TotalEnergies", "operator": null, "opening_hours": "Mo-Su,PH 00:00-24:00", "address": "Storkower Straße 174, 10369 Berlin", "latitude": 52.5274399, "longitude": 13.4579265, "district": "Lichtenberg", "district_id": "11", "neighborhood": "Fennpfuhl", "neighborhood_id": "Fennpfuhl" }, "geometry": { "type": "Point", "coordinates": [ 13.4579265, 52.5274399 ] } },
{ "type": "Feature", "properties": { "name": "Jet", "poi_type": "fuel_station", "brand": "JET", "operator": null, "opening_hours": "24/7", "address": "Hauptstraße 70A, 13127 Berlin", "latitude": 52.6036442, "longitude": 13.4324571, "district": "Pankow", "district_id": "03", "neighborhood": "Französisch Buchholz", "neighborhood_id": "Französisch" }, "geometry": { "type": "Point", "coordinates": [ 13.4324571, 52.6036442 ] } },
{ "type": "Feature", "properties": { "name": "Esso", "poi_type": "fuel_station", "brand": "Esso", "operator": "Grit Irion", "opening_hours": "24/7", "address": "Kaiser-Wilhelm-Straße 34, 12247 Berlin", "latitude": 52.4322781, "longitude": 13.3380598, "district": "Steglitz-Zehlendorf", "district_id": "06", "neighborhood": "Lankwitz", "neighborhood_id": "Lankwitz" }, "geometry": { "type": "Point", "coordinates": [ 13.3380598, 52.4322781 ] } },
{ "type": "Feature", "properties": { "name": "Total", "poi_type": "fuel_station", "brand": "TotalEnergies", "operator": "Susanne Rosin", "opening_hours": "Mo-Fr 06:00-22:00; Sa,Su 07:00-22:00", "address": "Berliner Straße 15a, 14169 Berlin", "latitude": 52.4362048, "longitude": 13.2657305, "district": "Steglitz-Zehlendorf", "district_id": "06", "neighborhood": "Zehlendorf", "neighborhood_id": "Zehlendorf" }, "geometry": { "type": "Point", "coordinates": [ 13.2657305, 52.4362048 ] } },
{ "type": "Feature", "properties": { "name": "Shell", "poi_type": "fuel_station", "brand": "Shell", "operator": null, "opening_hours": "Mo-Su 06:00-23:00", "address": "Mariendorfer Damm 170-172, 12107 Berlin", "latitude": 52.4360632, "longitude": 13.3884824, "district": "Tempelhof-Schöneberg", "district_id": "07", "neighborhood": "Mariendorf", "neighborhood_id": "Mariendorf" }, "geometry": { "type": "Point", "coordinates": [ 13.3884824, 52.4360632 ] } },
{ "type": "Feature", "properties": { "name": "bft", "poi_type": "fuel_station", "brand": "bft", "operator": "KP-Petrol GmbH", "opening_hours": "Mo-Fr 06:00-22:00; Sa,Su,PH 08:00-22:00", "address": null, "latitude": 52.5617489, "longitude": 13.328822, "district": "Mitte", "district_id": "01", "neighborhood": "Wedding", "neighborhood_id": "Wedding" }, "geometry": { "type": "Point", "coordinates": [ 13.328822, 52.5617489 ] } },
{ "type": "Feature", "properties": { "name": "Shell", "poi_type": "fuel_station", "brand": "Shell", "operator": null, "opening_hours": "Mo-Su,PH 00:00-24:00", "address": "Prinzenallee 20, 13357 Berlin", "latitude": 52.5552146, "longitude": 13.3843252, "district": "Mitte", "district_id": "01", "neighborhood": "Gesundbrunnen", "neighborhood_id": "Gesundbrunnen" }, "geometry": { "type": "Point", "coordinates": [ 13.3843252, 52.5552146 ] } },
{ "type": "Feature", "properties": { "name": "Jet", "poi_type": "fuel_station", "brand": "JET", "operator": "Uta Melzer", "opening_hours": "24/7", "address": "Prenzlauer Promenade 41-42, 13089 Berlin", "latitude": 52.5596259, "longitude": 13.4287521, "district": "Pankow", "district_id": "03", "neighborhood": "Heinersdorf", "neighborhood_id": "Heinersdorf" }, "geometry": { "type": "Point", "coordinates": [ 13.4287521, 52.5596259 ] } },
{ "type": "Feature", "properties": { "name": "Shell", "poi_type": "fuel_station", "brand": "Shell", "operator": null, "opening_hours": null, "address": "Lindenstraße 21, 12555 Berlin", "latitude": 52.4552455, "longitude": 13.567476, "district": "Treptow-Köpenick", "district_id": "09", "neighborhood": "Köpenick", "neighborhood_id": "Köpenick" }, "geometry": { "type": "Point", "coordinates": [ 13.567476, 52.4552455 ] } },
{ "type": "Feature", "properties": { "name": "Aral", "poi_type": "fuel_station", "brand": "Aral", "operator": "Daniela Anton", "opening_hours": "24/7", "address": "Drakestraße 26a, 12205 Berlin", "latitude": 52.4409809, "longitude": 13.2994657, "district": "Steglitz-Zehlendorf", "district_id": "06", "neighborhood": "Lichterfelde", "neighborhood_id": "Lichterfelde" }, "geometry": { "type": "Point", "coordinates": [ 13.2994657, 52.4409809 ] } },
{ "type": "Feature", "properties": { "name": "Shell", "poi_type": "fuel_station", "brand": "Shell", "operator": null, "opening_hours": "24/7", "address": "Hohenzollerndamm 41-42, 10713 Berlin", "latitude": 52.488821, "longitude": 13.3066926, "district": "Charlottenburg-Wilmersdorf", "district_id": "04", "neighborhood": "Wilmersdorf", "neighborhood_id": "Wilmersdorf" }, "geometry": { "type": "Point", "coordinates": [ 13.3066926, 52.488821 ] } },
{ "type": "Feature", "properties": { "name": "Aral", "poi_type": "fuel_station", "brand": "Aral", "operator": null, "opening_hours": "24/7", "address": "Kaiser-Wilhelm-Straße 117, 12247 Berlin", "latitude": 52.4396833, "longitude": 13.3516616, "district": "Steglitz-Zehlendorf", "district_id": "06", "neighborhood": "Lankwitz", "neighborhood_id": "Lankwitz" }, "geometry": { "type": "Point", "coordinates": [ 13.3516616, 52.4396833 ] } },
{ "type": "Feature", "properties": { "name": "Total", "poi_type": "fuel_station", "brand": "TotalEnergies", "operator": null, "opening_hours": null, "address": "Arnulfstraße 98-99, 12105 Berlin", "latitude": 52.4555361, "longitude": 13.3668986, "district": "Tempelhof-Schöneberg", "district_id": "07", "neighborhood": "Tempelhof", "neighborhood_id": "Tempelhof" }, "geometry": { "type": "Point", "coordinates": [ 13.3668986, 52.4555361 ] } },
{ "type": "Feature", "properties": { "name": "Star", "poi_type": "fuel_station", "brand": "star", "operator": null, "opening_hours": "Mo-Fr 06:00-22:00; Sa 07:00-22:00; Su 07:00-22:00", "address": "Königsberger Straße 25A, 12207 Berlin", "latitude": 52.4300523, "longitude": 13.312741, "district": "Steglitz-Zehlendorf", "district_id": "06", "neighborhood": "Lichterfelde", "neighborhood_id": "Lichterfelde" }, "geometry": { "type": "Point", "coordinates": [ 13.312741, 52.4300523 ] } },
{ "type": "Feature", "properties": { "name": "1. FC Union Zapfstelle", "poi_type": "fuel_station", "brand": "TotalEnergies", "operator": "Total", "opening_hours": null, "address": "Michael-Brückner-Straße 26-31, 12439 Berlin", "latitude": 52.4537797, "longitude": 13.5130338, "district": "Treptow-Köpenick", "district_id": "09", "neighborhood": "Niederschöneweide", "neighborhood_id": "Niederschöneweide" }, "geometry": { "type": "Point", "coordinates": [ 13.5130338, 52.4537797 ] } },
{ "type": "Feature", "properties": { "name": "Sprint", "poi_type": "fuel_station", "brand": "Sprint", "operator": null, "opening_hours": "Mo-Fr 06:00-22:00; Sa-Su 07:00-22:00", "address": "Rudower Straße 148, 12351 Berlin", "latitude": 52.4329747, "longitude": 13.4709326, "district": "Neukölln", "district_id": "08", "neighborhood": "Buckow", "neighborhood_id": "Buckow" }, "geometry": { "type": "Point", "coordinates": [ 13.4709326, 52.4329747 ] } },
{ "type": "Feature", "properties": { "name": "Shell", "poi_type": "fuel_station", "brand": "Shell", "operator": null, "opening_hours": "Mo-Fr 06:00-22:00; Sa,Su 07:00-22:00", "address": "Bahnhofstraße 1", "latitude": 52.3870504, "longitude": 13.4078226, "district": "Tempelhof-Schöneberg", "district_id": "07", "neighborhood": "Lichtenrade", "neighborhood_id": "Lichtenrade" }, "geometry": { "type": "Point", "coordinates": [ 13.4078226, 52.3870504 ] } },
{ "type": "Feature", "properties": { "name": "JET", "poi_type": "fuel_station", "brand": "JET", "operator": null, "opening_hours": "Mo-Sa 05:00-23:00", "address": "Romain-Rolland-Straße 13A, 13089 Berlin", "latitude": 52.5644853, "longitude": 13.4474699, "district": "Pankow", "district_id": "03", "neighborhood": "Heinersdorf", "neighborhood_id": "Heinersdorf" }, "geometry": { "type": "Point", "coordinates": [ 13.4474699, 52.5644853 ] } },
{ "type": "Feature", "properties": { "name": "Shell", "poi_type": "fuel_station", "brand": "Shell", "operator": "Shell", "opening_hours": "Mo-Fr 06:00-22:00; Sa,Su 07:00-22:00", "address": "Hauptstraße 90, 12159 Berlin", "latitude": 52.4759983, "longitude": 13.3412185, "district": "Tempelhof-Schöneberg", "district_id": "07", "neighborhood": "Schöneberg", "neighborhood_id": "Schöneberg" }, "geometry": { "type": "Point", "coordinates": [ 13.3412185, 52.4759983 ] } },
{ "type": "Feature", "properties": { "name": "Aral", "poi_type": "fuel_station", "brand": "Aral", "operator": "Mike Seitz", "opening_hours": null, "address": "Hohenzollerndamm 97, 14199 Berlin", "latitude": 52.475961, "longitude": 13.2791394, "district": "Charlottenburg-Wilmersdorf", "district_id": "04", "neighborhood": "Grunewald", "neighborhood_id": "Grunewald" }, "geometry": { "type": "Point", "coordinates": [ 13.2791394, 52.475961 ] } },
{ "type": "Feature", "properties": { "name": "Star", "poi_type": "fuel_station", "brand": "star", "operator": "Star", "opening_hours": "06:00-22:00", "address": "Lindenthaler Allee 42, 14163 Berlin", "latitude": 52.4314505, "longitude": 13.2303812, "district": "Steglitz-Zehlendorf", "district_id": "06", "neighborhood": "Zehlendorf", "neighborhood_id": "Zehlendorf" }, "geometry": { "type": "Point", "coordinates": [ 13.2303812, 52.4314505 ] } },
{ "type": "Feature", "properties": { "name": "HEM", "poi_type": "fuel_station", "brand": "HEM", "operator": null, "opening_hours": "Mo-Su,PH 06:00-22:00", "address": "Lichterfelder Ring 96, 12279 Berlin", "latitude": 52.4123509, "longitude": 13.3472424, "district": "Tempelhof-Schöneberg", "district_id": "07", "neighborhood": "Marienfelde", "neighborhood_id": "Marienfelde" }, "geometry": { "type": "Point", "coordinates": [ 13.3472424, 52.4123509 ] } },
{ "type": "Feature", "properties": { "name": "Star", "poi_type": "fuel_station", "brand": "star", "operator": "ORLEN Deutschland GmbH", "opening_hours": "Su 08:00-21:30; Mo-Sa 07:00-21:30", "address": "Finckensteinallee 133, 12205 Berlin", "latitude": 52.4323988, "longitude": 13.2866087, "district": "Steglitz-Zehlendorf", "district_id": "06", "neighborhood": "Lichterfelde", "neighborhood_id": "Lichterfelde" }, "geometry": { "type": "Point", "coordinates": [ 13.2866087, 52.4323988 ] } },
{ "type": "Feature", "properties": { "name": "Shell", "poi_type": "fuel_station", "brand": "Shell", "operator": "Schmeisser Tankstellen Verwaltungs- & Betriebsgesellschaft mbH", "opening_hours": null, "address": "Beusselstraße 44N-Q, 10553 Berlin", "latitude": 52.535551, "longitude": 13.3249936, "district": "Mitte", "district_id": "01", "neighborhood": "Moabit", "neighborhood_id": "Moabit" }, "geometry": { "type": "Point", "coordinates": [ 13.3249936, 52.535551 ] } },
{ "type": "Feature", "properties": { "name": "unknown gas station", "poi_type": "fuel_station", "brand": null, "operator": "BEHALA", "opening_hours": null, "address": null, "latitude": 52.5375152, "longitude": 13.3406593, "district": "Mitte", "district_id": "01", "neighborhood": "Moabit", "neighborhood_id": "Moabit" }, "geometry": { "type": "Point", "coordinates": [ 13.3406593, 52.5375152 ] } },
{ "type": "Feature", "properties": { "name": "HEM", "poi_type": "fuel_station", "brand": "HEM", "operator": null, "opening_hours": "Mo-Su,PH 05:00-23:00", "address": "Straße vor Schönholz 3, 13158 Berlin", "latitude": 52.5766013, "longitude": 13.3786961, "district": "Pankow", "district_id": "03", "neighborhood": "Niederschönhausen", "neighborhood_id": "Niederschönhausen" }, "geometry": { "type": "Point", "coordinates": [ 13.3786961, 52.5766013 ] } },
{ "type": "Feature", "properties": { "name": "Esso", "poi_type": "fuel_station", "brand": "Esso", "operator": "Esso", "opening_hours": "Mo-Su,PH 00:00-00:00", "address": "Mariendorfer Damm 44, 12109 Berlin", "latitude": 52.4488585, "longitude": 13.384677, "district": "Tempelhof-Schöneberg", "district_id": "07", "neighborhood": "Mariendorf", "neighborhood_id": "Mariendorf" }, "geometry": { "type": "Point", "coordinates": [ 13.384677, 52.4488585 ] } },
{ "type": "Feature", "properties": { "name": "Total", "poi_type": "fuel_station", "brand": "TotalEnergies", "operator": null, "opening_hours": "Mo-Su 06:00-22:00", "address": "Hildburghauser Straße 222, 12209 Berlin", "latitude": 52.4191524, "longitude": 13.3193384, "district": "Steglitz-Zehlendorf", "district_id": "06", "neighborhood": "Lichterfelde", "neighborhood_id": "Lichterfelde" }, "geometry": { "type": "Point", "coordinates": [ 13.3193384, 52.4191524 ] } },
{ "type": "Feature", "properties": { "name": "Star", "poi_type": "fuel_station", "brand": "star", "operator": "Orlen Deutschland GmbH", "opening_hours": "Mo-Su 06:00-22:00", "address": "Waidmannsluster Damm 54, 13509 Berlin", "latitude": 52.5982085, "longitude": 13.2987771, "district": "Reinickendorf", "district_id": "12", "neighborhood": "Tegel", "neighborhood_id": "Tegel" }, "geometry": { "type": "Point", "coordinates": [ 13.2987771, 52.5982085 ] } },
{ "type": "Feature", "properties": { "name": "Aral", "poi_type": "fuel_station", "brand": "Aral", "operator": "Jörg Bräuer", "opening_hours": "24/7", "address": "Brunnenstraße 119, 13355 Berlin", "latitude": 52.5407012, "longitude": 13.3931735, "district": "Mitte", "district_id": "01", "neighborhood": "Gesundbrunnen", "neighborhood_id": "Gesundbrunnen" }, "geometry": { "type": "Point", "coordinates": [ 13.3931735, 52.5407012 ] } },
{ "type": "Feature", "properties": { "name": "Aral", "poi_type": "fuel_station", "brand": "Aral", "operator": "Aral", "opening_hours": "24/7", "address": "Mariendorfer Damm 195, 12107 Berlin", "latitude": 52.4338927, "longitude": 13.3907358, "district": "Tempelhof-Schöneberg", "district_id": "07", "neighborhood": "Mariendorf", "neighborhood_id": "Mariendorf" }, "geometry": { "type": "Point", "coordinates": [ 13.3907358, 52.4338927 ] } },
{ "type": "Feature", "properties": { "name": "Aral", "poi_type": "fuel_station", "brand": "Aral", "operator": "Mike Seitz", "opening_hours": "24/7", "address": "Kurfürstendamm 128, 10711 Berlin", "latitude": 52.4957203, "longitude": 13.2876286, "district": "Charlottenburg-Wilmersdorf", "district_id": "04", "neighborhood": "Halensee", "neighborhood_id": "Halensee" }, "geometry": { "type": "Point", "coordinates": [ 13.2876286, 52.4957203 ] } },
{ "type": "Feature", "properties": { "name": "Aral", "poi_type": "fuel_station", "brand": "Aral", "operator": "Pascal Kreul", "opening_hours": null, "address": "Heerstraße 136, 14055 Berlin", "latitude": 52.5072786, "longitude": 13.2276598, "district": "Charlottenburg-Wilmersdorf", "district_id": "04", "neighborhood": "Westend", "neighborhood_id": "Westend" }, "geometry": { "type": "Point", "coordinates": [ 13.2276598, 52.5072786 ] } },
{ "type": "Feature", "properties": { "name": "Aral", "poi_type": "fuel_station", "brand": "Aral", "operator": "Marco Hennig", "opening_hours": "24/7", "address": "Skalitzer Straße 26, 10999 Berlin", "latitude": 52.4987722, "longitude": 13.4228522, "district": "Friedrichshain-Kreuzberg", "district_id": "02", "neighborhood": "Kreuzberg", "neighborhood_id": "Kreuzberg" }, "geometry": { "type": "Point", "coordinates": [ 13.4228522, 52.4987722 ] } },
{ "type": "Feature", "properties": { "name": "HEM", "poi_type": "fuel_station", "brand": "HEM", "operator": "Silke Dietrich", "opening_hours": null, "address": "Alt-Mahlsdorf 40, 12623 Berlin", "latitude": 52.5052305, "longitude": 13.6168443, "district": "Marzahn-Hellersdorf", "district_id": "10", "neighborhood": "Mahlsdorf", "neighborhood_id": "Mahlsdorf" }, "geometry": { "type": "Point", "coordinates": [ 13.6168443, 52.5052305 ] } },
{ "type": "Feature", "properties": { "name": "HEM", "poi_type": "fuel_station", "brand": "HEM", "operator": "Rene Lange", "opening_hours": "05:00-24:00", "address": "Saatwinkler Damm 62, 13627 Berlin", "latitude": 52.54736, "longitude": 13.3100907, "district": "Charlottenburg-Wilmersdorf", "district_id": "04", "neighborhood": "Charlottenburg-Nord", "neighborhood_id": "Charlottenburg-Nord" }, "geometry": { "type": "Point", "coordinates": [ 13.3100907, 52.54736 ] } },
{ "type": "Feature", "properties": { "name": "Shell", "poi_type": "fuel_station", "brand": "Shell", "operator": null, "opening_hours": null, "address": "Großbeerenstraße 82-88, 12107 Berlin", "latitude": 52.4335102, "longitude": 13.3770078, "district": "Tempelhof-Schöneberg", "district_id": "07", "neighborhood": "Mariendorf", "neighborhood_id": "Mariendorf" }, "geometry": { "type": "Point", "coordinates": [ 13.3770078, 52.4335102 ] } },
{ "type": "Feature", "properties": { "name": "Star", "poi_type": "fuel_station", "brand": "star", "operator": "ORLEN Deutschland GmbH", "opening_hours": "24/7", "address": "Adlergestell 391, 12527 Berlin", "latitude": 52.4237432, "longitude": 13.5595161, "district": "Treptow-Köpenick", "district_id": "09", "neighborhood": "Grünau", "neighborhood_id": "Grünau" }, "geometry": { "type": "Point", "coordinates": [ 13.5595161, 52.4237432 ] } },
{ "type": "Feature", "properties": { "name": "Agip", "poi_type": "fuel_station", "brand": "Agip", "operator": null, "opening_hours": "24/7", "address": "Ludwigsluster Straße 15A, 12619 Berlin", "latitude": 52.5144295, "longitude": 13.5814351, "district": "Marzahn-Hellersdorf", "district_id": "10", "neighborhood": "Hellersdorf", "neighborhood_id": "Hellersdorf" }, "geometry": { "type": "Point", "coordinates": [ 13.5814351, 52.5144295 ] } },
{ "type": "Feature", "properties": { "name": "Jet", "poi_type": "fuel_station", "brand": "JET", "operator": "Mathias Fuhrmann", "opening_hours": "Mo-Fr 05:00-22:00; Sa 05:30-22:00; Su 06:00-22:00", "address": "Köpenicker Straße 108, 12683 Berlin", "latitude": 52.4959113, "longitude": 13.562842, "district": "Marzahn-Hellersdorf", "district_id": "10", "neighborhood": "Biesdorf", "neighborhood_id": "Biesdorf" }, "geometry": { "type": "Point", "coordinates": [ 13.562842, 52.4959113 ] } },
{ "type": "Feature", "properties": { "name": "Esso", "poi_type": "fuel_station", "brand": "Esso", "operator": "Esso", "opening_hours": "24/7", "address": "Berliner Straße 20-22, 14169 Berlin", "latitude": 52.4355796, "longitude": 13.2666014, "district": "Steglitz-Zehlendorf", "district_id": "06", "neighborhood": "Zehlendorf", "neighborhood_id": "Zehlendorf" }, "geometry": { "type": "Point", "coordinates": [ 13.2666014, 52.4355796 ] } },
{ "type": "Feature", "properties": { "name": "Shell", "poi_type": "fuel_station", "brand": "Shell", "operator": "Shell", "opening_hours": null, "address": "Spandauer Damm 151, 14050 Berlin", "latitude": 52.5191302, "longitude": 13.2720342, "district": "Charlottenburg-Wilmersdorf", "district_id": "04", "neighborhood": "Westend", "neighborhood_id": "Westend" }, "geometry": { "type": "Point", "coordinates": [ 13.2720342, 52.5191302 ] } },
{ "type": "Feature", "properties": { "name": "Aral", "poi_type": "fuel_station", "brand": "Aral", "operator": null, "opening_hours": "Mo-Su,PH 00:00-24:00+", "address": "Dudenstraße 19;21, 10965 Berlin", "latitude": 52.4846039, "longitude": 13.3814603, "district": "Tempelhof-Schöneberg", "district_id": "07", "neighborhood": "Tempelhof", "neighborhood_id": "Tempelhof" }, "geometry": { "type": "Point", "coordinates": [ 13.3814603, 52.4846039 ] } },
{ "type": "Feature", "properties": { "name": "Shell", "poi_type": "fuel_station", "brand": "Shell", "operator": "Steffen Kolberg Tankstellen Verwaltungs- und Betriebs GmbH", "opening_hours": "24/7", "address": "Kaiserdamm 34, 14057 Berlin", "latitude": 52.5100257, "longitude": 13.2769621, "district": "Charlottenburg-Wilmersdorf", "district_id": "04", "neighborhood": "Westend", "neighborhood_id": "Westend" }, "geometry": { "type": "Point", "coordinates": [ 13.2769621, 52.5100257 ] } },
{ "type": "Feature", "properties": { "name": "Esso", "poi_type": "fuel_station", "brand": "Esso", "operator": "Esso", "opening_hours": null, "address": "Hubertusallee 1-3, 14193 Berlin", "latitude": 52.4942212, "longitude": 13.2846071, "district": "Charlottenburg-Wilmersdorf", "district_id": "04", "neighborhood": "Grunewald", "neighborhood_id": "Grunewald" }, "geometry": { "type": "Point", "coordinates": [ 13.2846071, 52.4942212 ] } },
{ "type": "Feature", "properties": { "name": "Agip", "poi_type": "fuel_station", "brand": "Agip", "operator": null, "opening_hours": "Mo-Fr 05:00-23:00; Sa 06:00-23:00; Su,PH 07:00-22:00", "address": "Westhafenstraße 1-3, 13353 Berlin", "latitude": 52.5383295, "longitude": 13.3437686, "district": "Mitte", "district_id": "01", "neighborhood": "Moabit", "neighborhood_id": "Moabit" }, "geometry": { "type": "Point", "coordinates": [ 13.3437686, 52.5383295 ] } },
{ "type": "Feature", "properties": { "name": "Aral", "poi_type": "fuel_station", "brand": "Aral", "operator": "Peter Fecher", "opening_hours": null, "address": "Levetzowstraße 9, 10555 Berlin", "latitude": 52.52079, "longitude": 13.333485, "district": "Mitte", "district_id": "01", "neighborhood": "Moabit", "neighborhood_id": "Moabit" }, "geometry": { "type": "Point", "coordinates": [ 13.333485, 52.52079 ] } },
{ "type": "Feature", "properties": { "name": "Aral", "poi_type": "fuel_station", "brand": "Aral", "operator": null, "opening_hours": "24/7", "address": "Kaiser-Friedrich-Straße 45 b, 10627 Berlin", "latitude": 52.5076786, "longitude": 13.3016753, "district": "Charlottenburg-Wilmersdorf", "district_id": "04", "neighborhood": "Charlottenburg", "neighborhood_id": "Charlottenburg" }, "geometry": { "type": "Point", "coordinates": [ 13.3016753, 52.5076786 ] } },
{ "type": "Feature", "properties": { "name": "Aral", "poi_type": "fuel_station", "brand": "Aral", "operator": "Klaus Guthmann", "opening_hours": "Mo-Su,PH 00:00-24:00+", "address": "Scharnweberstraße 12;13, 13405 Berlin", "latitude": 52.5635643, "longitude": 13.3300061, "district": "Reinickendorf", "district_id": "12", "neighborhood": "Reinickendorf", "neighborhood_id": "Reinickendorf" }, "geometry": { "type": "Point", "coordinates": [ 13.3300061, 52.5635643 ] } },
{ "type": "Feature", "properties": { "name": "Shell", "poi_type": "fuel_station", "brand": "Shell", "operator": "Shell", "opening_hours": "Mo-Su 00:00-24:00", "address": "Bundesallee 200, 10717 Berlin", "latitude": 52.4929041, "longitude": 13.331531, "district": "Charlottenburg-Wilmersdorf", "district_id": "04", "neighborhood": "Wilmersdorf", "neighborhood_id": "Wilmersdorf" }, "geometry": { "type": "Point", "coordinates": [ 13.331531, 52.4929041 ] } },
{ "type": "Feature", "properties": { "name": "Sprint", "poi_type": "fuel_station", "brand": "Sprint", "operator": null, "opening_hours": "24/7", "address": "Nonnendammallee 42, 13599 Berlin", "latitude": 52.5375187, "longitude": 13.2473029, "district": "Spandau", "district_id": "05", "neighborhood": "Siemensstadt", "neighborhood_id": "Siemensstadt" }, "geometry": { "type": "Point", "coordinates": [ 13.2473029, 52.5375187 ] } },
{ "type": "Feature", "properties": { "name": "Aral", "poi_type": "fuel_station", "brand": "Aral", "operator": null, "opening_hours": "24/7", "address": "Rathenower Straße 8, 10559 Berlin", "latitude": 52.5254052, "longitude": 13.3570415, "district": "Mitte", "district_id": "01", "neighborhood": "Moabit", "neighborhood_id": "Moabit" }, "geometry": { "type": "Point", "coordinates": [ 13.3570415, 52.5254052 ] } },
{ "type": "Feature", "properties": { "name": "Shell", "poi_type": "fuel_station", "brand": "Shell", "operator": null, "opening_hours": "24/7", "address": "Scharnweberstraße 81, 13405 Berlin", "latitude": 52.5677331, "longitude": 13.3100673, "district": "Reinickendorf", "district_id": "12", "neighborhood": "Reinickendorf", "neighborhood_id": "Reinickendorf" }, "geometry": { "type": "Point", "coordinates": [ 13.3100673, 52.5677331 ] } },
{ "type": "Feature", "properties": { "name": "Sprint", "poi_type": "fuel_station", "brand": "Sprint", "operator": "Sprint Tank GmbH", "opening_hours": "Mo-Sa 05:00-22:00; Su 06:00-22:00", "address": "Blankenburger Straße 99, 13089 Berlin", "latitude": 52.5711779, "longitude": 13.4426588, "district": "Pankow", "district_id": "03", "neighborhood": "Heinersdorf", "neighborhood_id": "Heinersdorf" }, "geometry": { "type": "Point", "coordinates": [ 13.4426588, 52.5711779 ] } },
{ "type": "Feature", "properties": { "name": "Aral", "poi_type": "fuel_station", "brand": "Aral", "operator": null, "opening_hours": "24/7", "address": "Frankfurter Allee 214, 10365 Berlin", "latitude": 52.5112304, "longitude": 13.4935863, "district": "Lichtenberg", "district_id": "11", "neighborhood": "Lichtenberg", "neighborhood_id": "Lichtenberg" }, "geometry": { "type": "Point", "coordinates": [ 13.4935863, 52.5112304 ] } },
{ "type": "Feature", "properties": { "name": "Total", "poi_type": "fuel_station", "brand": "TotalEnergies", "operator": "Total", "opening_hours": "Mo-Su,PH 05:00-22:00", "address": "Rhinstraße 175, 13053 Berlin", "latitude": 52.5366305, "longitude": 13.5156728, "district": "Lichtenberg", "district_id": "11", "neighborhood": "Alt-Hohenschönhausen", "neighborhood_id": "Alt-Hohenschönhausen" }, "geometry": { "type": "Point", "coordinates": [ 13.5156728, 52.5366305 ] } },
{ "type": "Feature", "properties": { "name": "Total", "poi_type": "fuel_station", "brand": "TotalEnergies", "operator": null, "opening_hours": "Mo-Su,PH 00:00-00:00", "address": "Landsberger Allee 376, 12681 Berlin", "latitude": 52.5353359, "longitude": 13.5229052, "district": "Marzahn-Hellersdorf", "district_id": "10", "neighborhood": "Marzahn", "neighborhood_id": "Marzahn" }, "geometry": { "type": "Point", "coordinates": [ 13.5229052, 52.5353359 ] } },
{ "type": "Feature", "properties": { "name": "Jet", "poi_type": "fuel_station", "brand": "JET", "operator": null, "opening_hours": "PH,Mo-Su 00:00-24:00", "address": "Rhinstraße 240, 13055 Berlin", "latitude": 52.5473585, "longitude": 13.5095372, "district": "Lichtenberg", "district_id": "11", "neighborhood": "Alt-Hohenschönhausen", "neighborhood_id": "Alt-Hohenschönhausen" }, "geometry": { "type": "Point", "coordinates": [ 13.5095372, 52.5473585 ] } },
{ "type": "Feature", "properties": { "name": "Shell", "poi_type": "fuel_station", "brand": "Shell", "operator": null, "opening_hours": "Mo-Su,PH 00:00+", "address": "Jülicher Straße 1, 13357 Berlin", "latitude": 52.5546902, "longitude": 13.3917962, "district": "Mitte", "district_id": "01", "neighborhood": "Gesundbrunnen", "neighborhood_id": "Gesundbrunnen" }, "geometry": { "type": "Point", "coordinates": [ 13.3917962, 52.5546902 ] } },
{ "type": "Feature", "properties": { "name": "Shell", "poi_type": "fuel_station", "brand": "Shell", "operator": "Royal Dutch Shell plc", "opening_hours": null, "address": "Oranienstraße 138, 10969 Berlin", "latitude": 52.5040654, "longitude": 13.4083432, "district": "Friedrichshain-Kreuzberg", "district_id": "02", "neighborhood": "Kreuzberg", "neighborhood_id": "Kreuzberg" }, "geometry": { "type": "Point", "coordinates": [ 13.4083432, 52.5040654 ] } },
{ "type": "Feature", "properties": { "name": "Shell", "poi_type": "fuel_station", "brand": "Shell", "operator": "S&K Tankstellen GmbH", "opening_hours": "Mo-Fr 06:00-22:00; Sa-Su 07:00-22:00", "address": "Rummelsburger Landstraße 16, 12459 Berlin", "latitude": 52.4808932, "longitude": 13.5019701, "district": "Treptow-Köpenick", "district_id": "09", "neighborhood": "Oberschöneweide", "neighborhood_id": "Oberschöneweide" }, "geometry": { "type": "Point", "coordinates": [ 13.5019701, 52.4808932 ] } },
{ "type": "Feature", "properties": { "name": "Aral", "poi_type": "fuel_station", "brand": "Aral", "operator": null, "opening_hours": null, "address": "Märkische Allee 248, 12679 Berlin", "latitude": 52.5538416, "longitude": 13.5517943, "district": "Marzahn-Hellersdorf", "district_id": "10", "neighborhood": "Marzahn", "neighborhood_id": "Marzahn" }, "geometry": { "type": "Point", "coordinates": [ 13.5517943, 52.5538416 ] } },
{ "type": "Feature", "properties": { "name": "Spreves", "poi_type": "fuel_station", "brand": null, "operator": null, "opening_hours": "24/7", "address": "Zeppelinstraße 51, 13583 Berlin", "latitude": 52.5400557, "longitude": 13.1829815, "district": "Spandau", "district_id": "05", "neighborhood": "Falkenhagener Feld", "neighborhood_id": "Falkenhagener Feld" }, "geometry": { "type": "Point", "coordinates": [ 13.1829815, 52.5400557 ] } },
{ "type": "Feature", "properties": { "name": "Shell", "poi_type": "fuel_station", "brand": "Shell", "operator": null, "opening_hours": "Mo-Fr 06:00-22:00; Sa-Su 07:00-22:00", "address": "Johannisthaler Chaussee 411, 12351 Berlin", "latitude": 52.424981, "longitude": 13.4426081, "district": "Neukölln", "district_id": "08", "neighborhood": "Buckow", "neighborhood_id": "Buckow" }, "geometry": { "type": "Point", "coordinates": [ 13.4426081, 52.424981 ] } },
{ "type": "Feature", "properties": { "name": "Sprint", "poi_type": "fuel_station", "brand": "Sprint", "operator": "Sprint Tank GmbH", "opening_hours": "Mo-Su 06:00-22:00", "address": "Ruhlebener Straße 1A, 13597 Berlin", "latitude": 52.5294024, "longitude": 13.2071406, "district": "Spandau", "district_id": "05", "neighborhood": "Spandau", "neighborhood_id": "Spandau" }, "geometry": { "type": "Point", "coordinates": [ 13.2071406, 52.5294024 ] } },
{ "type": "Feature", "properties": { "name": "Aral", "poi_type": "fuel_station", "brand": "Aral", "operator": "Aral", "opening_hours": "PH,Mo-Su 00:00-24:00", "address": "Gartenfelder Straße 71, 13599 Berlin", "latitude": 52.5436719, "longitude": 13.2435379, "district": "Spandau", "district_id": "05", "neighborhood": "Haselhorst", "neighborhood_id": "Haselhorst" }, "geometry": { "type": "Point", "coordinates": [ 13.2435379, 52.5436719 ] } },
{ "type": "Feature", "properties": { "name": "Shell", "poi_type": "fuel_station", "brand": "Shell", "operator": null, "opening_hours": null, "address": "Stendaler Straße 176, 12627 Berlin", "latitude": 52.5455535, "longitude": 13.6039281, "district": "Marzahn-Hellersdorf", "district_id": "10", "neighborhood": "Hellersdorf", "neighborhood_id": "Hellersdorf" }, "geometry": { "type": "Point", "coordinates": [ 13.6039281, 52.5455535 ] } },
{ "type": "Feature", "properties": { "name": "Esso", "poi_type": "fuel_station", "brand": "Esso", "operator": null, "opening_hours": "Mo-Fr 06:00-21:30; Sa 07:00-21:30; Su 08:00-21:30", "address": "Hermsdorfer Damm 221, 13467 Berlin", "latitude": 52.6226282, "longitude": 13.3123592, "district": "Reinickendorf", "district_id": "12", "neighborhood": "Hermsdorf", "neighborhood_id": "Hermsdorf" }, "geometry": { "type": "Point", "coordinates": [ 13.3123592, 52.6226282 ] } },
{ "type": "Feature", "properties": { "name": "TotalEnergies", "poi_type": "fuel_station", "brand": "Total", "operator": null, "opening_hours": "24/7", "address": "Zepernicker Straße 9, 13125 Berlin", "latitude": 52.64092, "longitude": 13.5141988, "district": "Pankow", "district_id": "03", "neighborhood": "Buch", "neighborhood_id": "Buch" }, "geometry": { "type": "Point", "coordinates": [ 13.5141988, 52.64092 ] } },
{ "type": "Feature", "properties": { "name": "Star", "poi_type": "fuel_station", "brand": "star", "operator": null, "opening_hours": "24/7", "address": "Hansastraße 199, 13088 Berlin", "latitude": 52.5588369, "longitude": 13.4915693, "district": "Pankow", "district_id": "03", "neighborhood": "Weißensee", "neighborhood_id": "Weißensee" }, "geometry": { "type": "Point", "coordinates": [ 13.4915693, 52.5588369 ] } },
{ "type": "Feature", "properties": { "name": "Total", "poi_type": "fuel_station", "brand": "TotalEnergies", "operator": "TOTAL Deutschland GmbH", "opening_hours": "Mo-Fr 06:00-23:00; Sa-Su 07:00-23:00", "address": "Heerstraße 324, 13593 Berlin", "latitude": 52.5168369, "longitude": 13.1800478, "district": "Spandau", "district_id": "05", "neighborhood": "Wilhelmstadt", "neighborhood_id": "Wilhelmstadt" }, "geometry": { "type": "Point", "coordinates": [ 13.1800478, 52.5168369 ] } },
{ "type": "Feature", "properties": { "name": "Total", "poi_type": "fuel_station", "brand": "TotalEnergies", "operator": null, "opening_hours": "24/7", "address": "Am Feuchten Winkel 11, 13129 Berlin", "latitude": 52.5821047, "longitude": 13.4324097, "district": "Pankow", "district_id": "03", "neighborhood": "Pankow", "neighborhood_id": "Pankow" }, "geometry": { "type": "Point", "coordinates": [ 13.4324097, 52.5821047 ] } },
{ "type": "Feature", "properties": { "name": "Agip", "poi_type": "fuel_station", "brand": "Eni", "operator": "Eni", "opening_hours": "24/7", "address": "Adlergestell 289, 12489", "latitude": 52.4321779, "longitude": 13.5468231, "district": "Treptow-Köpenick", "district_id": "09", "neighborhood": "Adlershof", "neighborhood_id": "Adlershof" }, "geometry": { "type": "Point", "coordinates": [ 13.5468231, 52.4321779 ] } },
{ "type": "Feature", "properties": { "name": "Shell", "poi_type": "fuel_station", "brand": "Shell", "operator": null, "opening_hours": "Mo-Fr 06:00-22:00; Sa 07:00-22:00; Su 08:00-22:00", "address": "Königsberger Straße 8, 12207 Berlin", "latitude": 52.4296908, "longitude": 13.3221097, "district": "Steglitz-Zehlendorf", "district_id": "06", "neighborhood": "Lichterfelde", "neighborhood_id": "Lichterfelde" }, "geometry": { "type": "Point", "coordinates": [ 13.3221097, 52.4296908 ] } },
{ "type": "Feature", "properties": { "name": "H2 Tankstelle", "poi_type": "fuel_station", "brand": "H2 Mobility", "operator": "H2 MOBILITY", "opening_hours": "24/7", "address": "Rummelsburger Landstraße 16, 12459 Berlin", "latitude": 52.4808249, "longitude": 13.5021999, "district": "Treptow-Köpenick", "district_id": "09", "neighborhood": "Oberschöneweide", "neighborhood_id": "Oberschöneweide" }, "geometry": { "type": "Point", "coordinates": [ 13.5021999, 52.4808249 ] } },
{ "type": "Feature", "properties": { "name": "Total", "poi_type": "fuel_station", "brand": "TotalEnergies", "operator": null, "opening_hours": "24/7", "address": "Eichborndamm 91, 13403 Berlin", "latitude": 52.576390001999613, "longitude": 13.314495243800868, "district": "Reinickendorf", "district_id": "12", "neighborhood": "Reinickendorf", "neighborhood_id": "Reinickendorf" }, "geometry": { "type": "Polygon", "coordinates": [ [ [ 13.3140203, 52.5762965 ], [ 13.3140679, 52.576289 ], [ 13.3141928, 52.5762679 ], [ 13.3143073, 52.5762511 ], [ 13.3144484, 52.5762314 ], [ 13.3146425, 52.5762136 ], [ 13.3147781, 52.5761972 ], [ 13.3148279, 52.5761907 ], [ 13.3148456, 52.5762461 ], [ 13.314884, 52.5763498 ], [ 13.3149164, 52.5764337 ], [ 13.3148286, 52.5765187 ], [ 13.3145529, 52.5765575 ], [ 13.3144268, 52.5765765 ], [ 13.3143361, 52.5765898 ], [ 13.3141985, 52.5765554 ], [ 13.3141745, 52.5765221 ], [ 13.3141248, 52.5764514 ], [ 13.3140203, 52.5762965 ] ] ] } },
{ "type": "Feature", "properties": { "name": "Gebäude F", "poi_type": "fuel_station", "brand": null, "operator": null, "opening_hours": null, "address": null, "latitude": 52.520191645773849, "longitude": 13.504452872203206, "district": "Lichtenberg", "district_id": "11", "neighborhood": "Lichtenberg", "neighborhood_id": "Lichtenberg" }, "geometry": { "type": "Polygon", "coordinates": [ [ [ 13.5043337, 52.5199346 ], [ 13.5043033, 52.5204412 ], [ 13.5043897, 52.5204421 ], [ 13.5045765, 52.520444 ], [ 13.5045991, 52.5199421 ], [ 13.5044373, 52.5199375 ], [ 13.5043337, 52.5199346 ] ] ] } },
{ "type": "Feature", "properties": { "name": "Elan", "poi_type": "fuel_station", "brand": "Elan", "operator": null, "opening_hours": "24/7", "address": "Adlergestell 179, 12489 Berlin", "latitude": 52.441607691252663, "longitude": 13.533350059937707, "district": "Treptow-Köpenick", "district_id": "09", "neighborhood": "Adlershof", "neighborhood_id": "Adlershof" }, "geometry": { "type": "Polygon", "coordinates": [ [ [ 13.5335051, 52.4414314 ], [ 13.5336235, 52.4414989 ], [ 13.5332009, 52.4417808 ], [ 13.5331684, 52.4417627 ], [ 13.5331041, 52.4417268 ], [ 13.5330669, 52.4417061 ], [ 13.5331197, 52.4416709 ], [ 13.5331376, 52.4416807 ], [ 13.5335051, 52.4414314 ] ] ] } },
{ "type": "Feature", "properties": { "name": "Aral", "poi_type": "fuel_station", "brand": "Aral", "operator": "André Tessmer", "opening_hours": "24/7", "address": "Köpenicker Landstraße 296, 12437 Berlin", "latitude": 52.464656967352553, "longitude": 13.497026534981423, "district": "Treptow-Köpenick", "district_id": "09", "neighborhood": "Niederschöneweide", "neighborhood_id": "Niederschöneweide" }, "geometry": { "type": "Polygon", "coordinates": [ [ [ 13.4968923, 52.4646755 ], [ 13.4970508, 52.4647619 ], [ 13.4970563, 52.4647648 ], [ 13.4972052, 52.4646625 ], [ 13.4969969, 52.464549 ], [ 13.4968469, 52.4646526 ], [ 13.4968923, 52.4646755 ] ] ] } },
{ "type": "Feature", "properties": { "name": "JET", "poi_type": "fuel_station", "brand": "JET", "operator": "Philipp Legeler", "opening_hours": "24/7", "address": "Holzhauser Straße 34, 13509 Berlin", "latitude": 52.578183439743057, "longitude": 13.299361355163926, "district": "Reinickendorf", "district_id": "12", "neighborhood": "Tegel", "neighborhood_id": "Tegel" }, "geometry": { "type": "Polygon", "coordinates": [ [ [ 13.2993547, 52.5780991 ], [ 13.2995004, 52.5781837 ], [ 13.2993794, 52.5782624 ], [ 13.299368, 52.5782681 ], [ 13.2992215, 52.5781811 ], [ 13.2993547, 52.5780991 ] ] ] } },
{ "type": "Feature", "properties": { "name": "Star", "poi_type": "fuel_station", "brand": "star", "operator": "Star", "opening_hours": "Mo-Fr 07:00-21:00; Sa 08:00-21:00; Su 09:00-21:00", "address": "Königin-Luise-Straße 22a, 14195 Berlin", "latitude": 52.457434143687472, "longitude": 13.297597622975243, "district": "Steglitz-Zehlendorf", "district_id": "06", "neighborhood": "Dahlem", "neighborhood_id": "Dahlem" }, "geometry": { "type": "Polygon", "coordinates": [ [ [ 13.2975728, 52.457534 ], [ 13.2975626, 52.4575293 ], [ 13.2976407, 52.4574667 ], [ 13.297768, 52.4573605 ], [ 13.2976612, 52.4573125 ], [ 13.2974278, 52.4575055 ], [ 13.2975441, 52.4575577 ], [ 13.2975728, 52.457534 ] ] ] } },