{"version": 0.6, "generator": "Overpass API 0.7.62.8 e802775f", "osm3s": {"timestamp_osm_base": "2026-01-19T10:24:39Z", "copyright": "The data included in this document is from www.openstreetmap.org. The data is made available under ODbL."}, "elements": [{"type": "node", "id": 304183504, "lat": 52.5114112, "lon": 13.612096, "tags": {"addr:city": "Berlin", "addr:country": "DE", "addr:housenumber": "75", "addr:postcode": "12623", "addr:street": "H\u00f6nower Stra\u00dfe", "addr:suburb": "Mahlsdorf", "amenity": "dentist", "health_facility:type": "office", "health_specialty:dentistry": "yes", "healthcare": "dentist", "medical_system:western": "yes", "office": "physician", "operator": "Dr. med. dent. Dietmar K\u00e4mpf"}}, {"type": "node", "id": 310807070, "lat": 52.5245564, "lon": 13.4405253}, {"type": "node", "id": 310807071, "lat": 52.5245932, "lon": 13.4406499}, {"type": "node", "id": 310807073, "lat": 52.5244902, "lon": 13.4407322}, {"type": "node", "id": 310807074, "lat": 52.5244534, "lon": 13.4406076}, {"type": "node", "id": 313539258, "lat": 52.5488382, "lon": 13.3553052, "tags": {"addr:city": "Berlin", "addr:country": "DE", "addr:housenumber": "34a", "addr:postcode": "13353", "addr:street": "M\u00fcllerstra\u00dfe", "addr:suburb": "Wedding", "amenity": "dentist", "description": "Zahnarzt", "healthcare": "dentist", "level": "2", "name": "Zahnzentrum Wedding", "opening_hours": "Mo 09:00-19:00; Tu 09:00-18:00; We 09:00-17:00; Th 09:00-20:00; Fr 09:30-15:00", "wheelchair": "yes"}}, {"type": "node", "id": 325161442, "lat": 52.5088434, "lon": 13.1804772, "tags": {"amenity": "dentist", "healthcare": "dentist", "name": "A. Nejad", "opening_hours": "Mo-Tu 09:00-19:00; We 09:00-14:00; Th 09:00-19:00; Fr 09:00-12:00", "phone": "+49 30 361 91 06", "toilets:wheelchair": "no", "wheelchair": "yes"}}, {"type": "node", "id": 345236220, "lat": 52.5027217, "lon": 13.3281367, "tags": {"addr:city": "Berlin", "addr:country": "DE", "addr:housenumber": "218", "addr:postcode": "10719", "addr:street": "Kurf\u00fcrstendamm", "addr:suburb": "Charlottenburg", "amenity": "dentist", "healthcare": "dentist", "name": "Dr. Beate Lengert", "website": "http://www.dr-beate-lengert.de/"}}, {"type": "node", "id": 365346992, "lat": 52.3617828, "lon": 13.605683, "tags": {"amenity": "dentist", "healthcare": "dentist"}}, {"type": "node", "id": 391394177, "lat": 52.5375469, "lon": 13.4189939, "tags": {"addr:city": "Berlin", "addr:country": "DE", "addr:housenumber": "77", "addr:postcode": "10435", "addr:street": "Kollwitzstra\u00dfe", "addr:suburb": "Prenzlauer Berg", "amenity": "dentist", "contact:website": "https://www.zahnarztpraxis-hartfiel.de/", "healthcare": "dentist", "name": "Serpil Hartfiel", "opening_hours": "Mo,Tu,Th 08:00-19:00; We 18:00-18:00; Fr 08:00-14:00", "wheelchair": "no"}}, {"type": "node", "id": 420517053, "lat": 52.3849683, "lon": 13.4048698, "tags": {"amenity": "dentist", "contact:email": "praxis.weiss.landmann@gmail.com", "contact:fax": "+49 30 7445043", "contact:phone": "+49 30 7445020", "contact:website": "http://www.zahnarztpraxis-lichtenrade.de/", "healthcare": "dentist", "name": "Zahn\u00e4rzte Nicolas Weiss, Volker Landmann", "opening_hours": "Mo-Fr \"nach Vereinbarung\""}}, {"type": "node", "id": 430545835, "lat": 52.466306, "lon": 13.3859476, "tags": {"addr:city": "Berlin", "addr:housenumber": "143", "addr:postcode": "12099", "addr:street": "Tempelhofer Damm", "amenity": "dentist", "check_date:opening_hours": "2024-09-12", "contact:website": "http://dentz-berlin.de", "healthcare": "dentist", "name": "DentZ", "opening_hours": "Mo,Tu,Fr 09:00-16:00; We,Th 11:00-19:00", "operator": "Tareq Yassien", "phone": "+49 30 2647972600", "wheelchair": "yes"}}, {"type": "node", "id": 442391661, "lat": 52.4510627, "lon": 13.3851782, "tags": {"addr:country": "DE", "addr:suburb": "Mariendorf", "amenity": "dentist", "check_date": "2023-08-04", "healthcare": "dentist", "name": "Zahnklinik Medeco", "opening_hours": "Mo-Fr 07:00-21:00; Sa,Su,PH 09:00-18:00", "wheelchair": "limited"}}, {"type": "node", "id": 484267657, "lat": 52.5251579, "lon": 13.3101292, "tags": {"addr:city": "Berlin", "addr:country": "DE", "addr:suburb": "Charlottenburg", "amenity": "dentist", "healthcare": "dentist", "name": "Mund-Kiefer-Gesichtschirugie"}}, {"type": "node", "id": 552149348, "lat": 52.5413785, "lon": 13.3537903, "tags": {"amenity": "dentist", "check_date:opening_hours": "2025-07-19", "email": "Kontakt@Zahnarztpraxis-Speda.de", "fax": "+4930 4542013", "healthcare": "dentist", "name": "Zahn\u00e4rztliche Gemeinschaftspraxis", "opening_hours": "Mo-Th 08:00-19:00; Fr 08:00-14:00", "phone": "+4930 4542013", "website": "https://www.zahnarztpraxis-speda.de/"}}, {"type": "node", "id": 560731150, "lat": 52.5353034, "lon": 13.4853984}, {"type": "node", "id": 567546834, "lat": 52.522482, "lon": 13.4498403, "tags": {"amenity": "dentist", "healthcare": "dentist", "name": "Dagmar Monse", "opening_hours": "Mo,Tu,Th 08:00-19:30; We 08:00-14:00", "phone": "+49 30 4272633"}}, {"type": "node", "id": 567546843, "lat": 52.5253622, "lon": 13.4518901, "tags": {"addr:housenumber": "10", "addr:street": "Ebertystra\u00dfe", "amenity": "dentist", "healthcare": "dentist", "healthcare:speciality": "dentist", "level": "0", "name": "Tomris Aydin, Di\u015f Hekimi", "opening_hours": "Mo-Fr 09:00-13:00,14:00-18:00", "phone": "+49 3042800422", "wheelchair": "no"}}, {"type": "node", "id": 567546849, "lat": 52.5259802, "lon": 13.4518655, "tags": {"amenity": "dentist", "healthcare": "dentist", "name": "T. Witascheck", "opening_hours": "Mo 11:00-18:00; Tu 08:00-18:00; We 15:00-18:00; Th 08:00-14:00; Fr 08:00-12:00", "phone": "+49 30 4299828"}}, {"type": "node", "id": 575192285, "lat": 52.5419983, "lon": 13.3702409, "tags": {"addr:city": "Berlin", "addr:country": "DE", "addr:housenumber": "11", "addr:postcode": "13347", "addr:street": "Reinickendorfer Stra\u00dfe", "addr:suburb": "Gesundbrunnen", "air_conditioning": "yes", "amenity": "dentist", "check_date": "2025-07-11", "check_date:opening_hours": "2025-05-15", "email": "info@zahnaerzte-wedding.de", "healthcare": "dentist", "internet_access": "wlan", "internet_access:fee": "customers", "level": "3", "name": "Zahn\u00e4rzte am Weddingplatz MVZ", "opening_hours": "Mo-Fr 07:00-21:00; Sa 09:00-18:00; Su 11:00-17:00", "operator": "Jan Cramer", "payment:bank_transfer": "yes", "payment:cash": "no", "payment:credit_cards": "yes", "payment:debit_cards": "yes", "payment:paypal": "yes", "phone": "+49 30 4651449", "source": "survey", "toilets": "yes", "website": "https://www.zahnaerzte-wedding.de/", "wheelchair": "yes"}}, {"type": "node", "id": 582854287, "lat": 52.4192555, "lon": 13.3684671, "tags": {"addr:city": "Berlin", "addr:housenumber": "75-79", "addr:postcode": "12277", "addr:street": "Marienfelder Allee", "amenity": "dentist", "check_date:opening_hours": "2025-06-29", "healthcare": "dentist", "name": "Dr. Jan-Hendrik Hollenstein & Kollegen", "opening_hours": "Mo-Th 09:00-13:00,14:00-19:00; Fr 09:00-15:00", "operator": "Dr. Jan-Hendrik Hollenstein", "wheelchair": "yes"}}, {"type": "node", "id": 596559372, "lat": 52.4615207, "lon": 13.5129466, "tags": {"addr:city": "Berlin", "addr:country": "DE", "addr:housenumber": "63", "addr:postcode": "12459", "addr:street": "Edisonstra\u00dfe", "addr:suburb": "Obersch\u00f6neweide", "amenity": "dentist", "description": "Zahn\u00e4rzte & Kieferorthop\u00e4die, Aufgang G", "healthcare": "dentist", "healthcare:speciality": "orthodontics", "name": "Zahnarztpraxis Schenk", "opening_hours": "Mo-We 07:30-19:00; Th 09:30-19:30", "phone": "+49 30 530 15 624", "website": "http://www.dr-schenk-berlin.de", "wheelchair": "yes"}}, {"type": "node", "id": 596559476, "lat": 52.4821618, "lon": 13.5250672, "tags": {"addr:housenumber": "112", "addr:street": "Treskowallee", "amenity": "dentist", "check_date:opening_hours": "2023-05-26", "email": "karlshorst@zahnklinik-ost.de", "healthcare": "dentist", "name": "Zahnklinik Ost GmbH", "opening_hours": "Mo-Fr 07:00-21:00", "phone": "+493050014944", "website": "https://www.zahnklinik-ost.de/", "wheelchair": "yes"}}, {"type": "node", "id": 603743003, "lat": 52.539162, "lon": 13.2721971, "tags": {"addr:city": "Berlin", "addr:country": "DE", "addr:housenumber": "117", "addr:postcode": "13629", "addr:street": "Goebelstra\u00dfe", "addr:suburb": "Siemensstadt", "amenity": "dentist", "contact:phone": "+49 30 3813400", "healthcare": "dentist", "name": "Dr. Robert Schulz"}}, {"type": "node", "id": 654356082, "lat": 52.5375986, "lon": 13.2646306, "tags": {"addr:city": "Berlin", "addr:country": "DE", "addr:housenumber": "26", "addr:postcode": "13629", "addr:street": "Rohrdamm", "addr:suburb": "Siemensstadt", "amenity": "dentist", "entrance": "yes", "name": "Dr. Bodo Seidel", "opening_hours": "Mo 10:00-19:00; Tu 08:00-15:00; We 10:00-19:00; Th 08:00-13:00,14:00-18:00; Fr 08:00-12:00", "phone": "+49 30 3828415", "website": "https://www.za-seidel.de/"}}, {"type": "node", "id": 655145025, "lat": 52.5000343, "lon": 13.4777222, "tags": {"addr:city": "Berlin", "addr:country": "DE", "addr:housenumber": "5B", "addr:postcode": "10317", "addr:street": "Hauptstra\u00dfe", "addr:suburb": "Rummelsburg", "amenity": "dentist", "contact:phone": "+49 30 5589089", "entrance": "yes", "healthcare": "dentist", "name": "Zahnarzt Dr. Kalinke", "opening_hours": "Mo,Th 08:00-16:00; Tu 08:00-16:00; Fr 08:00-13:00", "operator": "Dr. med. Joachim Kalinke", "wheelchair": "yes"}}, {"type": "node", "id": 715203795, "lat": 52.4815199, "lon": 13.314376, "tags": {"addr:city": "Berlin", "addr:country": "DE", "addr:housenumber": "17", "addr:postcode": "10713", "addr:street": "Mecklenburgische Stra\u00dfe", "addr:suburb": "Wilmersdorf", "amenity": "dentist", "contact:website": "https://www.za-toma.de/", "healthcare": "dentist", "name": "Zahnarztpraxis Toma", "opening_hours": "Mo-Fr 09:00-13:00, Mo,Tu,Th 14:00-18:00", "phone": "+49 30 8243402", "wheelchair": "yes"}}, {"type": "node", "id": 725621502, "lat": 52.4727155, "lon": 13.3172496, "tags": {"addr:city": "Berlin", "addr:country": "DE", "addr:housenumber": "9", "addr:postcode": "14197", "addr:street": "Landauer Stra\u00dfe", "addr:suburb": "Wilmersdorf", "amenity": "dentist", "healthcare": "dentist", "healthcare:speciality": "orthodontics", "name": "Dr. med. dent. Stella Talesnik", "opening_hours": "Mo-Th 09:00-13:00,14:00-18:00", "wheelchair": "yes"}}, {"type": "node", "id": 740049026, "lat": 52.4340065, "lon": 13.3596273, "tags": {"addr:city": "Berlin", "addr:housenumber": "40", "addr:postcode": "12249", "addr:street": "Kamenzer Damm", "addr:suburb": "Lankwitz", "amenity": "dentist", "healthcare": "dentist", "name": "Peter Krause", "phone": "+49 30 7751071"}}, {"type": "node", "id": 746841829, "lat": 52.5609416, "lon": 13.4225578, "tags": {"addr:city": "Berlin", "addr:housenumber": "13", "addr:postcode": "13189", "addr:street": "Neumannstra\u00dfe", "amenity": "dentist", "healthcare": "dentist", "name": "Dental 21", "opening_hours": "Mo-Th 08:00-20:00; Fr 08:00-16:00", "website": "https://www.dental21-pankow.de/"}}, {"type": "node", "id": 747200081, "lat": 52.5814655, "lon": 13.3973766, "tags": {"amenity": "dentist", "check_date": "2025-01-26", "check_date:opening_hours": "2025-01-26", "healthcare": "dentist", "name": "Dipl.-Stom. Rolf Jammer", "opening_hours": "Mo,We 12:00-18:00; Tu,Th 08:00-13:00", "wheelchair": "limited"}}, {"type": "node", "id": 747816979, "lat": 52.5456067, "lon": 13.4273474, "tags": {"addr:city": "Berlin", "addr:country": "DE", "addr:housenumber": "176", "addr:postcode": "10409", "addr:street": "Prenzlauer Allee", "addr:suburb": "Prenzlauer Berg", "amenity": "dentist", "check_date:opening_hours": "2023-05-20", "healthcare": "dentist", "name": "MVZ Volksdent", "opening_hours": "Mo-Th 09:00-18:00; Fr 09:00-17:00", "opening_hours:signed": "no", "operator": "MVZ Volksdent GmbH", "phone": "+49 30 22325373", "website": "https://volksdent.de", "wheelchair": "limited"}}, {"type": "node", "id": 753361471, "lat": 52.5701667, "lon": 13.4104527, "tags": {"addr:city": "Berlin", "addr:country": "DE", "addr:housenumber": "3", "addr:postcode": "13187", "addr:street": "Berliner Stra\u00dfe", "addr:suburb": "Pankow", "amenity": "dentist", "check_date": "2025-09-07", "contact:website": "https://pankow-zahnarzt.berlin", "healthcare": "dentist", "name": "Dr. Springer", "opening_hours": "\"nach Vereinbarung\"", "wheelchair": "no"}}, {"type": "node", "id": 769958194, "lat": 52.5285621, "lon": 13.4654732, "tags": {"addr:city": "Berlin", "addr:country": "DE", "addr:housenumber": "40", "addr:postcode": "10369", "addr:street": "Karl-Lade-Stra\u00dfe", "amenity": "dentist", "check_date:opening_hours": "2025-06-09", "contact:website": "https://www.zahnarztpraxis-kleinschmidt.de/", "healthcare": "dentist", "name": "Zahnarztpraxis Birgit Kleinschmidt", "opening_hours": "Tu,Fr 08:00-15:00, We,Th 14:00-20:00, We 14:00-16:00", "wheelchair": "limited"}}, {"type": "node", "id": 837697561, "lat": 52.4480148, "lon": 13.5138099, "tags": {"addr:city": "Berlin", "addr:country": "DE", "addr:housenumber": "14", "addr:postcode": "12487", "addr:street": "Pilotenstra\u00dfe", "addr:suburb": "Johannisthal", "amenity": "dentist", "healthcare": "dentist", "wheelchair": "no"}}, {"type": "node", "id": 837714008, "lat": 52.4327892, "lon": 13.5355561, "tags": {"amenity": "dentist", "check_date:opening_hours": "2025-06-28", "healthcare": "Denthetika", "name": "Dhentica", "opening_hours": "Mo 12:00-20:00, Tu 09:00-17:00, Th 10:00-20:00, Fr 09:00-12:00, Mi, Sa \"nach Vereinbarung\"", "operator": "Dr. Maren Schmidt"}}, {"type": "node", "id": 867281416, "lat": 52.5007252, "lon": 13.4187141, "tags": {"addr:housenumber": "94", "addr:street": "Adalbertstra\u00dfe", "amenity": "dentist", "contact:email": "info@kottident.de", "contact:phone": "+49 30 3911155; +49 30 69598003", "healthcare": "dentist", "name": "Kottident", "opening_hours": "Mo,Tu,Th 09:00-14:00,15:00-19:00; We 14:00-20:00; Fr 09:00-15:00; Sa \"nach Vereinbarung\"", "website": "https://kottident.de"}}, {"type": "node", "id": 867872386, "lat": 52.5032559, "lon": 13.4125501, "tags": {"addr:city": "Berlin", "addr:country": "DE", "addr:housenumber": "53", "addr:postcode": "10969", "addr:street": "Oranienstra\u00dfe", "addr:suburb": "Kreuzberg", "amenity": "dentist", "healthcare": "dentist", "name": "Dr. A. Hessberger", "opening_hours": "Mo,Tu,Th 11:00-19:00; We 09:00-14:00; Fr 09:00-14:00", "wheelchair": "no"}}, {"type": "node", "id": 867872389, "lat": 52.5028297, "lon": 13.413253, "tags": {"addr:city": "Berlin", "addr:country": "DE", "addr:housenumber": "158", "addr:postcode": "10969", "addr:street": "Oranienstra\u00dfe", "addr:suburb": "Kreuzberg", "amenity": "dentist", "healthcare": "dentist", "name": "Kinderdentist", "opening_hours": "Mo-Th 08:00-20:00; Fr 08:00-18:00", "wheelchair": "yes"}}, {"type": "node", "id": 872179392, "lat": 52.4996752, "lon": 13.4224807, "tags": {"addr:city": "Berlin", "addr:country": "DE", "addr:housenumber": "9-10", "addr:postcode": "10999", "addr:street": "Mariannenstra\u00dfe", "addr:suburb": "Kreuzberg", "amenity": "dentist", "contact:phone": "+49 30 6158728", "healthcare": "dentist", "level": "3", "name": "Kiez-Smile", "operator": "Zahnarztpraxis Hanan Hafez-Holz", "website": "https://zahnarzt-hafez-holz-berlin.de"}}, {"type": "node", "id": 936789707, "lat": 52.4616022, "lon": 13.7252705, "tags": {"amenity": "dentist", "operator": "Dr. med. dent. Frank Mauke"}}, {"type": "node", "id": 967206093, "lat": 52.4978625, "lon": 13.2891596, "tags": {"addr:city": "Berlin", "addr:country": "DE", "addr:housenumber": "14", "addr:postcode": "10711", "addr:street": "Ringbahnstra\u00dfe", "addr:suburb": "Halensee", "amenity": "dentist", "check_date:opening_hours": "2022-03-18", "healthcare": "dentist", "name": "Andrea-Maria Sistori", "opening_hours": "Mo,Tu,Th 08:00-15:00; We,Fr 12:00-20:00", "website": "https://www.zahnarzt-sistori.de/", "wheelchair": "limited"}}, {"type": "node", "id": 1065110319, "lat": 52.460496, "lon": 13.1033801}, {"type": "node", "id": 1065110330, "lat": 52.4606078, "lon": 13.103396}, {"type": "node", "id": 1065110351, "lat": 52.4606079, "lon": 13.1033825}, {"type": "node", "id": 1065110371, "lat": 52.4606407, "lon": 13.1033967}, {"type": "node", "id": 1065110389, "lat": 52.4606114, "lon": 13.1032994}, {"type": "node", "id": 1065110390, "lat": 52.4606415, "lon": 13.1033}, {"type": "node", "id": 1065110413, "lat": 52.4604974, "lon": 13.1032001}, {"type": "node", "id": 1069158603, "lat": 52.526948, "lon": 13.5465311, "tags": {"amenity": "dentist", "healthcare": "dentist", "name": "Michael Heine"}}, {"type": "node", "id": 1086008650, "lat": 52.5015153, "lon": 13.4522867, "tags": {"amenity": "dentist", "check_date": "2025-04-01", "check_date:opening_hours": "2025-04-01", "healthcare": "dentist", "name": "Dr. Weibrecht", "opening_hours": "Mo 08:00-15:00; Tu 10:00-18:00; We 14:00-19:00; Th 12:00-19:00; Fr 08:00-13:00", "toilets:wheelchair": "no", "wheelchair": "no"}}, {"type": "node", "id": 1086945323, "lat": 52.6170354, "lon": 13.3167165, "tags": {"amenity": "dentist", "healthcare": "dentist", "name": "Tina Sommerfeld"}}, {"type": "node", "id": 1097069311, "lat": 52.4588807, "lon": 13.3030396}, {"type": "node", "id": 1097069312, "lat": 52.4587789, "lon": 13.3031605}, {"type": "node", "id": 1097069314, "lat": 52.4587227, "lon": 13.303033}, {"type": "node", "id": 1097069316, "lat": 52.4588256, "lon": 13.3029093}, {"type": "node", "id": 1111395270, "lat": 52.4121997, "lon": 13.1403245, "tags": {"amenity": "dentist", "healthcare": "dentist", "name": "Zahnarztpraxis Dr. Leo Pishwa"}}, {"type": "node", "id": 1119088810, "lat": 52.4052847, "lon": 13.285611}, {"type": "node", "id": 1119088828, "lat": 52.405183, "lon": 13.285642}, {"type": "node", "id": 1119088831, "lat": 52.4051512, "lon": 13.2853617}, {"type": "node", "id": 1119088834, "lat": 52.4052544, "lon": 13.2853359}, {"type": "node", "id": 1126213467, "lat": 52.5090326, "lon": 13.1204132}, {"type": "node", "id": 1126214376, "lat": 52.5089454, "lon": 13.1204805}, {"type": "node", "id": 1126214942, "lat": 52.5090883, "lon": 13.1206245}, {"type": "node", "id": 1126215164, "lat": 52.5090043, "lon": 13.120685}, {"type": "node", "id": 1134070235, "lat": 52.5257791, "lon": 13.3905468, "tags": {"addr:city": "Berlin", "addr:country": "DE", "addr:housenumber": "1", "addr:postcode": "10117", "addr:street": "Auguststra\u00dfe", "addr:suburb": "Mitte", "amenity": "dentist", "healthcare": "dentist", "name": "Zahnretter Berlin", "phone": "+49 30 6514354", "website": "https://www.zahnretter-berlin.de/"}}, {"type": "node", "id": 1135819846, "lat": 52.5472091, "lon": 13.2091794, "tags": {"amenity": "dentist", "healthcare": "dentist"}}, {"type": "node", "id": 1145597657, "lat": 52.5759456, "lon": 13.2777074, "tags": {"addr:city": "Berlin", "addr:country": "DE", "addr:housenumber": "132a", "addr:postcode": "13507", "addr:street": "Bernauer Stra\u00dfe", "addr:suburb": "Tegel", "amenity": "dentist", "healthcare": "dentist", "name": "Grietje Franken", "opening_hours": "Mo-Fr 9:00-14:00", "phone": "+49 30 43566767", "website": "https://www.zahnarzt-tegel-sued.de/"}}, {"type": "node", "id": 1150113155, "lat": 52.4603579, "lon": 13.3258882, "tags": {"addr:city": "Berlin", "addr:country": "DE", "addr:housenumber": "11", "addr:postcode": "12163", "addr:street": "Hubertusstra\u00dfe", "addr:suburb": "Steglitz", "amenity": "dentist", "contact:phone": "+49 30 7937413", "contact:website": "http://www.dr-sabine-weiss.de/", "healthcare": "dentist", "name": "Dr. Sabine Wei\u00df & Juliane Sonnen", "opening_hours": "Mo,Th 09:00-13:00,14:00-19:00; Tu,Fr 09:00-13:00; We 09:00-13:00,14:00-20:00", "toilets:wheelchair": "no", "wheelchair": "no"}}, {"type": "node", "id": 1204023001, "lat": 52.4587101, "lon": 13.303087}, {"type": "node", "id": 1204023136, "lat": 52.4587092, "lon": 13.3031268}, {"type": "node", "id": 1204023758, "lat": 52.4588339, "lon": 13.3029298}, {"type": "node", "id": 1204023795, "lat": 52.4589156, "lon": 13.3029733}, {"type": "node", "id": 1204023874, "lat": 52.4587267, "lon": 13.3031606}, {"type": "node", "id": 1204024083, "lat": 52.4587693, "lon": 13.3031426}, {"type": "node", "id": 1204024294, "lat": 52.4588742, "lon": 13.3028811}, {"type": "node", "id": 1204024301, "lat": 52.458731, "lon": 13.3030529}, {"type": "node", "id": 1204024371, "lat": 52.4588736, "lon": 13.3030238}, {"type": "node", "id": 1233981916, "lat": 52.549214, "lon": 13.4141423, "tags": {"addr:city": "Berlin", "addr:country": "DE", "addr:housenumber": "75", "addr:postcode": "10439", "addr:street": "Sch\u00f6nhauser Allee", "addr:suburb": "Prenzlauer Berg", "amenity": "dentist", "check_date:opening_hours": "2021-07-26", "contact:phone": "+49304483164", "healthcare": "dentist", "name": "Zahnarztpraxis Sch\u00e4fer", "opening_hours": "Mo,Th 08:00-14:00; Tu,We 11:00-19:00; Fr 08:00-13:00", "website": "https://www.zapinar.de/", "wheelchair": "yes", "wheelchair:description": "Fahrstuhl und T\u00fcr\u00f6ffner vorhanden"}}, {"type": "node", "id": 1270213088, "lat": 52.5175395, "lon": 13.4451958, "tags": {"addr:city": "Berlin", "addr:country": "DE", "addr:housenumber": "105A", "addr:postcode": "10243", "addr:street": "Karl-Marx-Allee", "addr:suburb": "Friedrichshain", "amenity": "dentist", "check_date:opening_hours": "2023-12-26", "contact:email": "kontakt@zap-kama105a.de", "contact:phone": "+49 30 4227254", "contact:website": "http://www.zap-kama105a.de/", "healthcare": "dentist", "healthcare:speciality": "implantology", "name": "Fachzentrum f\u00fcr Zahnheilkunde und Implantologie", "opening_hours": "Mo,We 12:00-19:00; Tu,Th 08:00-16:00; Fr 08:00-13:00", "operator": "Maznt Laouant", "wheelchair": "no"}}, {"type": "node", "id": 1274104703, "lat": 52.520238, "lon": 13.4471274, "tags": {"addr:city": "Berlin", "addr:housenumber": "73", "addr:postcode": "10249", "addr:street": "Richard-Sorge-Stra\u00dfe", "amenity": "dentist", "description": "Zahnarztpraxis Ursula Fr\u00f6mming, Ruth Bodenheimer", "fax": "+49 3042010111", "healthcare": "dentist", "name": "Zahnarztpraxis Bodenheimer Fr\u00f6mming", "opening_hours": "Mo-Th 09:00-18:00; Fr 09:00-15:00", "phone": "+49 30 42010110;+49 304272627", "website": "https://zahnarztpraxis-froemming.com", "wheelchair": "no"}}, {"type": "node", "id": 1285681206, "lat": 52.5098903, "lon": 13.261588, "tags": {"addr:city": "Berlin", "addr:country": "DE", "addr:housenumber": "10", "addr:postcode": "14052", "addr:street": "L\u00e4nderallee", "addr:suburb": "Westend", "amenity": "dentist", "check_date:opening_hours": "2024-05-05", "fax": "+49 30 3049306", "healthcare": "dentist", "healthcare:speciality": "orthodontics", "name": "Dr. Saskia Herbst-Liebmann Kieferorthop\u00e4die", "opening_hours": "Mo-Th 08:00-18:00; Fr 08:00-13:00; Sa,Su,PH off", "phone": "+49 30 3045891", "website": "https://www.kieferorthopaedin.berlin/"}}, {"type": "node", "id": 1297259149, "lat": 52.4782712, "lon": 13.4392054, "tags": {"addr:city": "Berlin", "addr:country": "DE", "addr:housenumber": "108", "addr:postcode": "12043", "addr:street": "Richardstra\u00dfe", "addr:suburb": "Neuk\u00f6lln", "amenity": "dentist", "check_date": "2022-01-12", "check_date:opening_hours": "2023-05-24", "contact:phone": "+49 30 6871846", "healthcare": "dentist", "name": "Zahnarzt Ingrid Wolf", "opening_hours": "Mo 12:00-18:00, Tu 10:00-16:00, We 10:00-14:00, Th 13:00-18:00, Fr 09:00-14:00", "wheelchair": "limited"}}, {"type": "node", "id": 1352697275, "lat": 52.5527983, "lon": 13.4157657, "tags": {"amenity": "dentist", "healthcare": "dentist", "name": "Dr. med. dent. Heike Tischer", "opening_hours": "Mo 11:00-17:00, Tu 11:00-19:00, We 09:00-12:00, Th 09:00-17:00", "wheelchair": "no"}}, {"type": "node", "id": 1375322318, "lat": 52.4051568, "lon": 13.2852476}, {"type": "node", "id": 1375322321, "lat": 52.4051691, "lon": 13.2853563}, {"type": "node", "id": 1375322329, "lat": 52.4052223, "lon": 13.2852277}, {"type": "node", "id": 1375322331, "lat": 52.4052353, "lon": 13.2853417}, {"type": "node", "id": 1375322335, "lat": 52.4052624, "lon": 13.2854059}, {"type": "node", "id": 1375322338, "lat": 52.4052753, "lon": 13.2855282}, {"type": "node", "id": 1375322340, "lat": 52.4052983, "lon": 13.285395}, {"type": "node", "id": 1375322343, "lat": 52.4053121, "lon": 13.2855169}, {"type": "node", "id": 1379836612, "lat": 52.5662551, "lon": 13.3454904, "tags": {"addr:city": "Berlin", "addr:housenumber": "27", "addr:postcode": "13407", "addr:street": "Gotthardstra\u00dfe", "amenity": "dentist", "healthcare": "dentist", "name": "Wunschl\u00e4cheln", "opening_hours": "Mo-Th 08:00-20:00; Fr 08:00-14:00"}}, {"type": "node", "id": 1394484085, "lat": 52.4784281, "lon": 13.3290979, "tags": {"addr:city": "Berlin", "addr:country": "DE", "addr:housenumber": "12a", "addr:postcode": "10715", "addr:street": "Bundesplatz", "addr:suburb": "Wilmersdorf", "amenity": "dentist", "check_date": "2025-09-20", "healthcare": "dentist", "name": "Zahnartzpraxis am Bundesplatz", "opening_hours": "Mo-Fr 10:00-15:00; Tu,Th 14:00-19:00", "phone": "+49 30 91145657", "website": "https://www.zahnarztpraxis-am-bundesplatz.de/"}}, {"type": "node", "id": 1395839133, "lat": 52.5298986, "lon": 13.345827, "tags": {"addr:city": "Berlin", "amenity": "dentist", "healthcare": "dentist"}}, {"type": "node", "id": 1401087657, "lat": 52.5368578, "lon": 13.4301125, "tags": {"addr:city": "Berlin", "addr:country": "DE", "addr:housenumber": "104", "addr:postcode": "10405", "addr:street": "Danziger Stra\u00dfe", "addr:suburb": "Prenzlauer Berg", "amenity": "dentist", "check_date:opening_hours": "2025-03-15", "contact:phone": "+49 30 4427005", "healthcare": "dentist", "name": "Ulrich Lohse", "opening_hours": "Mo 10:00-19:00; Tu 08:00-13:00; We 10:00-14:00,15:00-19:00; Th 08:00-15:00", "wheelchair": "limited"}}, {"type": "node", "id": 1460304887, "lat": 52.4606122, "lon": 13.1032025}, {"type": "node", "id": 1507945428, "lat": 52.4605064, "lon": 13.4309956, "tags": {"addr:city": "Berlin", "addr:country": "DE", "addr:housenumber": "28", "addr:postcode": "12347", "addr:street": "Germaniapromenade", "addr:suburb": "Britz", "amenity": "dentist", "check_date": "2024-02-18", "contact:phone": "+49 30 6255302", "contact:website": "https://www.zahnaerzte-britz.de/", "healthcare": "dentist", "healthcare:speciality": "orthodontics", "name": "Praxis f\u00fcr Zahnheilkunde und Kieferorthop\u00e4die", "opening_hours": "Mo-Fr 09:00-19:00 || \"und nach Vereinbarung\"", "operator": "Bettina Ackermann;Robin Hoyer;Jamila Dybe;Katharina Hoyer", "wheelchair": "no"}}, {"type": "node", "id": 1524609077, "lat": 52.4838724, "lon": 13.3832099, "tags": {"addr:city": "Berlin", "addr:country": "DE", "addr:housenumber": "10", "addr:postcode": "12101", "addr:street": "Manfred-von-Richthofen-Stra\u00dfe", "addr:suburb": "Tempelhof", "amenity": "dentist", "check_date:opening_hours": "2021-04-09", "healthcare": "dentist", "name": "Zahnarztpraxis K. Jovanovic-Leskova", "opening_hours": "Mo-Th 09:00-12:00,15:00-18:00; Fr 09:00-12:00", "phone": "+49 30 7867506", "source": "survey"}}, {"type": "node", "id": 1657550399, "lat": 52.3483981, "lon": 13.6296313, "tags": {"amenity": "dentist", "healthcare": "dentist", "name": "Zahnarztpraxis Dr. Hirsch & Partner", "phone": "+49 33762 9276", "website": "http://www.zahnaerzte-hirsch.de", "wheelchair": "yes"}}, {"type": "node", "id": 1657550411, "lat": 52.3718433, "lon": 13.6139532, "tags": {"addr:city": "Eichwalde", "addr:housenumber": "1", "addr:postcode": "15732", "addr:street": "Schulzendorfer Stra\u00dfe", "amenity": "dentist", "healthcare": "dentist", "wheelchair": "no", "wheelchair:description": "Treppe in den ersten Stock ohne Lift"}}, {"type": "node", "id": 1703498521, "lat": 52.435897, "lon": 13.5423381, "tags": {"addr:city": "Berlin", "addr:country": "DE", "addr:housenumber": "6", "addr:postcode": "12489", "addr:street": "D\u00f6rpfeldstra\u00dfe", "addr:suburb": "Adlershof", "amenity": "dentist", "healthcare": "dentist", "name": "Renate Reimer & Verena Rinas", "opening_hours": "Mo,Th 12:00-19:00, Tu,We 07:00-13:00; PH off", "phone": "+49 30 677 42 92", "source": "Garmin Oregon 550", "wheelchair": "no"}}, {"type": "node", "id": 1752496989, "lat": 52.5216917, "lon": 13.3246468, "tags": {"addr:city": "Berlin", "addr:country": "DE", "addr:housenumber": "31", "addr:postcode": "10587", "addr:street": "Helmholtzstra\u00dfe", "addr:suburb": "Charlottenburg", "amenity": "dentist", "check_date:opening_hours": "2025-10-22", "contact:phone": "+49 30 91603860", "contact:website": "https://zahnecke-berlin.de/", "healthcare": "dentist", "name": "Zahnecke", "opening_hours": "PH off; Mo-Th 08:00-19:00; Fr 08:00-14:00", "wheelchair": "no"}}, {"type": "node", "id": 1774557607, "lat": 52.4669173, "lon": 13.3424769, "tags": {"addr:city": "Berlin", "addr:housenumber": "52", "addr:postcode": "12157", "addr:street": "Cranachstra\u00dfe", "amenity": "dentist", "check_date:opening_hours": "2023-08-13", "email": "info@zahnarzt-jaeckel.de", "healthcare": "dentist", "name": "Bernd Jaeckel", "opening_hours": "Mo,We,Fr 08:00-14:00; Tu 13:00-19:00, Th 11:00-18:00", "operator": "Dr. med. dent. Bernd Jaeckel", "phone": "+49 30 8558047", "website": "http://zahnarzt-jaeckel.de/", "wheelchair": "no"}}, {"type": "node", "id": 1829598959, "lat": 52.4906325, "lon": 13.3317955, "tags": {"amenity": "dentist", "check_date": "2025-09-20", "healthcare": "dentist", "name": "Sibylle Tewes", "opening_hours": "Mo,Tu 09:00-13:00, Mo 15:00-18:00, Tu 15:00-20:00, We,Th 09:00-14:00, Fr 09:00-12:00"}}, {"type": "node", "id": 1870414833, "lat": 52.4965965, "lon": 13.3498142, "tags": {"addr:city": "Berlin", "addr:country": "DE", "addr:housenumber": "108", "addr:postcode": "10777", "addr:street": "Eisenacher Stra\u00dfe", "addr:suburb": "Sch\u00f6neberg", "amenity": "dentist", "healthcare": "dentist", "name": "Dr. Seda Sanli"}}, {"type": "node", "id": 1965271018, "lat": 52.4847029, "lon": 13.4284296, "tags": {"amenity": "dentist", "check_date": "2023-08-11", "contact:email": "neukoelln@mvzmedeco.berlin", "contact:phone": "+49 30 6273090", "contact:website": "https://www.mvzmedeco.berlin/standort-neukoelln", "healthcare": "dentist", "name": "Zahnklinik Medeco", "opening_hours": "Mo-Su 07:00-21:00"}}, {"type": "node", "id": 1977673372, "lat": 52.4961274, "lon": 13.3609232, "tags": {"addr:city": "Berlin", "addr:housenumber": "160", "addr:postcode": "10783", "addr:street": "Potsdamer Stra\u00dfe", "amenity": "dentist", "check_date:opening_hours": "2022-11-24", "email": "info-sb@dentalzentrumplus.de", "healthcare": "dentist", "name": "dentalzentrum plus", "opening_hours": "Mo-Fr 09:00-19:00", "website": "https://dentalzentrumplus.de/", "wheelchair": "yes"}}, {"type": "node", "id": 1979921448, "lat": 52.5016713, "lon": 13.314331, "tags": {"amenity": "dentist", "check_date": "2024-09-03", "check_date:opening_hours": "2024-09-03", "healthcare": "dentist", "name": "Kinderzahnarzt", "opening_hours:signed": "no", "wheelchair": "yes"}}, {"type": "node", "id": 1991923975, "lat": 52.4451649, "lon": 13.5698939, "tags": {"addr:city": "Berlin", "addr:country": "DE", "addr:housenumber": "2", "addr:postcode": "12557", "addr:street": "Gutenbergstra\u00dfe", "addr:suburb": "K\u00f6penick", "amenity": "dentist", "check_date": "2026-01-01", "fax": "+49 30 65496693", "health_facility:type": "office", "health_specialty:dentistry": "main", "healthcare": "dentist", "medical_system:western": "yes", "name": "Zahnarztpraxis Olaf Vogel", "opening_hours": "Mo-Fr 08:00-13:00, Mo,We,Th 14:00-20:00, Tu 15:00-20:00||\"nach Vereinbarung\" ; PH off", "phone": "+49 30 6559397", "source": "Geoportal Berlin / Hauskoordinaten", "website": "https://www.zaehne-zum-zeigen.de", "wheelchair": "yes"}}, {"type": "node", "id": 2040942693, "lat": 52.4915968, "lon": 13.3171553, "tags": {"addr:city": "Berlin", "addr:country": "DE", "addr:housenumber": "28a", "addr:postcode": "10713", "addr:street": "Hohenzollerndamm", "addr:suburb": "Wilmersdorf", "amenity": "dentist", "contact:email": "info@zahnarzt-drhaase.de", "contact:fax": "+4930 863 99 101", "contact:phone": "+4930 863 99 100", "contact:website": "http://www.zahnarzt-drhaase.de", "healthcare": "dentist", "name": "Dr. Haase", "opening_hours": "Mo 09:00-18:00; Tu-Th 09:00-20:00; Fr 08:00-13:00", "wheelchair": "yes"}}, {"type": "node", "id": 2040942694, "lat": 52.4916443, "lon": 13.3172726, "tags": {"addr:city": "Berlin", "addr:country": "DE", "addr:housenumber": "28a", "addr:postcode": "10713", "addr:street": "Hohenzollerndamm", "addr:suburb": "Wilmersdorf", "amenity": "dentist", "check_date:opening_hours": "2024-08-27", "contact:fax": "+49 30 86098719", "contact:phone": "+49 30 8609870", "contact:website": "https://oralchirurgie-wilmersdorf.berlin/", "healthcare": "dentist", "healthcare:speciality": "dental_oral_maxillo_facial_surgery", "name": "Zentrum f\u00fcr Implantologie, Oralchirurgie und Mund-, Kiefer- & Gesichtschirurgie", "opening_hours:signed": "no"}}, {"type": "node", "id": 2102927601, "lat": 52.4961549, "lon": 13.3237877, "tags": {"addr:city": "Berlin", "addr:country": "DE", "addr:housenumber": "53", "addr:street": "Uhlandstra\u00dfe", "amenity": "dentist", "check_date": "2024-07-26", "contact:website": "https://www.zahnarzt-zimny.de/", "description": "Praxis f\u00fcr \u00e4sthetisch-rekonstruktive Zahnmedizin und Implantologie", "healthcare": "dentist", "healthcare:speciality": "implantology", "name": "Dres. Zimny & Kollegen", "opening_hours": "Mo-Fr 08:00-19:00", "wheelchair": "limited"}}, {"type": "node", "id": 2146656155, "lat": 52.5673951, "lon": 13.3986549, "tags": {"addr:city": "Berlin", "addr:country": "DE", "addr:housenumber": "123A", "addr:postcode": "13187", "addr:street": "Wollankstra\u00dfe", "addr:suburb": "Pankow", "amenity": "dentist", "check_date:opening_hours": "2025-07-13", "healthcare": "dentist", "name": "Kathrin Genger", "opening_hours": "Mo,Tu 12:00-19:00; Th 08:00-15:00", "phone": "+49 30 4422788", "wheelchair": "no"}}, {"type": "node", "id": 2201339795, "lat": 52.5129543, "lon": 13.4082422, "tags": {"addr:city": "Berlin", "addr:country": "DE", "addr:housenumber": "5", "addr:postcode": "10179", "addr:street": "Fischerinsel", "addr:suburb": "Mitte", "amenity": "dentist", "contact:phone": "+49 30 2011480", "emergency": "yes", "healthcare": "dentist", "name": "Zahnarztpraxis Schr\u00f6ter", "opening_hours": "Mo-Fr 08:00-12:00"}}, {"type": "node", "id": 2211583172, "lat": 52.4511741, "lon": 13.2619385}, {"type": "node", "id": 2211583173, "lat": 52.4510605, "lon": 13.2621487}, {"type": "node", "id": 2211583174, "lat": 52.4512636, "lon": 13.2619379}, {"type": "node", "id": 2211583175, "lat": 52.4512599, "lon": 13.262197}, {"type": "node", "id": 2224978991, "lat": 52.4989505, "lon": 13.5847123}, {"type": "node", "id": 2224979018, "lat": 52.4991357, "lon": 13.584718}, {"type": "node", "id": 2224979036, "lat": 52.4990234, "lon": 13.5845669}, {"type": "node", "id": 2224979128, "lat": 52.4990628, "lon": 13.5848635}, {"type": "node", "id": 2296804253, "lat": 52.4075674, "lon": 13.237604, "tags": {"addr:city": "Kleinmachnow", "addr:country": "DE", "addr:housenumber": "104a", "addr:postcode": "14532", "addr:street": "Zehlendorfer Damm", "amenity": "dentist", "healthcare": "dentist", "name": "Zahnarztpraxis am Puschkinplatz", "operator": "Dr. Thomas Euskirchen"}}, {"type": "node", "id": 2353495978, "lat": 52.4928693, "lon": 13.4178515, "tags": {"addr:city": "Berlin", "addr:country": "DE", "addr:housenumber": "76", "addr:postcode": "10967", "addr:street": "Graefestra\u00dfe", "addr:suburb": "Kreuzberg", "amenity": "dentist", "contact:phone": "+49 30 6918934", "healthcare": "dentist", "healthcare:speciality": "dentist", "level": "1", "name": "Zahnarztpraxis Renate H\u00fcbner", "name:de": "Zahnarztpraxis Renate H\u00fcbner", "name:en": "Dentist's Office Renate Huebner", "opening_hours": "Mo-Tu 08:30-12:00,14:00-18:00; We 08:30-14:00; Th 08:30-12:00,14:00-18:00; PH off", "payment:cash": "yes", "payment:contactless": "yes", "payment:credit_cards": "yes", "payment:debit_cards": "yes", "start_date": "1994-10-31", "wheelchair": "no"}}, {"type": "node", "id": 2362657759, "lat": 52.457186, "lon": 13.578565, "tags": {"addr:city": "Berlin", "addr:country": "DE", "addr:housenumber": "2", "addr:postcode": "12555", "addr:street": "Parrisiusstra\u00dfe", "addr:suburb": "K\u00f6penick", "amenity": "dentist", "check_date:opening_hours": "2026-01-16", "health_facility:type": "office", "health_specialty:dentistry": "yes", "healthcare": "dentist", "medical_system:western": "yes", "name": "Grundmann Dentistry", "office": "physician", "opening_hours": "Mo-Th 08:00-20:00; Fr 08:00-14:00", "phone": "+49 30 6571444", "website": "https://www.grundmann-dentistry.de/", "wheelchair": "no"}}, {"type": "node", "id": 2410196747, "lat": 52.5421277, "lon": 13.4127111, "tags": {"addr:city": "Berlin", "addr:country": "DE", "addr:housenumber": "48", "addr:postcode": "10437", "addr:street": "Sch\u00f6nhauser Allee", "addr:suburb": "Prenzlauer Berg", "amenity": "dentist", "check_date": "2025-10-24", "contact:email": "info@kogan-berlin.de", "contact:phone": "+49 30 4440978", "contact:website": "http://www.kogan-berlin.de/", "healthcare": "dentist", "name": "Dr. Roman Kogan", "opening_hours": "Mo-Th 08:00-20:00; Fr 08:00-19:00; Sa 09:00-14:00; PH off", "wheelchair": "limited"}}, {"type": "node", "id": 2420872249, "lat": 52.5286923, "lon": 13.3401723, "tags": {"amenity": "dentist", "check_date:opening_hours": "2025-03-09", "contact:phone": "+49303958902", "healthcare": "dentist", "name": "Annett Paszkier", "opening_hours": "Mo,Tu,Th 08:00-12:00,14:00-18:00; We 08:00-12:00,14:00-16:00", "wheelchair": "no"}}, {"type": "node", "id": 2421116413, "lat": 52.5834671, "lon": 13.3012447, "tags": {"amenity": "dentist", "health_facility:type": "office", "health_specialty:dentistry": "yes", "healthcare": "dentist", "medical_system:western": "yes", "name": "Larissa Kusika Zahnarzt", "office": "physician", "opening_hours": "Mo 14:00-19:00; Tu 09:00-14:00; PH off", "operator": "Larissa Kusika", "phone": "+49304339482"}}, {"type": "node", "id": 2423248085, "lat": 52.5162793, "lon": 13.6245678, "tags": {"addr:city": "Berlin", "addr:country": "DE", "addr:housenumber": "188", "addr:postcode": "12623", "addr:street": "Lemkestra\u00dfe", "addr:suburb": "Mahlsdorf", "amenity": "dentist", "contact:website": "http://www.zapclechler.de/", "healthcare": "dentist", "name": "Dipl. Med. Christiane Lechler", "wheelchair": "yes"}}, {"type": "node", "id": 2429478687, "lat": 52.511357, "lon": 13.4679514, "tags": {"addr:city": "Berlin", "addr:country": "DE", "addr:housenumber": "10", "addr:postcode": "10247", "addr:street": "Oderstra\u00dfe", "addr:suburb": "Friedrichshain", "amenity": "dentist", "check_date:opening_hours": "2025-03-10", "contact:phone": "+49 30 2910070", "healthcare": "dentist", "name": "F. Michel", "opening_hours": "Mo,We 12:00-20:00; Tu,Th 08:00-12:00,14:00-20:00; Fr 08:00-13:00", "opening_hours:signed": "no", "source": "Dakota 20", "wheelchair": "yes"}}, {"type": "node", "id": 2432727162, "lat": 52.5972465, "lon": 13.2965286, "tags": {"addr:city": "Berlin", "addr:housenumber": "38", "addr:postcode": "13509", "addr:street": "Waidmannsluster Damm", "amenity": "dentist", "healthcare": "dentist", "name": "Zahnzentrum", "opening_hours": "Mo-We 09:00-13:00, 15:00-20:00; Th 09:00-18:00; Fr 09:00-14:00; PH off", "operator": "Goehlich", "phone": "+49304339430", "website": "https://praxis-goehlich.de/"}}, {"type": "node", "id": 2435123102, "lat": 52.5875664, "lon": 13.4020071, "tags": {"addr:city": "Berlin", "addr:country": "DE", "addr:housenumber": "70", "addr:postcode": "13156", "addr:street": "Dietzgenstra\u00dfe", "addr:suburb": "Niedersch\u00f6nhausen", "amenity": "dentist", "check_date": "2022-10-04", "disused:name": "Reise Atelier", "disused:office": "travel_agent", "healthcare": "dentist", "name": "Zahnmedizin Nordend"}}, {"type": "node", "id": 2438853428, "lat": 52.5092595, "lon": 13.457922, "tags": {"addr:city": "Berlin", "addr:country": "DE", "addr:housenumber": "1", "addr:postcode": "10245", "addr:street": "Gabriel-Max-Stra\u00dfe", "addr:suburb": "Friedrichshain", "amenity": "dentist", "check_date:opening_hours": "2024-06-30", "contact:phone": "+49 30 2912501", "description": "Kieferorthop\u00e4din", "healthcare": "dentist", "name": "Dr. Martina Geier", "opening_hours:signed": "no", "wheelchair": "no"}}, {"type": "node", "id": 2445160123, "lat": 52.5326067, "lon": 13.3410363, "tags": {"addr:city": "Berlin", "addr:country": "DE", "addr:housenumber": "33", "addr:postcode": "10551", "addr:street": "Birkenstra\u00dfe", "addr:suburb": "Moabit", "amenity": "dentist", "healthcare": "dentist", "name": "Zahnarztpraxis Diana Cohn", "note": "Die Werbeagentur monocor schafft spezialisierte, medien\u00fcbergreifende Gesch\u00e4ftsausstattung f\u00fcr die Branchen Gastronomie, Medizin und Wellness \u2013 mit hohem Anspruch an Qualit\u00e4t und Funktionalit\u00e4t.", "opening_hours": "Mo 12:00-19:00; Tu,Th 10:00-19:00; We 09:00-19:00; Fr 09:00-15:00"}}, {"type": "node", "id": 2445456644, "lat": 52.4866468, "lon": 13.3221575, "tags": {"addr:city": "Berlin", "addr:country": "DE", "addr:housenumber": "95", "addr:postcode": "10717", "addr:street": "Uhlandstra\u00dfe", "addr:suburb": "Wilmersdorf", "amenity": "dentist", "healthcare": "dentist", "name": "Dental 21", "opening_hours": "\"Termine online\"", "wheelchair": "limited"}}, {"type": "node", "id": 2460213599, "lat": 52.5182246, "lon": 13.4162078, "tags": {"addr:city": "Berlin", "addr:city:fa": "\u0628\u0631\u0644\u06cc\u0646", "addr:country": "DE", "addr:housename": "Zahnarztpraxis MundWerk", "addr:housenumber": "20", "addr:postcode": "10179", "addr:street": "Grunerstra\u00dfe", "addr:suburb": "Mitte", "amenity": "dentist", "healthcare": "dentist", "level": "3", "name": "Zahnarztpraxis MundWerk", "wheelchair": "yes"}}, {"type": "node", "id": 2492200546, "lat": 52.4348552, "lon": 13.5438258, "tags": {"addr:city": "Berlin", "addr:country": "DE", "addr:housenumber": "7", "addr:postcode": "12489", "addr:street": "Weerthstra\u00dfe", "addr:suburb": "Adlershof", "amenity": "dentist", "email": "info@zahnarzt-in-adlershof.de", "fax": "+49 30 24355375", "healthcare": "dentist", "name": "Dr. med. dent. Evelin und Agnes R\u00f6\u00dfner", "opening_hours": "Mo 08:00-12:00,14:00-19:30; Tu 10:00-13:00,14:00-18:00; We 08:00-12:00,14:00-18:30; Th 08:00-12:00,14:00-18:30; Fr 08:00-12:00,13:00-16:00; PH off", "phone": "+49 30 6775587", "website": "https://zahnarzt-in-adlershof.de/", "wheelchair": "no"}}, {"type": "node", "id": 2496652041, "lat": 52.4924855, "lon": 13.3883124, "tags": {"alt_name": "ZaM Zahnarztpraxis am Mehringhof", "amenity": "dentist", "emergency": "yes", "health_specialty:dentistry": "yes", "healthcare": "dentist", "level": "1", "medical_system:western": "yes", "name": "Zahnarztpraxis am Mehringhof", "opening_hours": "Mo-Fr 09:00-18:30; We 14:00-18:30; \"Mittwoch ab 14:00 Uhr Kinderbehandlung\"; Sa 09:00-14:00 \"nach Vereinbarung\"; Su,PH off", "operator": "Heike Schilling", "phone": "+49 30 6904790", "short_name": "ZaM", "source": "http://www.zahnarzt-berlin-kreuzberg.net/", "website": "http://www.zam-berlin.de", "wheelchair": "yes"}}, {"type": "node", "id": 2503519393, "lat": 52.5352624, "lon": 13.4854047}, {"type": "node", "id": 2503519394, "lat": 52.5352715, "lon": 13.4855645}, {"type": "node", "id": 2503519395, "lat": 52.5352968, "lon": 13.4852817}, {"type": "node", "id": 2511461428, "lat": 52.5351537, "lon": 13.4855826}, {"type": "node", "id": 2511461429, "lat": 52.5351592, "lon": 13.4856792}, {"type": "node", "id": 2511461431, "lat": 52.5353662, "lon": 13.4852345}, {"type": "node", "id": 2511461432, "lat": 52.5353896, "lon": 13.4856437}, {"type": "node", "id": 2517207373, "lat": 52.3653667, "lon": 13.5108547, "tags": {"addr:city": "Sch\u00f6nefeld", "addr:country": "DE", "addr:housenumber": "2", "addr:postcode": "12529", "addr:street": "Willy-Brandt-Platz", "amenity": "dentist", "check_date:opening_hours": "2023-05-21", "email": "praxis.ber@zahnarztlive.de", "fax": "+49 30 65322140", "healthcare": "dentist", "name": "Zahnarztpraxis im Airport BER", "opening_hours": "Mo 08:00-18:00; Tu 09:00-19:00; We 09:00-17:00; Fr 08:00-14:00, Th \"nach Vereinbarung\"", "phone": "+49 30 6091-76260", "website": "https://zahnarztlive.de/schoenefeld/impressum/"}}, {"type": "node", "id": 2540972560, "lat": 52.591835, "lon": 13.2969472, "tags": {"amenity": "dentist", "healthcare": "dentist", "opening_hours": "Tu,Th,Fr 10:00-12:00, Tu,Th 15:00-18:00", "shop": "newsagent"}}, {"type": "node", "id": 2544041945, "lat": 52.4826899, "lon": 13.5268154, "tags": {"addr:city": "Berlin", "addr:country": "DE", "addr:housenumber": "4", "addr:postcode": "10318", "addr:street": "Rheinsteinstra\u00dfe", "addr:suburb": "Karlshorst", "amenity": "dentist", "check_date:opening_hours": "2024-09-20", "healthcare": "dentist", "name": "Zahnarztpraxis Yvonne Burda", "opening_hours": "Mo-Th 08:00-19:00, Fr 08:00-16:00", "phone": "+49 30 50 88 260", "toilets:wheelchair": "yes", "website": "http://www.zahnarztpraxis-burda.de", "wheelchair": "yes", "wheelchair:description": "Sehr nette Fach\u00e4rztin :) \u00d6ffnungszeiten: Mo: 8:00 - 17:00 Di: 8:00 - 19:00 Mi: 8:00 - 19:00 Do: 8:00 - 19:00 Fr: 8:00 - 16:00"}}, {"type": "node", "id": 2577155097, "lat": 52.4313152, "lon": 13.4613435, "tags": {"amenity": "dentist", "healthcare": "dentist", "name": "Zahnarztpraxis Staffehl", "opening_hours": "Mo,Th 09:00-19:00; Tu,We 09:00-20:00; Fr 08:00-14:00", "phone": "+49 30 6035252", "website": "https://imakeyousmile.de/", "wheelchair": "no"}}, {"type": "node", "id": 2618499974, "lat": 52.43809, "lon": 13.5481142, "tags": {"addr:city": "Berlin", "addr:country": "DE", "addr:floor": "1", "addr:housenumber": "46", "addr:postcode": "12489", "addr:street": "D\u00f6rpfeldstra\u00dfe", "addr:suburb": "Adlershof", "amenity": "dentist", "check_date": "2024-02-07", "email": "kontakt@zahnkultur-berlin.de", "fax": "+49 30 565 90 50 20", "healthcare": "dentist", "level": "1", "name": "Zahnklinik Ost", "opening_hours": "Mo-Fr 07:00-21:00; Sa-Su,PH 10:00-18:00", "payment:credit_cards": "yes", "payment:debit_cards": "yes", "phone": "+49 30 565 90 50 0", "source": "survey", "toilets:wheelchair": "no", "website": "https://www.zahnklinik-ost.de/", "wheelchair": "yes"}}, {"type": "node", "id": 2625897815, "lat": 52.4672349, "lon": 13.3262273, "tags": {"addr:city": "Berlin", "addr:country": "DE", "addr:housenumber": "5", "addr:postcode": "12161", "addr:street": "Fr\u00f6aufstra\u00dfe", "addr:suburb": "Friedenau", "amenity": "dentist", "check_date": "2025-08-19", "healthcare": "dentist", "name": "Janka Huttula", "opening_hours": "Mo 08:00-12:00,15:00-20:00; Tu,Fr 08:00-14:00; We \"nur nach Vereinbarung\"; Th 13:00-20:00", "phone": "+49 30 8515402", "website": "https://www.praxis-huttula.de/"}}, {"type": "node", "id": 2629598975, "lat": 52.5065041, "lon": 13.3229365, "tags": {"addr:city": "Berlin", "addr:country": "DE", "addr:housenumber": "5", "addr:postcode": "10623", "addr:street": "Savignyplatz", "addr:suburb": "Charlottenburg", "amenity": "dentist", "contact:phone": "+49 30 92400590", "contact:website": "http://www.zahnmedizinisches-fachzentrum-berlin.de/", "healthcare": "dentist", "name": "Zahnmedizinisches Fachzentrum am Savignyplatz", "opening_hours": "Mo-Fr 08:00-20:00; Sa 10:00-14:00", "source": "http://www.zahnmedizinisches-fachzentrum-berlin.de/", "wheelchair": "no", "wheelchair:description": "Aufzugt\u00fcr nur 70cm breit"}}, {"type": "node", "id": 2629814814, "lat": 52.5008328, "lon": 13.3103862, "tags": {"addr:city": "Berlin", "addr:country": "DE", "addr:housenumber": "64", "addr:postcode": "10707", "addr:street": "Kurf\u00fcrstendamm", "addr:suburb": "Charlottenburg", "amenity": "dentist", "contact:email": "info@ku64.de", "contact:fax": "+49 30 86473242", "contact:phone": "+49 30 8647320", "contact:website": "https://www.ku64.de/", "healthcare": "dentist", "name": "KU64 Dr. Ziegler & Partner Zahn\u00e4rzte", "opening_hours": "Mo-Fr 08:00-20:00; Sa 09:00-19:00; Su 10:00-18:00", "wheelchair": "yes"}}, {"type": "node", "id": 2648384917, "lat": 52.5174499, "lon": 13.3183583, "tags": {"amenity": "dentist", "check_date:opening_hours": "2024-08-11", "healthcare": "dentist", "name": "S. Reimann", "opening_hours": "Mo 09:00-12:00,15:00-18:00; Tu-We 15:00-18:00; Th 09:00-12:00,15:00-18:00; Fr 15:00-18:00; Sa 09:00-12:00"}}, {"type": "node", "id": 2669844282, "lat": 52.5109648, "lon": 13.316685, "tags": {"addr:city": "Berlin", "addr:country": "DE", "addr:housenumber": "15", "addr:postcode": "10625", "addr:street": "Schillerstra\u00dfe", "addr:suburb": "Charlottenburg", "amenity": "dentist", "contact:website": "http://www.doktor-mallien.de/kontakt.html", "healthcare": "dentist", "name": "Zahnarzt- und Prophylaxepraxis Dr. med. dent. Arne Mallien", "phone": "+49 30 3123256", "wheelchair": "yes"}}, {"type": "node", "id": 2669909393, "lat": 52.4897039, "lon": 13.3214646, "tags": {"addr:city": "Berlin", "addr:country": "DE", "addr:housenumber": "45", "addr:postcode": "10717", "addr:street": "Pfalzburger Stra\u00dfe", "amenity": "dentist", "check_date": "2024-07-30", "healthcare": "dentist", "name": "Die Praxis", "wheelchair": "limited"}}, {"type": "node", "id": 2712536292, "lat": 52.5103807, "lon": 13.3874543, "tags": {"addr:city": "Berlin", "addr:country": "DE", "addr:housenumber": "12", "addr:postcode": "10117", "addr:street": "Mauerstra\u00dfe", "addr:suburb": "Mitte", "amenity": "dentist", "emergency": "no", "healthcare": "dentist", "name": "Kompetenzzentrum f\u00fcr Zahnimplantate, Herr Dr. Gutsche & Kollegen", "opening_hours": "Mo 08:30-17:00; Tu,Th 08:30-18:00; We 08:30-14:30; Fr 08:30-14:00", "website": "https://www.implantat-berlin-mitte.de/", "wheelchair": "yes"}}, {"type": "node", "id": 2733928085, "lat": 52.537692, "lon": 13.401928, "tags": {"addr:city": "Berlin", "addr:country": "DE", "addr:housenumber": "4", "addr:postcode": "10435", "addr:street": "Arkonaplatz", "addr:suburb": "Mitte", "amenity": "dentist", "brand": "MEINDENTIST", "brand:wikidata": "Q127611277", "healthcare": "dentist", "name": "MeinDentist", "opening_hours": "Mo-Fr 08:00-20:00"}}, {"type": "node", "id": 2738673442, "lat": 52.5142527, "lon": 13.4348448, "tags": {"addr:city": "Berlin", "addr:country": "DE", "addr:housenumber": "75", "addr:postcode": "10243", "addr:street": "Koppenstra\u00dfe", "addr:suburb": "Friedrichshain", "amenity": "dentist", "contact:email": "info@zahnarzt-lehmann.com", "contact:fax": "+49 30 29003282", "contact:phone": "+49 30 2965422", "contact:website": "http://zahnarztpraxis-dres-lehmann.de/", "healthcare": "dentist", "name": "Dr. Kathrin Lehmann", "opening_hours": "Mo,Th 10:00-14:00, 15:00-18:00; Tu 08:00-11:00, 12:00-14:00; We 08:00-11:00, 12:00-13:00; Fr \"nach Vereinbarung\"", "wheelchair": "no"}}, {"type": "node", "id": 2752211181, "lat": 52.5564296, "lon": 13.3926726, "tags": {"addr:city": "Berlin", "addr:country": "DE", "addr:housenumber": "70", "addr:postcode": "13359", "addr:street": "Gr\u00fcntaler Stra\u00dfe", "addr:suburb": "Gesundbrunnen", "amenity": "dentist", "check_date:opening_hours": "2022-10-13", "healthcare": "dentist", "name": "Sabine Peters", "opening_hours": "Mo 08:00-12:00,13:00-18:00; Tu 08:00-12:00,13:00-16:00; We 13:00-20:00; Th 08:00-12:00,13:00-16:00; Fr 08:00-14:00", "wheelchair": "limited"}}, {"type": "node", "id": 2755857692, "lat": 52.5368112, "lon": 13.4223345, "tags": {"addr:city": "Berlin", "addr:country": "DE", "addr:housenumber": "209", "addr:postcode": "10405", "addr:street": "Prenzlauer Allee", "addr:suburb": "Prenzlauer Berg", "alt_name": "Ole Storch", "amenity": "dentist", "contact:phone": "+49 30 4419073", "healthcare": "dentist", "name": "Ole Storch", "opening_hours": "Mo,Th 11:00-18:30; Tu 08:00-15:00; We 08:00-13:00", "source": "Jens Wilke", "website": "http://www.zahnarzt-ole-storch.de/", "wheelchair": "no"}}, {"type": "node", "id": 2756763472, "lat": 52.5632822, "lon": 13.3904929, "tags": {"addr:housenumber": "31", "addr:street": "Wollankstra\u00dfe", "amenity": "dentist", "cash_withdrawal:operator": "Bert Eichmann, Maria Tietz", "check_date": "2023-07-02", "healthcare": "dentist", "name": "Zahn\u00e4rzte", "opening_hours": "Mo,We,Th 09:00-18:00; Tu 09:00-19:00; Fr 09:00-12:00", "phone": "+49 30 4938006", "wheelchair": "no"}}, {"type": "node", "id": 2770549010, "lat": 52.5125699, "lon": 13.5002672, "tags": {"amenity": "dentist", "check_date:opening_hours": "2025-03-26", "healthcare": "dentist", "name": "Praxis Dr.med. Martina Sch\u00fcler Zahn\u00e4rztin", "opening_hours": "Tu 10:30-12:30,13:00-20:00; We 09:00-15:00; Th 12:00-20:00; Fr 09:00-14:00", "wheelchair": "no"}}, {"type": "node", "id": 2776721737, "lat": 52.4648511, "lon": 13.328986, "tags": {"addr:city": "Berlin", "addr:country": "DE", "addr:housenumber": "16", "addr:postcode": "12163", "addr:street": "Sch\u00f6neberger Stra\u00dfe", "addr:suburb": "Steglitz", "amenity": "dentist", "email": "praxis@zahnarzt-strehle.de", "fax": "+49 30 85407350", "healthcare": "dentist", "name": "Moritz & Inga Strehle", "opening_hours": "Mo 08:00-12:00,13:00-16:00; Tu 11:00-14:00,15:00-18:30; We 09:00-13:00,15:00-18:00; Th 11:00-14:00,15:00-18:30; Fr 08:00-12:00; Sa,Su,PH off", "phone": "+49 30 8524649", "website": "https://zahnarzt-strehle.de/", "wheelchair": "no"}}, {"type": "node", "id": 2805930435, "lat": 52.5482206, "lon": 13.3643094, "tags": {"addr:housenumber": "10", "addr:street": "Prinz-Eugen-Stra\u00dfe", "amenity": "dentist", "check_date": "2022-12-04", "check_date:opening_hours": "2024-02-25", "healthcare": "dentist", "name": "Dr. Becker", "opening_hours": "Mo 08:00-17:00; Tu-Th 11:00-21:00", "wheelchair": "no"}}, {"type": "node", "id": 2822998223, "lat": 52.4817697, "lon": 13.4245722, "tags": {"addr:city": "Berlin", "addr:country": "DE", "addr:housenumber": "30", "addr:postcode": "12049", "addr:street": "Hermannstra\u00dfe", "amenity": "dentist", "check_date": "2023-05-18", "contact:phone": "+49 30 6214007;+49 177 2594816", "description": "\u00d6ffnungszeiten: Mo - Fr 9:00 - 19:00 Uhr Fr nur mit Termin", "email": "info@r-wessel.de", "healthcare": "dentist", "name": "Zahnarztpraxis Reinhard We\u00dfel", "opening_hours": "Mo-Th 09:00-13:30, 15:00-18:30; Fr 09:00-19:00 open \"Nach Vereinbarung\"", "operator": "Reinhard We\u00dfel", "source": "knowledge", "website": "https://www.r-wessel.de/", "wheelchair": "no"}}, {"type": "node", "id": 2839098322, "lat": 52.5520505, "lon": 13.4132099, "tags": {"addr:city": "Berlin", "addr:country": "DE", "addr:housenumber": "49", "addr:postcode": "10439", "addr:street": "Paul-Robeson-Stra\u00dfe", "addr:suburb": "Prenzlauer Berg", "amenity": "dentist", "check_date:opening_hours": "2025-11-07", "contact:phone": "+49 30 44650288", "healthcare": "dentist", "name": "Zahnarztpraxis zahnPLUSgesundheit", "opening_hours": "Mo-Fr 08:00-20:00"}}, {"type": "node", "id": 2844659327, "lat": 52.4532819, "lon": 13.6291935, "tags": {"addr:city": "Berlin", "addr:country": "DE", "addr:housenumber": "9", "addr:postcode": "12587", "addr:street": "Klutstra\u00dfe", "addr:suburb": "Friedrichshagen", "amenity": "dentist", "contact:email": "peterzahl@t-online.de", "contact:phone": "+49 30 645 1552", "contact:website": "http://www.zahnarztpraxis-friedrichshagen.de/", "healthcare": "dentist", "name": "Peter Zahl", "opening_hours": "Mo 14:00-19:00; Tu 08:00-13:00,14:00-19:00; We 08:00-13:00; Th 08:00-13:00,14:00-19:00; Fr 08:00-14:00"}}, {"type": "node", "id": 2849057624, "lat": 52.5078465, "lon": 13.3245115, "tags": {"addr:city": "Berlin", "addr:country": "DE", "addr:housenumber": "2", "addr:postcode": "10623", "addr:street": "Carmerstra\u00dfe", "addr:suburb": "Charlottenburg", "amenity": "dentist", "contact:phone": "+49 30 313 56 48", "contact:website": "https://www.zahnerhaltung.berlin/", "healthcare": "dentist", "name": "Praxis f\u00fcr Zahnerhaltung.Berlin", "opening_hours": "Mo 08:00-20:00; Tu,We 12:30-20:00; Th,Fr 08:00-17:00", "operator": "Dr. Sunja Christen", "wheelchair": "no"}}, {"type": "node", "id": 2852001850, "lat": 52.4700467, "lon": 13.6807296, "tags": {"addr:city": "Sch\u00f6neiche bei Berlin", "addr:country": "DE", "addr:housenumber": "78a", "addr:postcode": "15566", "addr:street": "Friedrichshagener Stra\u00dfe", "amenity": "dentist", "name": "Dr. med. dent. Juliane Vaudt", "opening_hours": "Mo,Tu 12:00-19:00; We,Th 08:00-15:00; Fr 08:00-12:00", "phone": "+49 30 64326107"}}, {"type": "node", "id": 2854033634, "lat": 52.4259308, "lon": 13.4349766}, {"type": "node", "id": 2864467603, "lat": 52.4238975, "lon": 13.4367314, "tags": {"amenity": "dentist", "check_date:opening_hours": "2024-02-16", "healthcare": "dentist", "name": "Zahnarztpraxis Berlin-Buckow", "opening_hours": "Mo-Fr 08:00-13:00, Mo-Th 14:00-20:00", "website": "https://www.zahnarztpraxis-buckow.de/", "wheelchair": "yes"}}, {"type": "node", "id": 2864556805, "lat": 52.4181368, "lon": 13.4360268, "tags": {"amenity": "dentist", "healthcare": "dentist", "name": "Zahnarztpraxis Daniela Grunow", "wheelchair": "yes"}}, {"type": "node", "id": 2865364796, "lat": 52.4108055, "lon": 13.4400601, "tags": {"amenity": "dentist", "healthcare": "dentist", "healthcare:speciality": "orthodontics", "name": "Kieferorthop\u00e4die Dr. Sztankay"}}, {"type": "node", "id": 2866359090, "lat": 52.4289205, "lon": 13.4568296, "tags": {"amenity": "dentist", "healthcare": "dentist", "level": "2", "name": "Zahnklinik Gropius-Passagen", "website": "https://www.zahnklinik-berlin.info/", "wheelchair": "yes"}}, {"type": "node", "id": 2869920525, "lat": 52.5244923, "lon": 13.1762969, "tags": {"entrance": "main"}}, {"type": "node", "id": 2877316919, "lat": 52.5212264, "lon": 13.1996766, "tags": {"amenity": "dentist", "healthcare": "dentist", "name": "Dr. Kappel"}}, {"type": "node", "id": 2889853055, "lat": 52.5919596, "lon": 13.3341987, "tags": {"addr:city": "Berlin", "addr:country": "DE", "addr:housenumber": "73", "addr:postcode": "13437", "addr:street": "Oranienburger Stra\u00dfe", "addr:suburb": "Wittenau", "amenity": "dentist", "description": "Zahnarztpraxis Reinickendorf, Zahnarzt Reinickendorf, Implantation Reinickendorf, Zahnarzt Wittenau", "healthcare": "dentist", "name": "Medentes - Zahnarztpraxis Reinickendorf", "phone": "+49 30 411 12 47", "source": "Geoportal Berlin / Hauskoordinaten", "website": "https://www.medentes.de/"}}, {"type": "node", "id": 2895547261, "lat": 52.5243842, "lon": 13.1763355}, {"type": "node", "id": 2895550254, "lat": 52.5244462, "lon": 13.1764277}, {"type": "node", "id": 2895551613, "lat": 52.5244808, "lon": 13.1763733}, {"type": "node", "id": 2895551628, "lat": 52.5245099, "lon": 13.1763144}, {"type": "node", "id": 2895564550, "lat": 52.524506, "lon": 13.1763213}, {"type": "node", "id": 2895565899, "lat": 52.5245163, "lon": 13.1763246}, {"type": "node", "id": 2895565981, "lat": 52.5244636, "lon": 13.1762074}, {"type": "node", "id": 2895565988, "lat": 52.5244835, "lon": 13.176377}, {"type": "node", "id": 2895565995, "lat": 52.5245011, "lon": 13.176268}, {"type": "node", "id": 2895568219, "lat": 52.5244434, "lon": 13.1764323}, {"type": "node", "id": 2895568227, "lat": 52.5244874, "lon": 13.1762881}, {"type": "node", "id": 2895568705, "lat": 52.5244395, "lon": 13.176426}, {"type": "node", "id": 2896446523, "lat": 52.5331985, "lon": 13.155809}, {"type": "node", "id": 2896446526, "lat": 52.5332195, "lon": 13.1556024}, {"type": "node", "id": 2896446530, "lat": 52.5332908, "lon": 13.1555945}, {"type": "node", "id": 2896446533, "lat": 52.5332992, "lon": 13.1557978}, {"type": "node", "id": 2896447310, "lat": 52.5331901, "lon": 13.155606}, {"type": "node", "id": 2896447315, "lat": 52.5332591, "lon": 13.1555506}, {"type": "node", "id": 2896447409, "lat": 52.5332175, "lon": 13.1555547}, {"type": "node", "id": 2896447412, "lat": 52.533261, "lon": 13.1555979}, {"type": "node", "id": 2904608126, "lat": 52.4231496, "lon": 13.4760864, "tags": {"addr:city": "Berlin", "addr:country": "DE", "addr:housenumber": "13", "addr:postcode": "12353", "addr:street": "Joachim-Gottschalk-Weg", "addr:suburb": "Gropiusstadt", "amenity": "dentist", "healthcare": "dentist", "level": "1", "name": "Torsten Beier"}}, {"type": "node", "id": 2912884795, "lat": 52.5053348, "lon": 13.4662764, "tags": {"addr:city": "Berlin", "addr:housenumber": "8", "addr:postcode": "10245", "addr:street": "Lenbachstra\u00dfe", "amenity": "dentist", "check_date:opening_hours": "2025-09-29", "email": "info@dr-wachtel-heike.de", "healthcare": "dentist", "name": "Dr. Heike Wachtel", "opening_hours": "Mo 10:00-13:30,14:30-19:30; Tu 14:00-19:00; We,Fr 09:00-13:00; Th 09:00-13:30,14:30-18:00", "phone": "+49 30 2910884", "website": "https://www.dr-wachtel-heike.de/", "wheelchair": "limited"}}, {"type": "node", "id": 2917780974, "lat": 52.5096681, "lon": 13.2664777, "tags": {"addr:city": "Berlin", "addr:country": "DE", "addr:housenumber": "1", "addr:postcode": "14052", "addr:street": "W\u00fcrttembergallee", "addr:suburb": "Westend", "amenity": "dentist", "check_date:opening_hours": "2022-09-02", "healthcare": "dentist", "name": "G\u00f6pner + G\u00f6pner | Stefan Gerlach", "opening_hours": "Mo-Th 09:00-18:00; Fr 08:00-13:00", "source": "Geoportal Berlin / Hauskoordinaten", "wheelchair": "no"}}, {"type": "node", "id": 2924646500, "lat": 52.5184555, "lon": 13.4628583, "tags": {"addr:city": "Berlin", "addr:country": "DE", "addr:housenumber": "32", "addr:postcode": "10247", "addr:street": "B\u00e4nschstra\u00dfe", "addr:suburb": "Friedrichshain", "amenity": "dentist", "healthcare": "dentist", "name": "Juliane Baumbach", "opening_hours": "Fr 07:00-14:00; Mo 10:00-20:00; We 07:00-19:00; Th 07:00-17:00; Tu 08:00-19:00", "website": "https://zahnarzt-friedrichshain.de/", "wheelchair": "no"}}, {"type": "node", "id": 2928065325, "lat": 52.6135801, "lon": 13.2261335, "tags": {"addr:city": "Berlin", "addr:country": "DE", "addr:housenumber": "106", "addr:postcode": "13503", "addr:street": "Schulzendorfer Stra\u00dfe", "addr:suburb": "Heiligensee", "amenity": "dentist", "fax": "+49 30 43666076", "healthcare": "dentist", "name": "Bl\u00fcmich & Collegen", "opening_hours": "Mo-Fr 08:00-19:00", "operator": "Zahn\u00e4rztin Laura Bl\u00fcmich", "phone": "+49 30 4313724", "source": "Geoportal Berlin / Hauskoordinaten", "website": "https://bluemich-collegen.de/"}}, {"type": "node", "id": 2947843271, "lat": 52.5854359, "lon": 13.228967, "tags": {"addr:city": "Berlin", "addr:country": "DE", "addr:housenumber": "3", "addr:postcode": "13505", "addr:street": "Habichtstra\u00dfe", "addr:suburb": "Konradsh\u00f6he", "amenity": "dentist", "healthcare": "dentist", "name": "Zahnarztpraxis Kathrin Sp\u00e4the", "opening_hours": "Mo 08:00-16:00, Tu-We 12:00-18:00, Th 08:00-16:00, Fr 08:00-12:00", "phone": "+49 30 430049-10", "source": "survey", "website": "https://zahnarztpraxis-spaethe.de/"}}, {"type": "node", "id": 2966943102, "lat": 52.5946499, "lon": 13.3314904}, {"type": "node", "id": 2966943104, "lat": 52.594654, "lon": 13.3314459}, {"type": "node", "id": 2966943108, "lat": 52.594657, "lon": 13.3315359}, {"type": "node", "id": 2966943111, "lat": 52.5946595, "lon": 13.3314809}, {"type": "node", "id": 2966943116, "lat": 52.5946616, "lon": 13.3314666}, {"type": "node", "id": 2966943117, "lat": 52.5946632, "lon": 13.3314373}, {"type": "node", "id": 2966943120, "lat": 52.5946642, "lon": 13.3315289}, {"type": "node", "id": 2966943345, "lat": 52.594705, "lon": 13.3316666}, {"type": "node", "id": 2966943350, "lat": 52.5947089, "lon": 13.3313943}, {"type": "node", "id": 2966943352, "lat": 52.5947126, "lon": 13.331659}, {"type": "node", "id": 2966943364, "lat": 52.5947272, "lon": 13.3316984}, {"type": "node", "id": 2966943375, "lat": 52.5947378, "lon": 13.3316879}, {"type": "node", "id": 2966943382, "lat": 52.5947444, "lon": 13.3313611}, {"type": "node", "id": 2966943387, "lat": 52.5947462, "lon": 13.3316945}, {"type": "node", "id": 2966943388, "lat": 52.5947487, "lon": 13.3316999}, {"type": "node", "id": 2966943394, "lat": 52.5947587, "lon": 13.3316904}, {"type": "node", "id": 2966943413, "lat": 52.5947735, "lon": 13.3314395}, {"type": "node", "id": 2966943419, "lat": 52.5947833, "lon": 13.3314289}, {"type": "node", "id": 2966943423, "lat": 52.594789, "lon": 13.3314808}, {"type": "node", "id": 2966943429, "lat": 52.5947993, "lon": 13.3314721}, {"type": "node", "id": 2966943636, "lat": 52.5948095, "lon": 13.3315361}, {"type": "node", "id": 2966943644, "lat": 52.5948192, "lon": 13.331526}, {"type": "node", "id": 2966943646, "lat": 52.5948238, "lon": 13.3315741}, {"type": "node", "id": 2966943650, "lat": 52.5948335, "lon": 13.3315647}, {"type": "node", "id": 2966943654, "lat": 52.5948388, "lon": 13.3316148}, {"type": "node", "id": 2967205874, "lat": 52.6411024, "lon": 13.5127197, "tags": {"addr:city": "Berlin", "addr:country": "DE", "addr:housenumber": "56", "addr:postcode": "13125", "addr:street": "Zepernicker Stra\u00dfe", "addr:suburb": "Buch", "amenity": "dentist", "branch": "Standort Zepernicker Str. 56", "fax": "+493094413404", "healthcare": "dentist", "healthcare:speciality": "stomatology", "name": "Dr. K & K Zahn\u00e4rzte", "opening_hours": "Mo 12:30-20:30; Tu 07:00-19:00; We 08:00-20:30; Th 07:00-15:00; Fr 08:00-12:00; PH off", "phone": "+49309490084", "source": "Geoportal Berlin / Hauskoordinaten", "website": "https://dr-krause.jimdofree.com/"}}, {"type": "node", "id": 2967205876, "lat": 52.6364062, "lon": 13.5023791, "tags": {"addr:city": "Berlin", "addr:country": "DE", "addr:housenumber": "57", "addr:postcode": "13125", "addr:street": "Alt-Buch", "addr:suburb": "Buch", "amenity": "dentist", "branch": "Standort Alt-Buch 57", "fax": "+493094413547", "healthcare": "dentist", "healthcare:speciality": "stomatology", "name": "Dr. K & K Zahn\u00e4rzte", "opening_hours": "Mo 08:00-17:00; Tu,Th 12:00-20:30; We,Fr 08:00-12:00; PH off", "phone": "+493094413544", "source": "Geoportal Berlin / Hauskoordinaten", "website": "https://dr-krause.jimdofree.com/"}}, {"type": "node", "id": 3021117658, "lat": 52.5329316, "lon": 13.6210033, "tags": {"addr:city": "Berlin", "addr:country": "DE", "addr:housenumber": "5", "addr:postcode": "12627", "addr:street": "Adele-Sandrock-Stra\u00dfe", "addr:suburb": "Hellersdorf", "amenity": "dentist", "brand": "MEINDENTIST", "brand:wikidata": "Q127611277", "healthcare": "dentist", "healthcare:speciality": "dentist", "name": "MEINDENTIST-Praxis Hellersdorf", "phone": "+49 30 9912014", "source": "Geoportal Berlin / Hauskoordinaten", "website": "https://meindentist.de/berlin/hellersdorf/adele-sandrock-str/"}}, {"type": "node", "id": 3021118319, "lat": 52.5316077, "lon": 13.621904, "tags": {"addr:city": "Berlin", "addr:country": "DE", "addr:housenumber": "8", "addr:postcode": "12627", "addr:street": "Louis-Lewin-Stra\u00dfe", "addr:suburb": "Hellersdorf", "amenity": "dentist", "healthcare": "dentist", "name": "Ute Henrion", "source": "Geoportal Berlin / Hauskoordinaten"}}, {"type": "node", "id": 3024159964, "lat": 52.5124232, "lon": 13.4975205, "tags": {"addr:city": "Berlin", "addr:country": "DE", "addr:housenumber": "212", "addr:postcode": "10365", "addr:street": "Siegfriedstra\u00dfe", "addr:suburb": "Lichtenberg", "amenity": "dentist", "check_date:opening_hours": "2025-03-26", "contact:phone": "+49 30 5588905", "contact:website": "https://www.zahnarztpraxis-kehler.de", "healthcare": "dentist", "name": "Zahnarztpraxis Dr. Anne Kehler", "opening_hours": "Mo 07:00-20:00; Tu-Th 08:00-20:00; Fr 08:00-16:00", "operator": "Dr. Anne Kehler", "wheelchair": "no"}}, {"type": "node", "id": 3047251380, "lat": 52.4534507, "lon": 13.1435584, "tags": {"addr:city": "Berlin", "addr:country": "DE", "addr:housenumber": "25", "addr:postcode": "14089", "addr:street": "Alt-Kladow", "addr:suburb": "Kladow", "amenity": "dentist", "contact:email": "info@kfo-praxis-peikert.de", "contact:phone": "+49 30 20096960", "contact:website": "https://kfo-praxis-peikert.de/", "healthcare": "dentist", "healthcare:speciality": "orthodontics", "name": "Kieferorthop\u00e4de Dr. Carmen Peikert Berlin Spandau/Kladow"}}, {"type": "node", "id": 3050190214, "lat": 52.4859146, "lon": 13.3220346, "tags": {"addr:city": "Berlin", "addr:country": "DE", "addr:housenumber": "98", "addr:postcode": "10715", "addr:street": "Uhlandstra\u00dfe", "amenity": "dentist", "check_date:opening_hours": "2024-04-28", "email": "info@zahnarzt-reuter.de", "fax": "+49 30 55246080", "healthcare": "dentist", "level": "1", "name": "Zahnarztpraxis Reuter", "opening_hours": "Mo 12:00-19:00; Tu,We,Fr 08:00-15:00; Th 12:00-19:00", "operator": "Marvin Reuter", "phone": "+49 30 8735901", "website": "https://www.zahnarzt-reuter.de/", "wheelchair": "no"}}, {"type": "node", "id": 3059314271, "lat": 52.5105924, "lon": 13.270895, "tags": {"amenity": "dentist", "healthcare": "dentist", "name": "Dr. med. dent. Marcus Nowak", "opening_hours": "Mo 08:00-19:00; Tu-Th 08:00-20:00; Fr 08:00-16:00; Sa 10:00-15:00"}}, {"type": "node", "id": 3081739147, "lat": 52.4882442, "lon": 13.3392225, "tags": {"addr:city": "Berlin", "addr:country": "DE", "addr:housenumber": "7", "addr:postcode": "10779", "addr:street": "Meraner Stra\u00dfe", "addr:suburb": "Sch\u00f6neberg", "amenity": "dentist", "healthcare": "dentist", "name": "Wunschlachen", "opening_hours": "Mo 12:00-20:00; Tu 08:00-20:00; We 08:00-14:00; Th 08:00-20:00; Fr 08:00-13:00"}}, {"type": "node", "id": 3095193833, "lat": 52.4532066, "lon": 13.5768121, "tags": {"addr:city": "Berlin", "addr:housenumber": "35", "addr:postcode": "12555", "addr:street": "Puchanstra\u00dfe", "addr:suburb": "K\u00f6penick", "amenity": "dentist", "counselling_type:nutrition": "yes", "email": "kinderzahnfee@hotmail.de", "health_facility:type": "office", "health_specialty:dentistry": "yes", "healthcare": "dentist", "medical_system:western": "yes", "name": "Zahnarztpraxis Mareen Scharf", "opening_hours": "Tu 09:00-14:00, We 12:00-17:00, Mo,Th 13:00-19:00; PH off", "operator": "Mareen Scharf", "phone": "+49 30 6571017", "provided_for:boy": "yes", "provided_for:girl": "yes", "website": "http://die-kinderzahnfee.de/", "wheelchair": "no"}}, {"type": "node", "id": 3134877622, "lat": 52.4044129, "lon": 13.2200135, "tags": {"addr:city": "Kleinmachnow", "addr:country": "DE", "addr:housenumber": "104", "addr:postcode": "14532", "addr:street": "F\u00f6rster-Funke-Allee", "amenity": "dentist", "healthcare": "dentist", "name": "Berliner Zahnzentrum", "phone": "+49 30 91608684", "website": "http://www.berliner-zahnzentrum.de", "wheelchair": "yes"}}, {"type": "node", "id": 3142779070, "lat": 52.4965111, "lon": 13.577751}, {"type": "node", "id": 3142779106, "lat": 52.4965283, "lon": 13.5777744}, {"type": "node", "id": 3142779114, "lat": 52.4965309, "lon": 13.5777604}, {"type": "node", "id": 3142779130, "lat": 52.4965402, "lon": 13.5775863}, {"type": "node", "id": 3142779152, "lat": 52.4965547, "lon": 13.577787}, {"type": "node", "id": 3142779155, "lat": 52.4965569, "lon": 13.5777728}, {"type": "node", "id": 3142779159, "lat": 52.49656, "lon": 13.5775957}, {"type": "node", "id": 3142779161, "lat": 52.4965625, "lon": 13.5775815}, {"type": "node", "id": 3142779194, "lat": 52.4965864, "lon": 13.5776083}, {"type": "node", "id": 3142779200, "lat": 52.4965889, "lon": 13.577594}, {"type": "node", "id": 3142779237, "lat": 52.4966117, "lon": 13.5777988}, {"type": "node", "id": 3142779289, "lat": 52.4966408, "lon": 13.577634}, {"type": "node", "id": 3167970163, "lat": 52.4257984, "lon": 13.4348334}, {"type": "node", "id": 3167970171, "lat": 52.4258052, "lon": 13.4349906}, {"type": "node", "id": 3167970219, "lat": 52.4258653, "lon": 13.4349839}, {"type": "node", "id": 3167970251, "lat": 52.4258937, "lon": 13.4347831}, {"type": "node", "id": 3167970256, "lat": 52.4258956, "lon": 13.4348221}, {"type": "node", "id": 3167970290, "lat": 52.425943, "lon": 13.4347782}, {"type": "node", "id": 3167970291, "lat": 52.4259447, "lon": 13.4348163}, {"type": "node", "id": 3167970333, "lat": 52.4259849, "lon": 13.4348116}, {"type": "node", "id": 3167970339, "lat": 52.4259908, "lon": 13.4349699}, {"type": "node", "id": 3291015361, "lat": 52.535074, "lon": 13.402638, "tags": {"addr:city": "Berlin", "addr:country": "DE", "addr:housenumber": "21", "addr:postcode": "10119", "addr:street": "Zionskirchstra\u00dfe", "addr:suburb": "Mitte", "amenity": "dentist", "contact:phone": "+49 30 4496176", "healthcare": "dentist", "healthcare:speciality": "stomatology", "name": "Zahnarztpraxis Mario Liebers", "opening_hours": "Mo,We 13:30-18:00, Fr 08:00-12:00, Tu,We 08:00-12:00, Tu 13:00-15:00, Th 13:00-18:00", "wheelchair": "no"}}, {"type": "node", "id": 3318520561, "lat": 52.4312967, "lon": 13.2572137, "tags": {"addr:city": "Berlin", "addr:country": "DE", "addr:housenumber": "24", "addr:postcode": "14163", "addr:street": "Martin-Buber-Stra\u00dfe", "addr:suburb": "Zehlendorf", "amenity": "dentist", "contact:phone": "+49 30 255 64 320", "contact:website": "http://www.zahnaerztinwoelm.de", "healthcare": "dentist", "name": "Zahnarztpraxis Marion Woelm", "toilets:wheelchair": "yes", "wheelchair": "yes", "wheelchair:description": "Barrierefreier Zugang durch feste Rampe und Lift. Die Praxis verf\u00fcgt \u00fcber ein behindertengerechtes WC."}}, {"type": "node", "id": 3334326816, "lat": 52.4388582, "lon": 13.2712769, "tags": {"addr:city": "Berlin", "addr:country": "DE", "addr:housenumber": "87", "addr:postcode": "14169", "addr:street": "Sundgauer Stra\u00dfe", "addr:suburb": "Zehlendorf", "amenity": "dentist", "email": "info@zahnarzt-zehlendorf-paro.de", "healthcare": "dentist", "name": "Dr. med. dent. Nicole Dlabka", "opening_hours": "Mo 09:00-15:30; Tu,Th 09:00-20:00; We 11:00-20:00; Fr 11:00-15:30", "phone": "+493080 90 91 800", "website": "https://www.zahnarzt-zehlendorf-paro.de/"}}, {"type": "node", "id": 3353229503, "lat": 52.5673453, "lon": 13.4109403, "tags": {"addr:city": "Berlin", "addr:country": "DE", "addr:housenumber": "1", "addr:place": "Garb\u00e1typlatz", "addr:postcode": "13187", "addr:suburb": "Pankow", "amenity": "dentist", "check_date:opening_hours": "2025-11-02", "contact:website": "http://dentalzentrum-pankow.de/", "healthcare": "dentist", "name": "Dentalzentrum Pankow", "opening_hours": "Mo-We 10:30-18:00; Th,Fr 08:30-16:00", "wheelchair": "yes"}}, {"type": "node", "id": 3357799468, "lat": 52.3868134, "lon": 13.4053401, "tags": {"addr:city": "Berlin", "addr:housenumber": "9", "addr:postcode": "12305", "addr:street": "Bahnhofstra\u00dfe", "amenity": "dentist", "healthcare": "dentist", "name": "ZZB - Zahnmedizinisches Zentrum Berlin", "opening_hours": "Mo-Fr 07:00-20:00; Sa 08:00-13:00", "phone": "+49 30 7055090", "source:date": "2015-02-18", "website": "https://zzb.de/", "wheelchair": "yes"}}, {"type": "node", "id": 3391940094, "lat": 52.497418, "lon": 13.2908931, "tags": {"amenity": "dentist", "check_date:opening_hours": "2026-01-07", "healthcare": "dentist", "name": "Zahnteam-Halensee", "opening_hours": "Mo,Tu,Th 12:00-19:00; Fr 09:00-13:30; We 09:00-15:00", "website": "http://www.zahnteam-halensee.de/"}}, {"type": "node", "id": 3392527028, "lat": 52.5306025, "lon": 13.4194295, "tags": {"addr:city": "Berlin", "addr:country": "DE", "addr:housenumber": "15", "addr:postcode": "10405", "addr:street": "Prenzlauer Allee", "addr:suburb": "Prenzlauer Berg", "amenity": "dentist", "check_date:opening_hours": "2025-01-23", "contact:email": "info@zahnarztpraxis-neumann-berlin.de", "contact:phone": "+49 30 4426919", "contact:website": "http://www.zahnarztpraxis-neumann-berlin.de/", "healthcare": "dentist", "name": "Zahnarztpraxis Neumann", "opening_hours": "Fr 08:00-13:00; Mo-Th 08:00-19:00"}}, {"type": "node", "id": 3396696863, "lat": 52.5754793, "lon": 13.2749306, "tags": {"amenity": "dentist", "healthcare": "dentist", "name": "Zahnarzt Gabriele Letzner", "phone": "+49 30 4324412", "website": "http://www.letzner.net/index.html"}}, {"type": "node", "id": 3404744174, "lat": 52.6297245, "lon": 13.5290279}, {"type": "node", "id": 3404744198, "lat": 52.6297837, "lon": 13.5288215}, {"type": "node", "id": 3404744215, "lat": 52.629811, "lon": 13.5290952}, {"type": "node", "id": 3404744242, "lat": 52.6298701, "lon": 13.5288888}, {"type": "node", "id": 3405316893, "lat": 52.5043988, "lon": 13.3106379, "tags": {"addr:city": "Berlin", "addr:country": "DE", "addr:housenumber": "62", "addr:postcode": "10629", "addr:street": "Niebuhrstra\u00dfe", "addr:suburb": "Charlottenburg", "amenity": "dentist", "contact:phone": "+49 30 3247637", "healthcare": "dentist", "name": "Dr. Vanja Bohinc-Abbate"}}, {"type": "node", "id": 3414392396, "lat": 52.5383854, "lon": 13.2976995, "tags": {"addr:city": "Berlin", "addr:housenumber": "1", "addr:postcode": "13627", "addr:street": "Teichgr\u00e4berzeile", "amenity": "dentist", "healthcare": "dentist", "name": "Zahn\u00e4rzte an der Jungfernheide", "phone": "+49 30 3453060"}}, {"type": "node", "id": 3442708588, "lat": 52.4922791, "lon": 13.4458931, "tags": {"addr:city": "Berlin", "addr:country": "DE", "addr:housenumber": "65", "addr:postcode": "12435", "addr:street": "Karl-Kunger-Stra\u00dfe", "addr:suburb": "Alt-Treptow", "amenity": "dentist", "check_date": "2024-09-28", "contact:phone": "+49 30 53213930", "contact:website": "https://www.zahn33.de/standort-treptow", "healthcare": "dentist", "name": "Zahn33", "opening_hours": "Mo-Fr 08:00-20:00", "wheelchair": "limited"}}, {"type": "node", "id": 3530867518, "lat": 52.5043469, "lon": 13.3240365, "tags": {"amenity": "dentist", "check_date": "2025-07-16", "healthcare": "dentist", "name": "Zahnarztpraxis Riedel", "website": "https://www.dr-riedel-zahnarztpraxis.de/", "wheelchair": "no"}}, {"type": "node", "id": 3585050578, "lat": 52.4434206, "lon": 13.5775733, "tags": {"addr:city": "Berlin", "addr:housenumber": "7", "addr:street": "Kietz", "addr:suburb": "K\u00f6penick", "amenity": "dentist", "health_facility:type": "office", "health_specialty:dentistry": "main", "healthcare": "dentist", "medical_system:western": "yes", "name": "Zahnretter Berlin", "office": "physician", "opening_hours": "Mo-Th 08:00-18:00; Fr 08:00-14:00", "operator": "Zahnretter Berlin und Diagnostik-Netzwerk MVZ GmbH", "phone": "+49 30 6514354", "website": "https://www.zahnretter-berlin.de", "wheelchair": "no"}}, {"type": "node", "id": 3652911933, "lat": 52.4832083, "lon": 13.5273327, "tags": {"addr:city": "Berlin", "addr:country": "DE", "addr:housenumber": "17", "addr:postcode": "10318", "addr:street": "Weseler Stra\u00dfe", "addr:suburb": "Karlshorst", "amenity": "dentist", "check_date:opening_hours": "2024-06-14", "contact:email": "info@endopraxis.berlin", "healthcare": "dentist", "name": "Endopraxis Berlin", "opening_hours:signed": "no", "operator": "Dr. G. Frahn und M. Rammo", "phone": "+49 30 5090606", "wheelchair": "no"}}, {"type": "node", "id": 3712880326, "lat": 52.4943023, "lon": 13.3631985, "tags": {"addr:city": "Berlin", "addr:country": "DE", "addr:housenumber": "25", "addr:postcode": "10783", "addr:street": "Goebenstra\u00dfe", "addr:suburb": "Sch\u00f6neberg", "amenity": "dentist", "healthcare": "dentist", "name": "Frank Mertens", "opening_hours": "Mo,Tu,Th 09:00-12:00,15:00-18:00; Fr 08:00-14:00", "source": "Collected via KeypadMapper"}}, {"type": "node", "id": 3714770725, "lat": 52.4233687, "lon": 13.3967436, "tags": {"addr:city": "Berlin", "addr:country": "DE", "addr:housenumber": "2a", "addr:postcode": "12107", "addr:street": "Tauernallee", "addr:suburb": "Mariendorf", "amenity": "dentist", "fax": "+493074106326", "healthcare": "dentist", "name": "Ina Elisabeth Dietrich-Knauth", "opening_hours": "Mo,Th 10:00-14:00,15:00-19:30; Tu 08:30-14:00; We 08:30-12:00; Fr 08:30-13:00", "phone": "+49307414040", "website": "http://www.zahnarztpraxis-dietrich.de/"}}, {"type": "node", "id": 3722675323, "lat": 52.5647878, "lon": 13.3262452, "tags": {"addr:city": "Berlin", "addr:housenumber": "21 / 22", "addr:postcode": "13405", "addr:street": "Scharnweberstra\u00dfe", "amenity": "dentist", "email": "praxis@andreathiele.de", "fax": "+4930 4178355 2", "healthcare": "dentist", "name": "Andrea Thiele", "opening_hours": "Mo 10:00-15:00; Tu,We 10:00-19:00; Th 10:00-14:00", "phone": "+4930 4178355 0", "website": "http://www.andreathiele.de/", "wheelchair": "no"}}, {"type": "node", "id": 3799268655, "lat": 52.4839852, "lon": 13.3537009, "tags": {"amenity": "dentist", "check_date:opening_hours": "2025-09-26", "healthcare": "dentist", "name": "Romana Roither", "opening_hours": "Mo,Tu,Th 09:00-14:00,15:00-19:00; Fr 09:00-15:00", "phone": "+49 30 7812135"}}, {"type": "node", "id": 3826013975, "lat": 52.4983531, "lon": 13.3504395, "tags": {"addr:city": "Berlin", "addr:country": "DE", "addr:housenumber": "11", "addr:postcode": "10777", "addr:street": "Motzstra\u00dfe", "addr:suburb": "Sch\u00f6neberg", "amenity": "dentist", "healthcare": "dentist", "name": "Dr. Med. M. Dachner", "opening_hours": "Mo-Tu 09:00-12:00,14:00-17:00", "phone": "+49 30 2162931", "wheelchair": "no"}}, {"type": "node", "id": 3826013979, "lat": 52.4979933, "lon": 13.3523262, "tags": {"addr:city": "Berlin", "addr:country": "DE", "addr:housenumber": "13-14", "addr:postcode": "10777", "addr:street": "Nollendorfstra\u00dfe", "addr:suburb": "Sch\u00f6neberg", "amenity": "dentist", "check_date": "2023-07-09", "healthcare": "dentist", "name": "Viktoria B\u00f6ttcher", "opening_hours": "Mo,Tu,Th 9:00-18:00; We,Fr 9:00-13:00", "phone": "+49 30 2164100", "wheelchair": "no"}}, {"type": "node", "id": 3831132304, "lat": 52.5198277, "lon": 13.4109934, "tags": {"addr:city": "Berlin", "addr:country": "DE", "addr:housenumber": "7", "addr:postcode": "10178", "addr:street": "Rathausstra\u00dfe", "addr:suburb": "Mitte", "amenity": "dentist", "contact:phone": "+49 30 2403090", "healthcare": "dentist", "level": "1", "name": "Zahn\u00e4rzte am Alex", "opening_hours": "Mo-Th 08:00-20:00; Fr 08:00-14:00", "wheelchair": "limited"}}, {"type": "node", "id": 3837620218, "lat": 52.5003158, "lon": 13.3628555, "tags": {"addr:city": "Berlin", "addr:country": "DE", "addr:housenumber": "116", "addr:postcode": "10785", "addr:street": "Potsdamer Stra\u00dfe", "addr:suburb": "Tiergarten", "amenity": "dentist", "contact:phone": "+49 30 2651189", "contact:website": "http://www.prophylaxe-arzt.de/", "healthcare": "dentist", "internet_access": "wlan", "name": "F. Brouwer & M. Lehmensiek", "opening_hours": "Mo-Tu 12:00-20:00; We 08:00-16:00; Th 08:00-18:00; Fr 08:00-15:00", "operator": "F. Brouwer;M. Lehmensiek"}}, {"type": "node", "id": 3845486787, "lat": 52.5011342, "lon": 13.3214257, "tags": {"amenity": "dentist", "healthcare": "dentist", "name": "Smile & Smile"}}, {"type": "node", "id": 3859397155, "lat": 52.4987957, "lon": 13.3544844, "tags": {"addr:city": "Berlin", "addr:country": "DE", "addr:housenumber": "8-9", "addr:postcode": "10777", "addr:street": "Nollendorfplatz", "addr:suburb": "Sch\u00f6neberg", "amenity": "dentist", "fax": "+49 30 3225078", "healthcare": "dentist", "name": "Lipp Lutz \u2013 Zahn\u00e4rzte", "opening_hours": "Mo-Th 08:00-20:00; Fr 08:00-12:00", "operator": "Dr. Markus Lipp und ZA Peter Lutz", "phone": "+49 30 3212069", "website": "https://www.lipp-lutz.de/", "wheelchair": "yes"}}, {"type": "node", "id": 3874446057, "lat": 52.4984137, "lon": 13.3604227, "tags": {"addr:city": "Berlin", "addr:country": "DE", "addr:housenumber": "90", "addr:postcode": "10783", "addr:street": "B\u00fclowstra\u00dfe", "addr:suburb": "Sch\u00f6neberg", "amenity": "dentist", "healthcare": "dentist", "name": "B\u00fclow 90 Die Zahn\u00e4rzte", "opening_hours": "Mo-Th 08:00-15:00; Fr 08:00-12:00", "phone": "+49 30 2644040", "toilets:wheelchair": "no", "website": "https://www.buelow90.de/", "wheelchair": "no"}}, {"type": "node", "id": 3878798868, "lat": 52.4599921, "lon": 13.5800028, "tags": {"amenity": "dentist", "health_facility:type": "office", "health_specialty:dentistry": "yes", "healthcare": "dentist", "level": "2", "medical_system:western": "yes", "office": "physician", "toilets:wheelchair": "no", "wheelchair": "yes"}}, {"type": "node", "id": 3879948717, "lat": 52.504498, "lon": 13.4680341, "tags": {"addr:city": "Berlin", "addr:country": "DE", "addr:housenumber": "1", "addr:postcode": "10245", "addr:street": "Sonntagstra\u00dfe", "addr:suburb": "Friedrichshain", "amenity": "dentist", "contact:phone": "+49 30 2910667", "contact:website": "https://zahnaerzte-am-ostkreuz.de/", "healthcare": "dentist", "level": "1", "name": "Dr. Paul-Olaf Beeking und Paul Schewtschenko", "opening_hours": "Mo,We 08:00-13:00; Th,Tu 13:00-18:30; Fr 08:00-12:00", "source": "eigener Besuch und http://www.berlin.de/special/gesundheit-und-beauty/adressen/zahnarzt/dr-uta-schramm-und-dr-paul-olaf-beeking-4f14442cb4fc475f0b25c300.html", "wheelchair": "yes"}}, {"type": "node", "id": 3900932280, "lat": 52.5386049, "lon": 13.4178703, "tags": {"amenity": "dentist", "check_date": "2023-04-13", "contact:phone": "+49 30 4423857", "healthcare": "dentist", "name": "Dipl.-Stomat. Sylvia Hinzmann", "opening_hours": "Mo 10:00-19:00; Tu 08:00-19:00; We 08:00-12:00; Th-Fr 08:00-15:00", "wheelchair": "no"}}, {"type": "node", "id": 3900935677, "lat": 52.5380042, "lon": 13.4173133, "tags": {"addr:city": "Berlin", "addr:housenumber": "13", "addr:postcode": "10435", "addr:street": "Husemannstra\u00dfe", "amenity": "dentist", "check_date": "2024-01-28", "healthcare": "dentist", "name": "J.U. Schneider / Dr. A. Schwarz", "opening_hours": "Mo 09:00-19:00; Tu,Th 09:00-20:00; We 09:00-17:00; Fr 09:00-15:00; Sa-Su off", "phone": "+49 30 442 41 78", "wheelchair": "no"}}, {"type": "node", "id": 3906863522, "lat": 52.5137606, "lon": 13.4527505, "tags": {"addr:city": "Berlin", "addr:country": "DE", "addr:housenumber": "9", "addr:postcode": "10243", "addr:street": "Warschauer Stra\u00dfe", "amenity": "dentist", "check_date:opening_hours": "2025-04-24", "healthcare": "dentist", "name": "Zahn\u00e4rzte in Friedrichshain", "opening_hours": "Mo-Th 08:00-20:00; Sa 09:00-15:00; Fr 08:00-15:00", "wheelchair": "no"}}, {"type": "node", "id": 3906983461, "lat": 52.5226048, "lon": 13.1618565, "tags": {"addr:city": "Berlin", "addr:country": "DE", "addr:housenumber": "21", "addr:postcode": "13593", "addr:street": "Magistratsweg", "addr:suburb": "Staaken", "amenity": "dentist", "healthcare": "dentist", "name": "Dr. Reinhard Fleckenstein", "phone": "+49 30 3631058", "toilets:wheelchair": "no", "wheelchair": "no"}}, {"type": "node", "id": 3907040636, "lat": 52.5115439, "lon": 13.4489793, "tags": {"addr:city": "Berlin", "addr:country": "DE", "addr:housenumber": "43", "addr:postcode": "10243", "addr:street": "Gubener Stra\u00dfe", "addr:suburb": "Friedrichshain", "amenity": "dentist", "check_date": "2025-06-30", "contact:phone": "+49 30 2962210", "contact:website": "http://zahnheilkunst.biz/cms/index.php?id=725883", "healthcare": "dentist", "name": "Zahnarztpraxis J\u00f6rg Harder", "opening_hours": "Mo 10:00-18:00; Tu 08:00-14:00; We 14:00-19:00; Th 09:00-17:00; Fr \"n. Vereinbarung\";Sa,Su,PH off"}}, {"type": "node", "id": 3908265303, "lat": 52.4598747, "lon": 13.5203682, "tags": {"addr:city": "Berlin", "addr:country": "DE", "addr:housenumber": "5", "addr:postcode": "12459", "addr:street": "Lauffener Stra\u00dfe", "addr:suburb": "Obersch\u00f6neweide", "amenity": "dentist", "healthcare": "dentist", "name": "Dr. -medic stom Marion Grein", "opening_hours": "We,Th 10:00-13:00"}}, {"type": "node", "id": 3946741289, "lat": 52.5226002, "lon": 13.3311365, "tags": {"amenity": "dentist", "check_date": "2025-01-12", "healthcare": "dentist", "name": "Awerkow", "opening_hours": "Mo, Tu, Th, Fr 09:00-13:00; Mo, Tu, Th 14:00-19:00", "operator": "Wadim Awerkow", "phone": "+49 30 3916725", "website": "https://www.zahnarzt-awerkow.de"}}, {"type": "node", "id": 3952294121, "lat": 52.492872, "lon": 13.2847197, "tags": {"addr:city": "Berlin", "addr:housenumber": "11a", "addr:postcode": "14193", "addr:street": "Hubertusallee", "amenity": "dentist", "healthcare": "dentist", "name": "Zahnarzt Praxis Rohloff", "operator": "Dirk Rohloff"}}, {"type": "node", "id": 4003795509, "lat": 52.3736018, "lon": 13.6195258, "tags": {"addr:city": "Eichwalde", "addr:housenumber": "11", "addr:postcode": "15732", "addr:street": "Bahnhofstra\u00dfe", "amenity": "dentist", "check_date:opening_hours": "2025-02-03", "email": "service@zahnaerztinnen-eichwalde.de", "fax": "+49 30 67803401", "healthcare": "dentist", "name": "Gemeinschaftspraxis Kerstin Olesch-Graupner M. Sc. & Nannette Richter-Winkler", "opening_hours": "Fr 08:00-12:00; PH off; Mo,We 08:00-18:00; Tu 08:00-13:00; Th 13:00-17:00", "phone": "+49 30 62640313", "toilets:wheelchair": "yes", "website": "https://www.zahnaerztinnen-eichwalde.de/", "wheelchair": "yes"}}, {"type": "node", "id": 4005843689, "lat": 52.4033339, "lon": 13.1089904, "tags": {"addr:city": "Potsdam", "addr:country": "DE", "addr:housenumber": "41", "addr:postcode": "14482", "addr:street": "Karl-Marx-Stra\u00dfe", "addr:suburb": "Babelsberg Nord", "amenity": "dentist", "contact:phone": "+49 331 748 1838", "healthcare": "dentist", "name": "Zahnarztpraxis Dr. Kaden", "opening_hours": "Mo,Tu 08:00-14:00; We,Th 12:00-19:00; Fr 08:00-12:00; PH,Sa,Su off", "operator": "Dr. med. dent. Ulrike Kaden", "operator:type": "private", "wheelchair": "no"}}, {"type": "node", "id": 4006392911, "lat": 52.4892162, "lon": 13.4523862, "tags": {"addr:city": "Berlin", "addr:country": "DE", "addr:housenumber": "2", "addr:postcode": "12435", "addr:street": "Plesser Stra\u00dfe", "amenity": "dentist", "check_date": "2025-10-19", "check_date:opening_hours": "2025-10-19", "contact:fax": "+49 30 13896377", "contact:phone": "+49 30 5348560", "contact:website": "https://www.zahnarzt-treptow-berlin.de/", "healthcare": "dentist", "name": "Zahnarztpraxis Christian Franke", "opening_hours": "Mo 09:00-13:00,13:30-18:00; Tu 08:00-12:30,13:00-16:00; We 08:00-13:00; Th 11:00-15:00,15:30-19:00; Fr 08:00-13:00", "wheelchair": "limited"}}, {"type": "node", "id": 4010750482, "lat": 52.3726362, "lon": 13.6172074, "tags": {"addr:city": "Eichwalde", "addr:housenumber": "4", "addr:postcode": "15732", "addr:street": "Bahnhofstra\u00dfe", "amenity": "dentist", "healthcare": "dentist", "healthcare:speciality": "orthodontics", "name": "Kieferorthop\u00e4de Forbes", "opening_hours": "Mo,Tu,Th 08:00-11:00,13:00-19:00; Fr 08:00-15:00", "phone": "+49 30 67818077"}}, {"type": "node", "id": 4010750485, "lat": 52.3733196, "lon": 13.6188739, "tags": {"addr:city": "Eichwalde", "addr:country": "DE", "addr:housenumber": "8", "addr:postcode": "15732", "addr:street": "Bahnhofstra\u00dfe", "amenity": "dentist", "contact:email": "praxis@zahnarzt-eichwalde.com", "contact:fax": "+49 30 67819158", "contact:phone": "+49 30 6756110", "contact:website": "http://www.zahnarzt-eichwalde.com", "healthcare": "dentist", "name": "Zahnarztpraxis Burkhart Garske und Kathrin Ihwe", "opening_hours": "Mo-Th 07:00-19:00; PH off"}}, {"type": "node", "id": 4012876222, "lat": 52.5573548, "lon": 13.3403297, "tags": {"addr:city": "Berlin", "addr:housenumber": "70c", "addr:postcode": "13349", "addr:street": "M\u00fcllerstra\u00dfe", "amenity": "dentist", "check_date": "2025-07-20", "fax": "+49 30 45198510", "healthcare": "dentist", "name": "Zahnarztpraxis Dres. H\u00e4\u00dfelbarth", "opening_hours": "Mo-Th 9:00-19:00; Fr 9:00-13:00", "operator": "Dr. Volker H\u00e4\u00dfelbarth, Dr.Steffen H\u00e4\u00dfelbarth", "phone": "+49 30 4514051", "toilets:wheelchair": "no", "website": "https://www.dr-haesselbarth.de/", "wheelchair": "yes"}}, {"type": "node", "id": 4027630412, "lat": 52.5035263, "lon": 13.3392906, "tags": {"amenity": "dentist", "healthcare": "dentist", "name": "Medentes - Zahnarztpraxis", "phone": "+49 30 881 72 71", "website": "https://www.medentes.de/"}}, {"type": "node", "id": 4061391775, "lat": 52.5062227, "lon": 13.3072747, "tags": {"addr:city": "Berlin", "addr:country": "DE", "addr:housenumber": "108-111", "addr:postcode": "10627", "addr:street": "Wilmersdorfer Stra\u00dfe", "addr:suburb": "Charlottenburg", "amenity": "dentist", "contact:phone": "+49 30 31991990", "healthcare": "dentist", "level": "5", "name": "Zahn\u00e4rzte im KantCenter", "opening_hours": "Mo-Fr 07:00-21:00; Sa 09:00-16:00 || \"nach Vereinbarung\"", "website": "https://www.kantcenter.com/"}}, {"type": "node", "id": 4081733586, "lat": 52.4363771, "lon": 13.5443815, "tags": {"addr:city": "Berlin", "addr:country": "DE", "addr:housenumber": "11", "addr:postcode": "12489", "addr:street": "D\u00f6rpfeldstra\u00dfe", "addr:suburb": "Adlershof", "amenity": "dentist", "healthcare": "dentist", "healthcare:speciality": "orthodontics", "name": "Praxis fuer Kieferorthopaedie", "opening_hours": "Mo,Tu 08:00-12:00,14:00-18:00, We,Th 08:00-12:00,15:00-19:00 || \"nach Vereinbarung\"; PH off", "operator": "Yanal Alla-Rachi", "phone": "+49 30 6713793"}}, {"type": "node", "id": 4085469146, "lat": 52.4362431, "lon": 13.5443663, "tags": {"addr:city": "Berlin", "addr:country": "DE", "addr:housenumber": "3", "addr:postcode": "12489", "addr:street": "Gellertstra\u00dfe", "addr:suburb": "Adlershof", "amenity": "dentist", "fax": "+49 30 678 247 63", "healthcare": "dentist", "healthcare:speciality": "paediatrics", "name": "Zahnarztpraxis Matthias Sch\u00fctze", "opening_hours": "Mo-Th 08:00-18:00", "phone": "+49 30 678 247 62", "website": "https://adlershof-zahnarzt.de/"}}, {"type": "node", "id": 4113764194, "lat": 52.4617267, "lon": 13.5178617, "tags": {"addr:city": "Berlin", "addr:country": "DE", "addr:housenumber": "30", "addr:postcode": "12459", "addr:street": "Wilhelminenhofstra\u00dfe", "addr:suburb": "Obersch\u00f6neweide", "amenity": "dentist", "check_date:opening_hours": "2025-11-20", "description": "Dipl.-Stomatologin", "healthcare": "dentist", "name": "Kathrin Schimmack", "opening_hours": "Mo-Tu 12:00-19:00; We-Th 08:30-13:00; Fr 12:00-18:00", "opening_hours:signed": "no", "phone": "+49 30 535 15 34", "website": "https://www.zahnarztpraxis-schimmack.de", "wheelchair": "no"}}, {"type": "node", "id": 4124277988, "lat": 52.4380006, "lon": 13.5434723, "tags": {"addr:city": "Berlin", "addr:country": "DE", "addr:housenumber": "98", "addr:postcode": "12489", "addr:street": "Florian-Geyer-Stra\u00dfe", "addr:suburb": "Adlershof", "amenity": "dentist", "check_date": "2025-07-26", "check_date:opening_hours": "2020-10-21", "healthcare": "dentist", "level": "0", "name": "Dr.med.dent. Birgit K\u00fchne", "opening_hours": "Mo 09:00-13:00,14:00-18:00; Tu 08:00-14:00; We \"Nach Vereinbarung\"; Th 12:00-18:00; Fr 08:00-13:00; PH off", "phone": "+49 30 677 29 78", "website": "https://gzm-heilraum-96.de/", "wheelchair": "no"}}, {"type": "node", "id": 4126890657, "lat": 52.6315306, "lon": 13.2888796, "tags": {"addr:housenumber": "6", "addr:street": "Welfenallee", "amenity": "dentist", "check_date:opening_hours": "2024-08-10", "email": "info@dr-thuma.de", "healthcare": "dentist", "level": "1", "name": "Zahnarzt Dr. Matthias Thuma & Kollegen", "opening_hours": "Mo-Fr 08:00-20:00", "phone": "+49 30 4017776", "website": "https://dr-thuma.de/", "wheelchair": "yes"}}, {"type": "node", "id": 4143174674, "lat": 52.5706899, "lon": 13.3301115, "tags": {"amenity": "dentist", "fax": "+4930 413 9888", "healthcare": "dentist", "name": "Barbara Kistner, Anne Speda, Dr. Ali Mokabberi", "opening_hours": "Mo-Fr 08:00-20:00; Sa 09:00-15:00", "phone": "+4930 413 5022", "website": "https://meindentist.de/reinickendorf/"}}, {"type": "node", "id": 4145388521, "lat": 52.5862915, "lon": 13.2821391, "tags": {"amenity": "dentist", "healthcare": "dentist", "healthcare:speciality": "orthodontics", "name": "Kerstin Winkelmann Kieferorthop\u00e4de", "opening_hours": "Mo-Th 09:00-12:00,14:00-17:00", "phone": "+4930 4964060"}}, {"type": "node", "id": 4149387592, "lat": 52.5430606, "lon": 13.4417455, "tags": {"addr:city": "Berlin", "addr:country": "DE", "addr:housenumber": "89", "addr:postcode": "10409", "addr:street": "Greifswalder Stra\u00dfe", "addr:suburb": "Prenzlauer Berg", "amenity": "dentist", "healthcare": "dentist", "name": "Dr. Katrin Nestler", "opening_hours": "Mo 08:00-12:00,14:00-18:00; Tu 09:00-14:00; We 08:00-12:00,14:00-18:00; Th 09:00-14:00", "phone": "+49 30 4479525", "website": "https://zahnarzt-dr-nestler.de/", "wheelchair": "yes"}}, {"type": "node", "id": 4152750390, "lat": 52.5315064, "lon": 13.4375824, "tags": {"addr:housenumber": "44", "addr:street": "Pasteurstra\u00dfe", "amenity": "dentist", "healthcare": "dentist", "name": "Petra Gr\u00e4f", "opening_hours": "Mo-Tu 12:00-19:00; We-Th 08:00-15:00", "phone": "+49 30 4235027", "wheelchair": "no"}}, {"type": "node", "id": 4152750789, "lat": 52.5314893, "lon": 13.4375939, "tags": {"addr:housenumber": "44", "addr:street": "Pasteurstra\u00dfe", "amenity": "dentist", "check_date:opening_hours": "2022-06-26", "healthcare": "dentist", "name": "Kathrin Urner", "opening_hours": "Mo-Tu 08:00-14:00; We-Th 12:00-17:00", "phone": "+49 30 4250099", "wheelchair": "no"}}, {"type": "node", "id": 4155022021, "lat": 52.6312925, "lon": 13.3230155, "tags": {"amenity": "dentist", "email": "info@zahnarztpraxis-sonnengarten.de", "fax": "+49 33056 436878", "healthcare": "dentist", "name": "Claessen", "opening_hours": "Mo-Th 08:00-19:00; Fr 08:00-15:00", "phone": "+49 33056 436876", "website": "http://www.zahnarztpraxis-sonnengarten.de", "wheelchair": "yes"}}, {"type": "node", "id": 4223494993, "lat": 52.5129462, "lon": 13.4488015, "tags": {"addr:housenumber": "8", "addr:postcode": "10243", "addr:street": "Gr\u00fcnberger Stra\u00dfe", "amenity": "dentist", "check_date:opening_hours": "2025-07-25", "healthcare": "dentist", "name": "Maria Palion & a. ZA Tarek Tantush", "opening_hours": "Th 15:00-18:00,09:00-13:00; Tu 13:00-19:00; Mo 15:00-18:00,09:00-13:00; We 09:00-13:00; Fr 09:00-13:00", "phone": "+49 30 296 27 68", "wheelchair": "no"}}, {"type": "node", "id": 4241074540, "lat": 52.5132861, "lon": 13.4992636, "tags": {"addr:city": "Berlin", "addr:housenumber": "52", "addr:postcode": "10365", "addr:street": "Hagenstra\u00dfe", "amenity": "dentist", "healthcare": "dentist", "name": "Dr. Christian Scherret", "opening_hours": "Mo 12:30-19:00; Tu 08:00-18:00; We 08:00-13:00; Th 12:30-19:00; Fr 08:00-13:00", "wheelchair": "no"}}, {"type": "node", "id": 4250466736, "lat": 52.5397986, "lon": 13.4126289, "tags": {"addr:city": "Berlin", "addr:housenumber": "41", "addr:postcode": "10435", "addr:street": "Sch\u00f6nhauser Allee", "amenity": "dentist", "healthcare": "dentist", "name": "Holger Kretzschmar", "phone": "+49 30 4424238", "toilets:wheelchair": "yes", "website": "http://www.zpraxis-kb.de", "wheelchair": "yes"}}, {"type": "node", "id": 4363684342, "lat": 52.471735, "lon": 13.3262477, "tags": {"addr:city": "Berlin", "addr:country": "DE", "addr:housenumber": "3", "addr:postcode": "12161", "addr:street": "Wiesbadener Stra\u00dfe", "addr:suburb": "Friedenau", "amenity": "dentist", "contact:phone": "+49 30 8593226", "healthcare": "dentist", "name": "Thomas Kersten", "opening_hours": "Mo 09:00-15:00; Tu 12:00-19:00; We 09:00-19:00; Th 09:00-12:00,14:00-16:00; Fr 09:00-14:00", "website": "http://www.zahnarzt-kersten.de/"}}, {"type": "node", "id": 4365158338, "lat": 52.6640615, "lon": 13.3775907}, {"type": "node", "id": 4365158339, "lat": 52.6639971, "lon": 13.3777439}, {"type": "node", "id": 4365158340, "lat": 52.6638869, "lon": 13.3776174}, {"type": "node", "id": 4365158341, "lat": 52.6638949, "lon": 13.377598}, {"type": "node", "id": 4365158342, "lat": 52.6638913, "lon": 13.377568}, {"type": "node", "id": 4365158343, "lat": 52.6638779, "lon": 13.3775589}, {"type": "node", "id": 4365158345, "lat": 52.6639463, "lon": 13.3772774}, {"type": "node", "id": 4365158346, "lat": 52.6640504, "lon": 13.3773469}, {"type": "node", "id": 4365158347, "lat": 52.6640141, "lon": 13.3774979}, {"type": "node", "id": 4365158348, "lat": 52.6640215, "lon": 13.3775451},