{"version": 0.6, "generator": "Overpass API 0.7.62.8 e802775f", "osm3s": {"timestamp_osm_base": "2026-01-21T12:48:30Z", "copyright": "The data included in this document is from www.openstreetmap.org. The data is made available under ODbL."}, "elements": [{"type": "node", "id": 29997721, "lat": 52.5014954, "lon": 13.2766696, "tags": {"name": "Rasthof AVUS", "tourism": "motel"}}, {"type": "node", "id": 30306878, "lat": 52.5225561, "lon": 13.3470106}, {"type": "node", "id": 34227307, "lat": 52.3695235, "lon": 13.6500571}, {"type": "node", "id": 34227310, "lat": 52.3686188, "lon": 13.6497384}, {"type": "node", "id": 55339124, "lat": 52.5066969, "lon": 13.2800271}, {"type": "node", "id": 55339133, "lat": 52.506709, "lon": 13.2802584}, {"type": "node", "id": 58467591, "lat": 52.5114646, "lon": 13.4078027, "tags": {"addr:city": "Berlin", "addr:country": "DE", "addr:housenumber": "23", "addr:postcode": "10179", "addr:street": "Wallstra\u00dfe", "addr:suburb": "Mitte", "brand": "Park Plaza", "brand:wikidata": "Q2052550", "brand:wikipedia": "en:Park Plaza Hotels & Resorts", "name": "Park Plaza Wallstreet", "stars": "4", "tourism": "hotel", "wheelchair": "no", "wikidata": "Q111388246"}}, {"type": "node", "id": 60105926, "lat": 52.5122494, "lon": 13.4087883, "tags": {"addr:city": "Berlin", "addr:country": "DE", "addr:housenumber": "11-12", "addr:postcode": "10179", "addr:street": "Neue Ro\u00dfstra\u00dfe", "addr:suburb": "Mitte", "contact:email": "grosserkurfuerst@living-hotels.com", "contact:phone": "+49 30 246000", "contact:website": "https://www.living-hotels.com/hotel-grosser-kurfuerst-berlin/", "name": "Living Hotel Gro\u00dfer Kurf\u00fcrst", "operator": "Derag", "stars": "4", "toilets:wheelchair": "yes", "tourism": "hotel", "wheelchair": "limited", "wikidata": "Q111390188"}}, {"type": "node", "id": 60105927, "lat": 52.5125444, "lon": 13.4103351, "tags": {"addr:city": "Berlin", "addr:country": "DE", "addr:housenumber": "70-73", "addr:postcode": "10179", "addr:street": "Wallstra\u00dfe", "addr:suburb": "Mitte", "brand": "Art'otel", "brand:wikidata": "Q14516231", "contact:website": "http://www.artotels.com/berlin-hotel-de-d-10179/germiart", "name": "art\u2019otel Berlin Mitte", "toilets:wheelchair": "yes", "tourism": "hotel", "wheelchair": "yes", "wikidata": "Q111390189"}}, {"type": "node", "id": 60105928, "lat": 52.5120824, "lon": 13.4082495, "tags": {"addr:city": "Berlin", "addr:country": "DE", "addr:housenumber": "13", "addr:postcode": "10179", "addr:street": "Neue Ro\u00dfstra\u00dfe", "addr:suburb": "Mitte", "check_date": "2025-04-01", "contact:email": "berlinmitte@living-hotels.com", "contact:phone": "+49 30 24600900", "contact:website": "https://www.living-hotels.com/hotel-berlin-mitte", "name": "Living Hotel Berlin-Mitte", "old_name": "Livinghotel Henriette", "operator": "Derag", "stars": "4", "toilets:wheelchair": "yes", "tourism": "hotel", "wheelchair": "limited", "wikidata": "Q111388522"}}, {"type": "node", "id": 60237649, "lat": 52.503442, "lon": 13.4455691}, {"type": "node", "id": 60240143, "lat": 52.5195175, "lon": 13.4028297, "tags": {"addr:city": "Berlin", "addr:country": "DE", "addr:housenumber": "3", "addr:postcode": "10178", "addr:street": "Karl-Liebknecht-Stra\u00dfe", "addr:suburb": "Mitte", "brand": "Radisson Collection", "brand:wikidata": "Q60716706", "brand:wikipedia": "de:Radisson Collection", "check_date": "2025-11-07", "name": "Radisson Collection Hotel Berlin", "toilets:wheelchair": "yes", "tourism": "hotel", "website": "https://www.radissonhotels.com/en-us/hotels/radisson-collection-berlin", "wheelchair": "yes", "wikidata": "Q111388148", "wikimedia_commons": "Category:Radisson BLU Hotel Berlin"}}, {"type": "node", "id": 60240155, "lat": 52.5131672, "lon": 13.4051935, "tags": {"addr:city": "Berlin", "addr:country": "DE", "addr:housenumber": "12", "addr:postcode": "10179", "addr:street": "Fischerinsel", "addr:suburb": "Mitte", "air_conditioning": "yes", "brand": "Novotel", "brand:wikidata": "Q420545", "brand:wikipedia": "en:Novotel", "check_date": "2025-04-01", "contact:phone": "+4930206740", "contact:website": "http://www.novotel.com/de/hotel-3278-novotel-berlin-mitte/index.shtml", "name": "Novotel Berlin Mitte", "toilets:wheelchair": "yes", "tourism": "hotel", "wheelchair": "yes", "wikidata": "Q111387924"}}, {"type": "node", "id": 66917101, "lat": 52.5226997, "lon": 13.3882776, "tags": {"addr:city": "Berlin", "addr:country": "DE", "addr:housenumber": "105-106", "addr:postcode": "10117", "addr:street": "Friedrichstra\u00dfe", "addr:suburb": "Mitte", "check_date": "2025-08-26", "contact:phone": "+4930284900", "internet_access": "wlan", "name": "Hotel Neuer Fritz Berlin", "rooms": "45", "stars": "3", "toilets:wheelchair": "yes", "tourism": "hotel", "website": "https://neuerfritz.com/", "wheelchair": "yes"}}, {"type": "node", "id": 66917107, "lat": 52.5213429, "lon": 13.388468, "tags": {"addr:city": "Berlin", "addr:country": "DE", "addr:housenumber": "103", "addr:postcode": "10117", "addr:street": "Friedrichstra\u00dfe", "addr:suburb": "Mitte", "brand": "Meli\u00e1", "brand:wikidata": "Q1815030", "contact:phone": "+49 30 20607900", "email": "melia.berlin@melia.com", "fax": "+49 30 2060790444", "name": "Meli\u00e1 Berlin", "operator": "Sol Meli\u00e1", "stars": "4", "tourism": "hotel", "website": "https://www.melia.com/de/hotels/deutschland/berlin/melia-berlin", "wheelchair": "yes", "wikidata": "Q111388182", "wikimedia_commons": "File:20241030 xl 0722-Meli\u00e1 Berlin.jpg"}}, {"type": "node", "id": 66917193, "lat": 52.5195761, "lon": 13.3888965, "tags": {"addr:city": "Berlin", "addr:country": "DE", "addr:housenumber": "96", "addr:postcode": "10117", "addr:street": "Friedrichstra\u00dfe", "addr:suburb": "Mitte", "check_date": "2024-03-13", "contact:website": "https://www.nh-collection.com/hotel/nh-collection-berlin-mitte-friedrichstrasse", "name": "NH Collection", "stars": "4S", "toilets:wheelchair": "yes", "tourism": "hotel", "wheelchair": "yes", "wikidata": "Q111388197", "wikimedia_commons": "File:NH Collection Berlin Mitte Friedrichstrasse.jpg"}}, {"type": "node", "id": 66917205, "lat": 52.5182281, "lon": 13.3874995, "tags": {"addr:city": "Berlin", "addr:country": "DE", "addr:housenumber": "151", "addr:postcode": "10117", "addr:street": "Friedrichstra\u00dfe", "addr:suburb": "Mitte", "air_conditioning": "yes", "brand": "Maritim", "contact:email": "info.bpa@maritim.de", "contact:phone": "+49 30 20335", "contact:website": "https://www.maritim.de/de/hotels/deutschland/proarte-hotel-berlin", "image": "https://medicaleventsguide.com/wp-content/uploads/2017/10/Maritim-proArte-Hotel-Berlin.jpg", "internet_access": "wlan", "name": "Maritim proArte Hotel Berlin", "rooms": "403", "tourism": "hotel", "wheelchair": "no", "wikidata": "Q111388077"}}, {"type": "node", "id": 68363380, "lat": 52.4874625, "lon": 13.425758, "tags": {"addr:city": "Berlin", "addr:country": "DE", "addr:housenumber": "6", "addr:postcode": "12047", "addr:street": "Sonnenallee", "addr:suburb": "Neuk\u00f6lln", "check_date": "2025-06-16", "contact:email": "urban@grandhostel-berlin.de", "contact:phone": "+49 30 613820", "contact:website": "https://grandhostel-berlin.de/urban/", "name": "Grand Hostel Berlin Urban", "stars": "3", "toilets:wheelchair": "yes", "tourism": "hostel", "wheelchair": "yes", "wikidata": "Q111118495"}}, {"type": "node", "id": 69226077, "lat": 52.5105304, "lon": 13.3889847, "tags": {"addr:housenumber": "106-111", "addr:street": "Leipziger Stra\u00dfe", "check_date": "2025-03-31", "contact:email": "nhcollectionberlinmitte@nh-hotels.com", "contact:phone": "+49 30 203760", "contact:website": "https://www.nh-hotels.de/", "name": "NH Collection Berlin Mitte am Checkpoint Charlie", "toilets:wheelchair": "yes", "tourism": "hotel", "wheelchair": "yes", "wikidata": "Q111388241"}}, {"type": "node", "id": 69226092, "lat": 52.5081971, "lon": 13.3724841, "tags": {"addr:city": "Berlin", "addr:country": "DE", "addr:housenumber": "2", "addr:postcode": "10785", "addr:street": "Marlene-Dietrich-Platz", "addr:suburb": "Tiergarten", "air_conditioning": "yes", "bar": "yes", "brand": "Grand Hyatt", "brand:wikidata": "Q115794899", "brand:wikipedia": "en:Hyatt", "contact:facebook": "grandhyattberlinx", "contact:phone": "+49 3025531234", "contact:website": "https://www.hyatt.com/grand-hyatt/en-US/bergh-grand-hyatt-berlin", "internet_access": "yes", "internet_access:fee": "no", "name": "Grand Hyatt Berlin", "opening_hours": "24/7", "operator": "Hyatt", "payment:cash": "yes", "payment:credit_cards": "yes", "payment:maestro": "yes", "payment:mastercard": "yes", "payment:visa": "yes", "reservation": "yes", "rooms": "342", "smoking": "no", "stars": "5", "tourism": "hotel", "wheelchair": "yes", "wikidata": "Q111388147", "wikipedia": "de:Grand Hyatt Berlin"}}, {"type": "node", "id": 77750297, "lat": 52.5693849, "lon": 13.3296063, "tags": {"addr:city": "Berlin", "addr:country": "DE", "addr:housenumber": "111", "addr:postcode": "13403", "addr:street": "Ollenhauerstra\u00dfe", "email": "info@hotel-larat.de", "fax": "+4930 4174983 444", "internet_access": "wlan", "internet_access:fee": "yes", "name": "Hotel Larat", "phone": "+4930 4174983 0", "tourism": "hotel", "website": "http://www.hotel-larat.de", "wheelchair": "no"}}, {"type": "node", "id": 79836147, "lat": 52.4890701, "lon": 13.3165059, "tags": {"addr:city": "Berlin", "addr:country": "DE", "addr:housenumber": "11", "addr:postcode": "10713", "addr:street": "Brandenburgische Stra\u00dfe", "addr:suburb": "Wilmersdorf", "branch": "Berlin City-West", "brand": "B&B Hotels", "brand:wikidata": "Q794939", "contact:website": "https://www.hotel-bb.com/de/hotel/berlin-city-west", "name": "B&B Hotel", "rooms": "100", "smoking": "no", "toilets:wheelchair": "yes", "tourism": "hotel", "wheelchair": "yes"}}, {"type": "node", "id": 84644762, "lat": 52.5046911, "lon": 13.391078, "tags": {"addr:city": "Berlin", "addr:country": "DE", "addr:housenumber": "31", "addr:postcode": "10969", "addr:street": "Friedrichstra\u00dfe", "addr:suburb": "Kreuzberg", "check_date": "2025-12-11", "contact:phone": "+49 1573 5992293", "contact:website": "https://numastays.com/locations/germany/berlin/kreuzberg/arc", "internet_access": "wlan", "internet_access:fee": "no", "name": "Numa Berlin Arc", "payment:cash": "yes", "payment:credit_cards": "yes", "payment:debit_cards": "yes", "tourism": "hotel", "wheelchair": "limited"}}, {"type": "node", "id": 84644772, "lat": 52.5048415, "lon": 13.3845953, "tags": {"addr:city": "Berlin", "addr:country": "DE", "addr:housenumber": "6", "addr:postcode": "10963", "addr:street": "Anhalter Stra\u00dfe", "addr:suburb": "Kreuzberg", "air_conditioning": "yes", "brand": "Ibis Budget", "brand:wikidata": "Q1458135", "brand:wikipedia": "en:Ibis Budget", "check_date": "2024-10-18", "internet_access": "wlan", "name": "Ibis Budget", "old_name": "Etap Hotel", "operator": "Ibis Budget", "toilets:wheelchair": "yes", "tourism": "hotel", "website": "https://www.accorhotels.com/de/hotel-5058-etap-hotel-berlin-potsdamer-platz/index.shtml", "wheelchair": "yes"}}, {"type": "node", "id": 84644779, "lat": 52.5045858, "lon": 13.3833431, "tags": {"addr:city": "Berlin", "addr:country": "DE", "addr:housenumber": "2", "addr:postcode": "10963", "addr:street": "Anhalter Stra\u00dfe", "addr:suburb": "Kreuzberg", "brand": "Novotel", "brand:wikidata": "Q420545", "check_date": "2024-10-18", "internet_access": "wlan", "name": "Novotel Suites Berlin City Potsdamer Platz", "opening_hours": "24/7", "opening_hours:bar": "17:00-01:00", "opening_hours:breakfast": "Mo-Fr; 06:30-10:00; Sa, Su 07:00-11:00", "phone": "+49 30 200560", "smoking": "no", "toilets:wheelchair": "yes", "tourism": "hotel", "website": "https://www.accorhotels.com/de/hotel-3745-novotel-suites-berlin-city-potsdamer-platz/index.shtml", "wheelchair": "yes"}}, {"type": "node", "id": 86001788, "lat": 52.5158768, "lon": 13.3886042, "tags": {"addr:city": "Berlin", "addr:country": "DE", "addr:housenumber": "158-164", "addr:postcode": "10117", "addr:street": "Friedrichstra\u00dfe", "addr:suburb": "Mitte", "brand": "Westin", "brand:wikidata": "Q1969162", "brand:wikipedia": "en:Westin Hotels & Resorts", "contact:email": "info@westin-grand.com", "contact:phone": "+49 30 202 73420", "internet_access": "wlan", "internet_access:fee": "yes", "name": "The Westin Grand Berlin", "stars": "5", "toilets:wheelchair": "yes", "tourism": "hotel", "website": "https://www.westin-berlin.com/", "wheelchair": "limited", "wikidata": "Q1766982", "wikimedia_commons": "Category:Westin Grand Berlin", "wikipedia": "de:Westin Grand Berlin"}}, {"type": "node", "id": 86001831, "lat": 52.511542, "lon": 13.3914622, "tags": {"name": "Hotel Gendarm", "tourism": "hotel", "wheelchair": "yes"}}, {"type": "node", "id": 86001840, "lat": 52.5121031, "lon": 13.3925395, "tags": {"addr:city": "Berlin", "addr:country": "DE", "addr:housenumber": "30", "addr:postcode": "10117", "addr:street": "Anton-Wilhelm-Amo-Stra\u00dfe", "brand": "Hilton", "brand:wikidata": "Q598884", "brand:wikipedia": "en:Hilton Hotels & Resorts", "check_date": "2025-02-23", "contact:email": "info.berlin@hilton.com", "contact:facebook": "https://www.facebook.com/HiltonBerlin", "contact:instagram": "https://www.instagram.com/hiltonberlin/", "contact:linkedin": "https://www.linkedin.com/company/hilton-berlin/", "contact:youtube": "https://www.youtube.com/channel/UCgZr22Bhp4-IGMHH-bgHdjQ", "internet_access": "wlan", "name": "Hilton Berlin", "operator": "Hilton", "payment:american_express": "yes", "payment:cash": "yes", "payment:credit_cards": "yes", "payment:debit_cards": "yes", "payment:diners_club": "yes", "payment:maestro": "yes", "payment:mastercard": "yes", "phone": "+49 30 202 300", "rooms": "601", "smoking": "yes", "stars": "5", "tourism": "hotel", "website": "https://www.hilton.com/en/hotels/berhitw-hilton-berlin/", "wheelchair": "yes", "wikidata": "Q56867892"}}, {"type": "node", "id": 87288662, "lat": 52.3726636, "lon": 13.6971615}, {"type": "node", "id": 87288665, "lat": 52.3724422, "lon": 13.6970044}, {"type": "node", "id": 88453802, "lat": 52.4893418, "lon": 13.3954358}, {"type": "node", "id": 88453803, "lat": 52.4890894, "lon": 13.3953637}, {"type": "node", "id": 148099838, "lat": 52.5645531, "lon": 13.3275914, "tags": {"addr:city": "Berlin", "addr:housenumber": "17-20", "addr:postcode": "13405", "addr:street": "Scharnweberstra\u00dfe", "check_date": "2024-04-23", "fax": "+49 30 417074330", "layer": "1", "name": "B\u00e4rlin", "phone": "+49 30 4170740", "tourism": "hotel", "website": "http://www.hotel-baerlin.de", "wheelchair": "no"}}, {"type": "node", "id": 150407711, "lat": 52.5837097, "lon": 13.2871633}, {"type": "node", "id": 171759637, "lat": 52.5000528, "lon": 13.3470822}, {"type": "node", "id": 171759638, "lat": 52.5002935, "lon": 13.3466784}, {"type": "node", "id": 173333966, "lat": 52.5836958, "lon": 13.2868271}, {"type": "node", "id": 192445970, "lat": 52.5001284, "lon": 13.3464641}, {"type": "node", "id": 192445971, "lat": 52.5003094, "lon": 13.3465428}, {"type": "node", "id": 192453009, "lat": 52.5041953, "lon": 13.3512297}, {"type": "node", "id": 192453010, "lat": 52.503853, "lon": 13.3524521}, {"type": "node", "id": 192453011, "lat": 52.5038018, "lon": 13.3525458}, {"type": "node", "id": 192453012, "lat": 52.5037462, "lon": 13.3525814}, {"type": "node", "id": 192453013, "lat": 52.5031153, "lon": 13.3527437}, {"type": "node", "id": 192453014, "lat": 52.5034992, "lon": 13.3507011}, {"type": "node", "id": 192453557, "lat": 52.5037406, "lon": 13.3522768}, {"type": "node", "id": 192453559, "lat": 52.503397, "lon": 13.3520574}, {"type": "node", "id": 192453561, "lat": 52.5033252, "lon": 13.3524424}, {"type": "node", "id": 192453562, "lat": 52.503721, "lon": 13.3523421}, {"type": "node", "id": 192462884, "lat": 52.5022069, "lon": 13.3473157}, {"type": "node", "id": 192464638, "lat": 52.5021656, "lon": 13.3474833}, {"type": "node", "id": 192464644, "lat": 52.5025781, "lon": 13.3483828}, {"type": "node", "id": 192464647, "lat": 52.5026121, "lon": 13.3483268}, {"type": "node", "id": 192464663, "lat": 52.5026554, "lon": 13.3481516}, {"type": "node", "id": 194326781, "lat": 52.5002395, "lon": 13.3525023}, {"type": "node", "id": 194326782, "lat": 52.5001283, "lon": 13.3525154}, {"type": "node", "id": 195432488, "lat": 52.5037126, "lon": 13.3515212}, {"type": "node", "id": 195432490, "lat": 52.5039804, "lon": 13.3513702}, {"type": "node", "id": 195432492, "lat": 52.5036357, "lon": 13.351073}, {"type": "node", "id": 195432493, "lat": 52.5036487, "lon": 13.3510265}, {"type": "node", "id": 195432495, "lat": 52.503601, "lon": 13.3509916}, {"type": "node", "id": 195432498, "lat": 52.5037766, "lon": 13.3512003}, {"type": "node", "id": 196163484, "lat": 52.5079953, "lon": 13.3438587}, {"type": "node", "id": 196163491, "lat": 52.5074695, "lon": 13.3448995}, {"type": "node", "id": 196163535, "lat": 52.5070338, "lon": 13.3469894}, {"type": "node", "id": 196163538, "lat": 52.5073575, "lon": 13.3468423}, {"type": "node", "id": 196163544, "lat": 52.5073043, "lon": 13.3465774}, {"type": "node", "id": 196163548, "lat": 52.5073542, "lon": 13.3465462}, {"type": "node", "id": 196163552, "lat": 52.5074679, "lon": 13.3460448}, {"type": "node", "id": 196163557, "lat": 52.5065138, "lon": 13.3440878}, {"type": "node", "id": 213238487, "lat": 52.5159022, "lon": 13.3809127}, {"type": "node", "id": 213238490, "lat": 52.5150541, "lon": 13.3805057}, {"type": "node", "id": 245287545, "lat": 52.511729, "lon": 13.4136544, "tags": {"addr:city": "Berlin", "addr:country": "DE", "addr:housenumber": "92", "addr:postcode": "10179", "addr:street": "K\u00f6penicker Stra\u00dfe", "addr:suburb": "Mitte", "contact:phone": "+49 30 411988177", "contact:website": "https://www.thedudeberlin.com/", "name": "Bob W.", "tourism": "hotel", "wheelchair": "limited"}}, {"type": "node", "id": 249327045, "lat": 52.5030389, "lon": 13.3445024}, {"type": "node", "id": 252550951, "lat": 52.503255, "lon": 13.3860243, "tags": {"addr:city": "Berlin", "addr:country": "DE", "addr:housenumber": "66", "addr:postcode": "10963", "addr:street": "Stresemannstra\u00dfe", "addr:suburb": "Kreuzberg", "check_date": "2025-03-18", "drink:club-mate": "retail", "fax": "+49 30 32662956", "internet_access": "yes", "name": "Three Little Pigs", "operator": "Blessing & Schoenermark GbR", "phone": "+49 30 32662955", "source": "survey", "tourism": "hostel", "website": "https://www.three-little-pigs.de/", "wheelchair": "no", "wikimedia_commons": "File:Three Little Pigs Hostel - Your Berlin Castle.jpg"}}, {"type": "node", "id": 253776551, "lat": 52.4342237, "lon": 13.1908097, "tags": {"email": "grunewald-hotel@ssp-ce.de", "fax": "+49 30 80304100", "name": "Hotel und Rasthof Grunewald", "phone": "+49 30 803040", "stars": "3", "toilets:wheelchair": "yes", "tourism": "hotel", "website": "https://www.ssp-hotels.de/page/grunewald/", "wheelchair": "yes"}}, {"type": "node", "id": 254303221, "lat": 52.4657396, "lon": 13.5447874}, {"type": "node", "id": 254303232, "lat": 52.4660455, "lon": 13.5449257}, {"type": "node", "id": 254307091, "lat": 52.502505, "lon": 13.3317935, "tags": {"addr:city": "Berlin", "addr:country": "DE", "addr:housenumber": "41", "addr:postcode": "10789", "addr:street": "Augsburger Stra\u00dfe", "addr:suburb": "Charlottenburg", "brand": "Dorint", "brand:wikidata": "Q1700015", "brand:wikipedia": "en:Dorint", "name": "Dorint Kurf\u00fcrstendamm", "official_name": "Dorint Hotel Kurf\u00fcrstendamm Berlin", "phone": "+49 30 8009990", "short_name": "Dorint", "toilets:wheelchair": "yes", "tourism": "hotel", "website": "https://hotel-berlin.dorint.com", "wheelchair": "yes", "wikidata": "Q1630863", "wikipedia": "de:Dorint Kurf\u00fcrstendamm Berlin"}}, {"type": "node", "id": 255096539, "lat": 52.4325151, "lon": 13.1856603}, {"type": "node", "id": 255096540, "lat": 52.4327062, "lon": 13.185294}, {"type": "node", "id": 255096541, "lat": 52.4326642, "lon": 13.1851934}, {"type": "node", "id": 255096544, "lat": 52.4324813, "lon": 13.1850728}, {"type": "node", "id": 255096546, "lat": 52.4324626, "lon": 13.1853492}, {"type": "node", "id": 255336108, "lat": 52.4728674, "lon": 13.4585848, "tags": {"addr:city": "Berlin", "addr:country": "DE", "addr:housenumber": "225", "addr:postcode": "12057", "addr:street": "Sonnenallee", "addr:suburb": "Neuk\u00f6lln"}}, {"type": "node", "id": 255336111, "lat": 52.4744725, "lon": 13.4589791}, {"type": "node", "id": 256003636, "lat": 52.5440402, "lon": 13.4162407}, {"type": "node", "id": 256003637, "lat": 52.5440195, "lon": 13.4162933}, {"type": "node", "id": 256003681, "lat": 52.5441629, "lon": 13.4159315}, {"type": "node", "id": 256003682, "lat": 52.5441005, "lon": 13.416089}, {"type": "node", "id": 256003685, "lat": 52.5443414, "lon": 13.4161251}, {"type": "node", "id": 256003686, "lat": 52.5442807, "lon": 13.4162772}, {"type": "node", "id": 256003687, "lat": 52.5441262, "lon": 13.4161125}, {"type": "node", "id": 256003688, "lat": 52.5440557, "lon": 13.416357}, {"type": "node", "id": 256898546, "lat": 52.5233869, "lon": 13.4122521}, {"type": "node", "id": 256898547, "lat": 52.522694, "lon": 13.4138098}, {"type": "node", "id": 256898548, "lat": 52.5223026, "lon": 13.4133338}, {"type": "node", "id": 256898549, "lat": 52.5229832, "lon": 13.4117668}, {"type": "node", "id": 256898569, "lat": 52.5229526, "lon": 13.4118451}, {"type": "node", "id": 256898620, "lat": 52.5226749, "lon": 13.4124785}, {"type": "node", "id": 258327339, "lat": 52.5230068, "lon": 13.401024}, {"type": "node", "id": 258327340, "lat": 52.5231099, "lon": 13.4012577}, {"type": "node", "id": 258327370, "lat": 52.5232095, "lon": 13.4011086}, {"type": "node", "id": 258327643, "lat": 52.523016, "lon": 13.4006706}, {"type": "node", "id": 258327644, "lat": 52.5229254, "lon": 13.4007785}, {"type": "node", "id": 258328532, "lat": 52.5232311, "lon": 13.4003784}, {"type": "node", "id": 258328533, "lat": 52.5231781, "lon": 13.400295}, {"type": "node", "id": 258328570, "lat": 52.523001, "lon": 13.3998259}, {"type": "node", "id": 258497064, "lat": 52.5216131, "lon": 13.4037885}, {"type": "node", "id": 258497065, "lat": 52.5217276, "lon": 13.4041681}, {"type": "node", "id": 258497069, "lat": 52.5215115, "lon": 13.4042546}, {"type": "node", "id": 259170240, "lat": 52.5511444, "lon": 13.5458283}, {"type": "node", "id": 259170241, "lat": 52.5510326, "lon": 13.5461671}, {"type": "node", "id": 259170242, "lat": 52.5507877, "lon": 13.5462893}, {"type": "node", "id": 259170248, "lat": 52.5507369, "lon": 13.5467999}, {"type": "node", "id": 259170250, "lat": 52.5506547, "lon": 13.5463559}, {"type": "node", "id": 259170251, "lat": 52.5507262, "lon": 13.54614}, {"type": "node", "id": 259170252, "lat": 52.550627, "lon": 13.5455997}, {"type": "node", "id": 259170253, "lat": 52.5507291, "lon": 13.5455497}, {"type": "node", "id": 259170254, "lat": 52.5508285, "lon": 13.5460843}, {"type": "node", "id": 259170255, "lat": 52.5509607, "lon": 13.5460227}, {"type": "node", "id": 259170256, "lat": 52.551051, "lon": 13.5457476}, {"type": "node", "id": 259170270, "lat": 52.5507667, "lon": 13.5463567}, {"type": "node", "id": 259796154, "lat": 52.4439782, "lon": 13.5700978}, {"type": "node", "id": 259796155, "lat": 52.4438908, "lon": 13.5701171}, {"type": "node", "id": 259796156, "lat": 52.4438768, "lon": 13.5698883}, {"type": "node", "id": 259796157, "lat": 52.4434728, "lon": 13.5699562}, {"type": "node", "id": 259796158, "lat": 52.4434797, "lon": 13.5700733}, {"type": "node", "id": 259796159, "lat": 52.4433364, "lon": 13.5702074}, {"type": "node", "id": 259796160, "lat": 52.443289, "lon": 13.5694105}, {"type": "node", "id": 259796161, "lat": 52.4439807, "lon": 13.5692947}, {"type": "node", "id": 259796162, "lat": 52.4439856, "lon": 13.5693779}, {"type": "node", "id": 259862928, "lat": 52.4134326, "lon": 13.5687306}, {"type": "node", "id": 259862929, "lat": 52.4134576, "lon": 13.5695365}, {"type": "node", "id": 259862930, "lat": 52.4133555, "lon": 13.569545}, {"type": "node", "id": 259862931, "lat": 52.4133306, "lon": 13.5687391}, {"type": "node", "id": 259862934, "lat": 52.4137741, "lon": 13.5697608}, {"type": "node", "id": 259862935, "lat": 52.4136719, "lon": 13.56977}, {"type": "node", "id": 259862936, "lat": 52.4136473, "lon": 13.5689728}, {"type": "node", "id": 259862937, "lat": 52.4137473, "lon": 13.5689638}, {"type": "node", "id": 259866096, "lat": 52.3988119, "lon": 13.5413174}, {"type": "node", "id": 259866097, "lat": 52.3984063, "lon": 13.5415821}, {"type": "node", "id": 259866098, "lat": 52.3982829, "lon": 13.5410705}, {"type": "node", "id": 259866099, "lat": 52.3986907, "lon": 13.5408183}, {"type": "node", "id": 261259148, "lat": 52.3852413, "lon": 13.6403204}, {"type": "node", "id": 262153600, "lat": 52.3691743, "lon": 13.6498923}, {"type": "node", "id": 262165114, "lat": 52.3725889, "lon": 13.6944157}, {"type": "node", "id": 262165116, "lat": 52.373451, "lon": 13.6950375}, {"type": "node", "id": 262178713, "lat": 52.603771, "lon": 13.5242092, "tags": {"addr:city": "Ahrensfelde", "addr:housenumber": "3", "addr:postcode": "16356", "addr:street": "Bernauer Stra\u00dfe", "addr:suburb": "Lindenberg", "email": "huettner.ingo@web.de", "name": "Ingos Ger\u00fcchtek\u00fcche", "operator": "Ingo H\u00fcttner", "phone": "+49 172 994 1961", "rooms": "5", "tourism": "guest_house", "wheelchair": "no"}}, {"type": "node", "id": 262314379, "lat": 52.3969657, "lon": 13.5308202}, {"type": "node", "id": 262394173, "lat": 52.3889786, "lon": 13.4985679, "tags": {"addr:city": "Sch\u00f6nefeld", "addr:country": "DE", "addr:housenumber": "5", "addr:postcode": "12529", "addr:street": "Hans-Grade-Allee", "brand": "Holiday Inn", "brand:wikidata": "Q2717882", "brand:wikipedia": "en:Holiday Inn", "fax": "+49 30 63401600", "name": "Holiday Inn Berlin Airport \u2013 Conference Centre", "phone": "+49 30 634010", "tourism": "hotel", "website": "https://www.holidayinn-berlin.de/", "wheelchair": "yes", "wikidata": "Q111390173"}}, {"type": "node", "id": 262703765, "lat": 52.4755844, "lon": 13.4590545}, {"type": "node", "id": 262703766, "lat": 52.4746949, "lon": 13.4590239}, {"type": "node", "id": 262703767, "lat": 52.4745635, "lon": 13.460692}, {"type": "node", "id": 262703768, "lat": 52.4754367, "lon": 13.4609751}, {"type": "node", "id": 266592593, "lat": 52.5283872, "lon": 13.4031055}, {"type": "node", "id": 266592594, "lat": 52.5283736, "lon": 13.4029124}, {"type": "node", "id": 266592598, "lat": 52.528337, "lon": 13.402507}, {"type": "node", "id": 266593733, "lat": 52.5290575, "lon": 13.4181101, "tags": {"addr:city": "Berlin", "addr:country": "DE", "addr:housenumber": "4", "addr:postcode": "10405", "addr:street": "Prenzlauer Allee", "addr:suburb": "Prenzlauer Berg", "brand": "Ibis", "brand:wikidata": "Q920166", "brand:wikipedia": "en:Ibis (hotel)", "contact:website": "http://www.ibishotel.com/de/hotel-0357-ibis-berlin-mitte/index.shtml", "dog": "yes", "name": "Hotel ibis Berlin Mitte", "name:ja": "\u30db\u30c6\u30eb\u30fb\u30a4\u30d3\u30b9\u30fb\u30d9\u30eb\u30ea\u30f3\u30fb\u30df\u30c3\u30c6", "toilets:wheelchair": "yes", "tourism": "hotel", "wheelchair": "yes"}}, {"type": "node", "id": 266680033, "lat": 52.5051118, "lon": 13.6063394}, {"type": "node", "id": 266739204, "lat": 52.5293954, "lon": 13.3995292}, {"type": "node", "id": 266739212, "lat": 52.529347, "lon": 13.3997637}, {"type": "node", "id": 266739214, "lat": 52.5291724, "lon": 13.399546}, {"type": "node", "id": 267246999, "lat": 52.5103196, "lon": 13.2680576, "tags": {"addr:city": "Berlin", "addr:housenumber": "20", "addr:postcode": "14052", "addr:street": "Kastanienallee", "name": "Hotel Villa Kastania Berlin", "tourism": "hotel", "wikidata": "Q111851647"}}, {"type": "node", "id": 268815793, "lat": 52.5270902, "lon": 13.384487}, {"type": "node", "id": 268815794, "lat": 52.5272156, "lon": 13.3848476}, {"type": "node", "id": 268815795, "lat": 52.5270019, "lon": 13.3846831}, {"type": "node", "id": 268815796, "lat": 52.5271155, "lon": 13.3845556}, {"type": "node", "id": 268815797, "lat": 52.5270356, "lon": 13.3845367}, {"type": "node", "id": 269380876, "lat": 52.5313213, "lon": 13.3839583}, {"type": "node", "id": 269381047, "lat": 52.5308415, "lon": 13.383795}, {"type": "node", "id": 269714858, "lat": 52.5067533, "lon": 13.3452955}, {"type": "node", "id": 269714859, "lat": 52.5069522, "lon": 13.3452398}, {"type": "node", "id": 269905044, "lat": 52.4468121, "lon": 13.4377895, "tags": {"addr:city": "Berlin", "addr:country": "DE", "addr:housenumber": "73", "addr:postcode": "12359", "addr:street": "Alt-Britz", "addr:suburb": "Britz", "amenity": "restaurant", "contact:email": "schlossbritz@estrel.com", "contact:fax": "+49 30 6831 2345", "contact:phone": "+49 30 6097 5039", "contact:website": "http://www.schloss-britz-berlin.de/", "indoor_seating": "yes", "name": "Schloss Britz", "opening_hours": "We-Sa 11:30-22:00; Su 11:00-20:00", "outdoor_seating": "yes", "ref:schlossgutshofbritz": "15;17", "tourism": "hotel", "wheelchair": "limited"}}, {"type": "node", "id": 269947287, "lat": 52.4660761, "lon": 13.5447444}, {"type": "node", "id": 269947288, "lat": 52.46577, "lon": 13.5446071}, {"type": "node", "id": 269947289, "lat": 52.4661705, "lon": 13.5442174}, {"type": "node", "id": 269947290, "lat": 52.4658651, "lon": 13.5440627}, {"type": "node", "id": 269947291, "lat": 52.4662007, "lon": 13.5440382}, {"type": "node", "id": 269947292, "lat": 52.4658927, "lon": 13.5438989}, {"type": "node", "id": 269947293, "lat": 52.4659661, "lon": 13.5446946}, {"type": "node", "id": 269947294, "lat": 52.4660554, "lon": 13.5441653}, {"type": "node", "id": 269947295, "lat": 52.4659668, "lon": 13.5441087}, {"type": "node", "id": 269947296, "lat": 52.4658747, "lon": 13.5446544}, {"type": "node", "id": 270172276, "lat": 52.4989314, "lon": 13.3088825}, {"type": "node", "id": 270172349, "lat": 52.4988189, "lon": 13.3091908}, {"type": "node", "id": 270172350, "lat": 52.4987945, "lon": 13.3089045}, {"type": "node", "id": 270191419, "lat": 52.5036604, "lon": 13.3274134}, {"type": "node", "id": 270191420, "lat": 52.5034825, "lon": 13.3273873}, {"type": "node", "id": 270191423, "lat": 52.5031999, "lon": 13.3272877}, {"type": "node", "id": 270191424, "lat": 52.5031708, "lon": 13.3272544}, {"type": "node", "id": 270191425, "lat": 52.5031414, "lon": 13.327211}, {"type": "node", "id": 270191426, "lat": 52.5030812, "lon": 13.3270524}, {"type": "node", "id": 270191428, "lat": 52.5031318, "lon": 13.3270236}, {"type": "node", "id": 270191464, "lat": 52.5037927, "lon": 13.329266}, {"type": "node", "id": 270191465, "lat": 52.503636, "lon": 13.329359}, {"type": "node", "id": 270191467, "lat": 52.5041189, "lon": 13.3290799}, {"type": "node", "id": 270191472, "lat": 52.5038202, "lon": 13.329398}, {"type": "node", "id": 270191473, "lat": 52.5040575, "lon": 13.329439}, {"type": "node", "id": 270191478, "lat": 52.5040609, "lon": 13.3291118}, {"type": "node", "id": 270191482, "lat": 52.5041815, "lon": 13.3291702}, {"type": "node", "id": 270191486, "lat": 52.5041444, "lon": 13.3296847}, {"type": "node", "id": 270191487, "lat": 52.5036873, "lon": 13.3296045}, {"type": "node", "id": 270191522, "lat": 52.503668, "lon": 13.3270623}, {"type": "node", "id": 270191523, "lat": 52.503679, "lon": 13.3268864}, {"type": "node", "id": 270191528, "lat": 52.5043631, "lon": 13.3273191}, {"type": "node", "id": 271766267, "lat": 52.4980285, "lon": 13.386468, "tags": {"addr:city": "Berlin", "addr:country": "DE", "addr:housenumber": "8-9", "addr:postcode": "10963", "addr:street": "Tempelhofer Ufer", "addr:suburb": "Kreuzberg", "check_date": "2024-06-24", "email": "kreuzberg@acamaberlin.com", "fax": "+49 30 259304829", "name": "acama", "operator": "acama", "phone": "+49 30 25930480", "rooms": "99", "tourism": "hostel", "website": "https://www.acamaberlin.com/", "wheelchair": "limited"}}, {"type": "node", "id": 279303492, "lat": 52.5257376, "lon": 13.3882897}, {"type": "node", "id": 279303972, "lat": 52.5257255, "lon": 13.388337}, {"type": "node", "id": 279305104, "lat": 52.5257048, "lon": 13.3884179}, {"type": "node", "id": 281827765, "lat": 52.6350391, "lon": 13.4995197, "tags": {"addr:city": "Berlin", "addr:country": "DE", "addr:housenumber": "1", "addr:postcode": "13125", "addr:street": "Karower Stra\u00dfe", "addr:suburb": "Buch", "amenity": "restaurant", "cuisine": "italian", "diet:vegan": "yes", "diet:vegetarian": "yes", "entrance": "yes", "indoor_seating": "yes", "name": "Il Castello", "opening_hours": "Mo-Sa 12:00-24:00, Su 12:00-23:00", "outdoor_seating": "yes", "phone": "+49 30 9413740", "tourism": "hotel", "website": "https://www.il-castello-berlin.de/", "wheelchair": "no"}}, {"type": "node", "id": 282317966, "lat": 52.5274573, "lon": 13.5674929}, {"type": "node", "id": 282317968, "lat": 52.5279053, "lon": 13.5673744}, {"type": "node", "id": 282317999, "lat": 52.5278874, "lon": 13.5675894}, {"type": "node", "id": 282318074, "lat": 52.5274752, "lon": 13.5672779}, {"type": "node", "id": 282575646, "lat": 52.5412929, "lon": 13.3723634}, {"type": "node", "id": 282575647, "lat": 52.541693, "lon": 13.3724269}, {"type": "node", "id": 282575657, "lat": 52.5416648, "lon": 13.3721756}, {"type": "node", "id": 282575659, "lat": 52.5416441, "lon": 13.3719907}, {"type": "node", "id": 282575661, "lat": 52.5418133, "lon": 13.3719221}, {"type": "node", "id": 282575663, "lat": 52.5419252, "lon": 13.3718887}, {"type": "node", "id": 282740683, "lat": 52.5155823, "lon": 13.4115482}, {"type": "node", "id": 283045487, "lat": 52.51089, "lon": 13.4006427}, {"type": "node", "id": 283045488, "lat": 52.5109144, "lon": 13.4010355}, {"type": "node", "id": 283045489, "lat": 52.5106711, "lon": 13.4010753}, {"type": "node", "id": 283045490, "lat": 52.510482, "lon": 13.4008517}, {"type": "node", "id": 284750940, "lat": 52.516133, "lon": 13.3797554}, {"type": "node", "id": 284750976, "lat": 52.5162014, "lon": 13.3807627}, {"type": "node", "id": 284750987, "lat": 52.5149514, "lon": 13.3799663}, {"type": "node", "id": 284750996, "lat": 52.51512, "lon": 13.3799346}, {"type": "node", "id": 284751004, "lat": 52.515126, "lon": 13.3800106}, {"type": "node", "id": 284751012, "lat": 52.5157005, "lon": 13.3799057}, {"type": "node", "id": 284751023, "lat": 52.5156951, "lon": 13.379832}, {"type": "node", "id": 284751320, "lat": 52.5152764, "lon": 13.3804698}, {"type": "node", "id": 284751417, "lat": 52.515223, "lon": 13.3804805}, {"type": "node", "id": 284751437, "lat": 52.515394, "lon": 13.3804464}, {"type": "node", "id": 286109381, "lat": 52.5393746, "lon": 13.4987683}, {"type": "node", "id": 286109382, "lat": 52.539314, "lon": 13.4977087}, {"type": "node", "id": 286109383, "lat": 52.539211, "lon": 13.4977239}, {"type": "node", "id": 286109384, "lat": 52.5392019, "lon": 13.4975624}, {"type": "node", "id": 286109385, "lat": 52.5391522, "lon": 13.4974822}, {"type": "node", "id": 286109386, "lat": 52.5390384, "lon": 13.4976718}, {"type": "node", "id": 286109388, "lat": 52.5390638, "lon": 13.4977464}, {"type": "node", "id": 286109389, "lat": 52.5390735, "lon": 13.4979256}, {"type": "node", "id": 286109390, "lat": 52.5391158, "lon": 13.4979526}, {"type": "node", "id": 286109391, "lat": 52.5391013, "lon": 13.4984129}, {"type": "node", "id": 286109392, "lat": 52.5391437, "lon": 13.4984343}, {"type": "node", "id": 286109393, "lat": 52.5391518, "lon": 13.4985895}, {"type": "node", "id": 286109394, "lat": 52.5392237, "lon": 13.4986447}, {"type": "node", "id": 287295073, "lat": 52.5735336, "lon": 13.5576295, "tags": {"check_date": "2025-11-11", "name": "Pension Falkenberg", "tourism": "motel"}}, {"type": "node", "id": 287541579, "lat": 52.4989475, "lon": 13.3091715}, {"type": "node", "id": 287968357, "lat": 52.5222763, "lon": 13.4849425}, {"type": "node", "id": 287968358, "lat": 52.5222982, "lon": 13.4851747}, {"type": "node", "id": 287968359, "lat": 52.5216534, "lon": 13.4853227}, {"type": "node", "id": 287968360, "lat": 52.5216345, "lon": 13.4850864}, {"type": "node", "id": 288101218, "lat": 52.53571, "lon": 13.2730289, "tags": {"addr:city": "Berlin", "addr:country": "DE", "addr:housenumber": "4-6", "addr:postcode": "13629", "addr:street": "Ohmstra\u00dfe", "addr:suburb": "Siemensstadt", "brand": "Mercure", "brand:wikidata": "Q1709809", "brand:wikipedia": "en:Mercure (hotel)", "name": "Mercure Hotel Berlin City West", "tourism": "hotel", "wikidata": "Q111388540"}}, {"type": "node", "id": 289376125, "lat": 52.5024969, "lon": 13.3362857}, {"type": "node", "id": 289376135, "lat": 52.5022531, "lon": 13.3360253}, {"type": "node", "id": 289376137, "lat": 52.5022682, "lon": 13.3359868}, {"type": "node", "id": 289376139, "lat": 52.5022402, "lon": 13.3359569}, {"type": "node", "id": 289376141, "lat": 52.5028444, "lon": 13.3344545}, {"type": "node", "id": 289376144, "lat": 52.502872, "lon": 13.3344874}, {"type": "node", "id": 289376146, "lat": 52.5028881, "lon": 13.3344477}, {"type": "node", "id": 289376149, "lat": 52.5030482, "lon": 13.3349102}, {"type": "node", "id": 289376151, "lat": 52.5028559, "lon": 13.3347062}, {"type": "node", "id": 289376153, "lat": 52.5027504, "lon": 13.3349744}, {"type": "node", "id": 289376155, "lat": 52.5027163, "lon": 13.3349382}, {"type": "node", "id": 289376157, "lat": 52.5026441, "lon": 13.3351219}, {"type": "node", "id": 289376159, "lat": 52.5027181, "lon": 13.3352004}, {"type": "node", "id": 289376160, "lat": 52.5026047, "lon": 13.335489}, {"type": "node", "id": 289376162, "lat": 52.5025208, "lon": 13.3354001}, {"type": "node", "id": 289376164, "lat": 52.5024332, "lon": 13.3356231}, {"type": "node", "id": 289376166, "lat": 52.5024807, "lon": 13.3356734}, {"type": "node", "id": 289376167, "lat": 52.5023901, "lon": 13.3359038}, {"type": "node", "id": 289376169, "lat": 52.5025714, "lon": 13.3360961}, {"type": "node", "id": 292204918, "lat": 52.4997278, "lon": 13.3345084}, {"type": "node", "id": 292204920, "lat": 52.4998492, "lon": 13.3341742}, {"type": "node", "id": 292204924, "lat": 52.4999338, "lon": 13.3342571}, {"type": "node", "id": 292204925, "lat": 52.499954, "lon": 13.3342769}, {"type": "node", "id": 292204926, "lat": 52.4998326, "lon": 13.3346111}, {"type": "node", "id": 292895744, "lat": 52.5015481, "lon": 13.3312062}, {"type": "node", "id": 292895745, "lat": 52.5015384, "lon": 13.3314156}, {"type": "node", "id": 292895751, "lat": 52.5013974, "lon": 13.3311754}, {"type": "node", "id": 292895752, "lat": 52.5013842, "lon": 13.3314262}, {"type": "node", "id": 292895754, "lat": 52.5013208, "lon": 13.3313685}, {"type": "node", "id": 292895755, "lat": 52.5013121, "lon": 13.3315439}, {"type": "node", "id": 292895756, "lat": 52.501428, "lon": 13.3314352}, {"type": "node", "id": 292895758, "lat": 52.5014284, "lon": 13.3313954}, {"type": "node", "id": 292899156, "lat": 52.4963796, "lon": 13.3202108}, {"type": "node", "id": 292910565, "lat": 52.4993769, "lon": 13.3344029}, {"type": "node", "id": 292910568, "lat": 52.4992867, "lon": 13.3343143}, {"type": "node", "id": 292910581, "lat": 52.500406, "lon": 13.3342949}, {"type": "node", "id": 292910583, "lat": 52.5004837, "lon": 13.334381}, {"type": "node", "id": 292910599, "lat": 52.5001992, "lon": 13.3340691}, {"type": "node", "id": 292910601, "lat": 52.5002297, "lon": 13.3339912}, {"type": "node", "id": 292910604, "lat": 52.5004081, "lon": 13.3341978}, {"type": "node", "id": 292910606, "lat": 52.5004829, "lon": 13.3340112}, {"type": "node", "id": 292910608, "lat": 52.5002965, "lon": 13.333817}, {"type": "node", "id": 292910611, "lat": 52.5003261, "lon": 13.3337381}, {"type": "node", "id": 292910613, "lat": 52.500614, "lon": 13.3340581}, {"type": "node", "id": 293115714, "lat": 52.5039152, "lon": 13.3472249}, {"type": "node", "id": 293115715, "lat": 52.50402, "lon": 13.3473027}, {"type": "node", "id": 293717178, "lat": 52.4960732, "lon": 13.3204299}, {"type": "node", "id": 293717184, "lat": 52.4963569, "lon": 13.3205363}, {"type": "node", "id": 293717186, "lat": 52.4963135, "lon": 13.3205279}, {"type": "node", "id": 293717188, "lat": 52.4963152, "lon": 13.3203834}, {"type": "node", "id": 293717190, "lat": 52.4961763, "lon": 13.3203762}, {"type": "node", "id": 293905681, "lat": 52.6366496, "lon": 13.5004371}, {"type": "node", "id": 293905684, "lat": 52.6365542, "lon": 13.5007496}, {"type": "node", "id": 293905686, "lat": 52.6365127, "lon": 13.5004985}, {"type": "node", "id": 294879977, "lat": 52.5684079, "lon": 13.1955685}, {"type": "node", "id": 294879982, "lat": 52.5682159, "lon": 13.1958626}, {"type": "node", "id": 294879984, "lat": 52.568504, "lon": 13.1948758}, {"type": "node", "id": 294880545, "lat": 52.5682469, "lon": 13.1948778}, {"type": "node", "id": 294880546, "lat": 52.5682467, "lon": 13.1950429}, {"type": "node", "id": 294880547, "lat": 52.5684791, "lon": 13.19504}, {"type": "node", "id": 294880548, "lat": 52.5682147, "lon": 13.1956972}, {"type": "node", "id": 295084271, "lat": 52.5096116, "lon": 13.4462984, "tags": {"addr:city": "Berlin", "addr:country": "DE", "addr:housenumber": "17", "addr:postcode": "10243", "addr:street": "Helsingforser Stra\u00dfe", "addr:suburb": "Friedrichshain", "check_date": "2025-08-18", "contact:phone": "+49 30 44044250", "contact:website": "http://www.sunflower-hostel.de", "email": "hostel@sunflower-hostel.de", "internet_access": "wlan", "internet_access:captive_portal": "no", "internet_access:fee": "customers", "internet_access:password": "yes", "internet_access:ssid": "sunflower", "name": "SunFlower Hostel", "payment:cash": "yes", "payment:credit_cards": "yes", "payment:debit_cards": "yes", "tourism": "hostel", "wheelchair": "no", "wikidata": "Q111118489"}}, {"type": "node", "id": 296012133, "lat": 52.385842, "lon": 13.6403307}, {"type": "node", "id": 296013592, "lat": 52.3858169, "lon": 13.6413087}, {"type": "node", "id": 297646600, "lat": 52.4425378, "lon": 13.5704682}, {"type": "node", "id": 297866940, "lat": 52.4846172, "lon": 13.3081531}, {"type": "node", "id": 305495691, "lat": 52.5321114, "lon": 13.3827089}, {"type": "node", "id": 305495711, "lat": 52.5322096, "lon": 13.3816248}, {"type": "node", "id": 305495713, "lat": 52.5319982, "lon": 13.3824093}, {"type": "node", "id": 305555312, "lat": 52.5326493, "lon": 13.3821076}, {"type": "node", "id": 305555315, "lat": 52.5330007, "lon": 13.3820763}, {"type": "node", "id": 305555824, "lat": 52.5326036, "lon": 13.3810371}, {"type": "node", "id": 306912394, "lat": 52.4017265, "lon": 13.2592215, "tags": {"addr:city": "Teltow", "addr:country": "DE", "addr:housenumber": "53", "addr:postcode": "14513", "addr:street": "Potsdamer Stra\u00dfe", "name": "Hoteltow", "toilets:wheelchair": "no", "tourism": "hotel", "website": "https://www.hoteltow.de/", "wheelchair": "yes"}}, {"type": "node", "id": 306987815, "lat": 52.434959, "lon": 13.3332311, "tags": {"name": "Haus Gotland", "tourism": "hotel"}}, {"type": "node", "id": 307747505, "lat": 52.5493413, "lon": 13.3840413}, {"type": "node", "id": 309323318, "lat": 52.4051374, "lon": 13.1870681}, {"type": "node", "id": 309323320, "lat": 52.4051903, "lon": 13.1868548}, {"type": "node", "id": 309323322, "lat": 52.4048127, "lon": 13.1866032}, {"type": "node", "id": 309323613, "lat": 52.4046627, "lon": 13.1871998}, {"type": "node", "id": 309323614, "lat": 52.4045805, "lon": 13.1873863}, {"type": "node", "id": 309323615, "lat": 52.4044292, "lon": 13.1869235}, {"type": "node", "id": 309323616, "lat": 52.4043471, "lon": 13.1871099}, {"type": "node", "id": 309323617, "lat": 52.4043914, "lon": 13.1867726}, {"type": "node", "id": 309323618, "lat": 52.4041834, "lon": 13.1871018}, {"type": "node", "id": 309323619, "lat": 52.4042933, "lon": 13.1872319}, {"type": "node", "id": 309323620, "lat": 52.4042202, "lon": 13.1870185}, {"type": "node", "id": 309323621, "lat": 52.4041764, "lon": 13.1869666}, {"type": "node", "id": 309323622, "lat": 52.404236, "lon": 13.1868315}, {"type": "node", "id": 309323623, "lat": 52.4042209, "lon": 13.1868066}, {"type": "node", "id": 309323624, "lat": 52.4043795, "lon": 13.1868679}, {"type": "node", "id": 309323625, "lat": 52.4043919, "lon": 13.1868405}, {"type": "node", "id": 309647297, "lat": 52.4740955, "lon": 13.4606462}, {"type": "node", "id": 309647299, "lat": 52.4742353, "lon": 13.4608041}, {"type": "node", "id": 309647349, "lat": 52.4739036, "lon": 13.4600346}, {"type": "node", "id": 314137159, "lat": 52.5281094, "lon": 13.388624, "tags": {"addr:city": "Berlin", "addr:country": "DE", "addr:housenumber": "14", "addr:postcode": "10115", "addr:street": "Novalisstra\u00dfe", "addr:suburb": "Mitte", "contact:phone": "+491751123515", "name": "Eastener Hostel", "tourism": "hostel", "website": "http://www.eastener-hostel.de/", "wheelchair": "no", "wikidata": "Q111118501"}}, {"type": "node", "id": 314137172, "lat": 52.5281189, "lon": 13.3891103, "tags": {"addr:city": "Berlin", "addr:country": "DE", "addr:housenumber": "2", "addr:postcode": "10115", "addr:street": "Novalisstra\u00dfe", "addr:suburb": "Mitte", "contact:phone": "+493049853958", "name": "Green Eggs and Ham", "note": "Vmtl geschlossen", "tourism": "hostel"}}, {"type": "node", "id": 314139811, "lat": 52.5244513, "lon": 13.3917571, "tags": {"addr:city": "Berlin", "addr:country": "DE", "addr:housenumber": "11", "addr:postcode": "10117", "addr:street": "Johannisstra\u00dfe", "addr:suburb": "Mitte", "bett_and_bike:ref": "BER-1401", "bettundbike": "yes", "contact:phone": "+49 30 29003300", "email": "bridge@heartofgold-hostel.de", "fax": "+49 30 29044717", "name": "Heart of Gold Hostel Berlin", "tourism": "hostel", "website": "https://www.heartofgold-hostel.de/", "wheelchair": "yes", "wikidata": "Q111118492", "wikimedia_commons": "File:20230627 xl 0837-Heart of Gold Hostel.jpg"}}, {"type": "node", "id": 314641582, "lat": 52.5690226, "lon": 13.5399969, "tags": {"addr:city": "Berlin", "addr:country": "DE", "addr:housenumber": "12", "addr:postcode": "13057", "addr:street": "Dorfstra\u00dfe", "addr:suburb": "Falkenberg", "name": "Jugendg\u00e4stehaus Falkenberg", "tourism": "guest_house"}}, {"type": "node", "id": 315256407, "lat": 52.4657492, "lon": 13.2708958}, {"type": "node", "id": 315256408, "lat": 52.4654557, "lon": 13.270615}, {"type": "node", "id": 315256409, "lat": 52.4656856, "lon": 13.271075}, {"type": "node", "id": 315256410, "lat": 52.465392, "lon": 13.2707943}, {"type": "node", "id": 315734451, "lat": 52.5747155, "lon": 13.3585037}, {"type": "node", "id": 315734452, "lat": 52.5746182, "lon": 13.3584704}, {"type": "node", "id": 317449636, "lat": 52.5159353, "lon": 13.4400393, "tags": {"addr:city": "Berlin", "addr:country": "DE", "addr:housenumber": "35", "addr:postcode": "10243", "addr:street": "Stra\u00dfe der Pariser Kommune", "addr:suburb": "Friedrichshain", "check_date": "2025-07-30", "contact:website": "http://www.pegasushostel.de/", "name": "Pegasus Hostel Berlin", "tourism": "hostel", "wheelchair": "limited", "wheelchair:description": "In Zimmern neue rollstuhlgerechte Toiletten.", "wikidata": "Q111118534"}}, {"type": "node", "id": 319596998, "lat": 52.522551, "lon": 13.4364897}, {"type": "node", "id": 319596999, "lat": 52.5230107, "lon": 13.4372829}, {"type": "node", "id": 319597000, "lat": 52.523306, "lon": 13.4371913}, {"type": "node", "id": 319597001, "lat": 52.5233032, "lon": 13.4369435}, {"type": "node", "id": 319597002, "lat": 52.5230511, "lon": 13.4370274}, {"type": "node", "id": 319597003, "lat": 52.5226675, "lon": 13.4363783}, {"type": "node", "id": 321347091, "lat": 52.5293564, "lon": 13.4567669, "tags": {"addr:city": "Berlin", "addr:country": "DE", "addr:housenumber": "162", "addr:postcode": "10407", "addr:street": "Storkower Stra\u00dfe", "addr:suburb": "Prenzlauer Berg", "brand": "Vienna House", "brand:wikidata": "Q2523363", "check_date:internet_access": "2022-09-04", "contact:phone": "+49306664440", "contact:website": "https://www.viennahouse.com/index.php?id=1149", "internet_access": "wlan", "internet_access:fee": "no", "name": "Vienna House Easy by Wyndham", "official_name": "Vienna House by Wyndham", "tourism": "hotel", "wheelchair": "yes"}}, {"type": "node", "id": 321537014, "lat": 52.3622465, "lon": 13.4283782, "tags": {"addr:city": "Blankenfelde-Mahlow", "addr:housenumber": "5", "addr:postcode": "15831", "addr:street": "Jonas-Lie-Stra\u00dfe", "brand": "Best Western Premier", "brand:wikidata": "Q830334", "name": "Best Western Premier Airporthotel Fontane Berlin", "tourism": "hotel", "wikidata": "Q111851634"}}, {"type": "node", "id": 321597100, "lat": 52.5288621, "lon": 13.428805, "tags": {"addr:city": "Berlin", "addr:country": "DE", "addr:housenumber": "17", "addr:postcode": "10407", "addr:street": "Am Friedrichshain", "addr:suburb": "Prenzlauer Berg", "bar": "yes", "contact:facebook": "https://www.facebook.com/VictorsHotels/?locale=de_DE", "contact:phone": "+49 30 219140", "contact:website": "https://www.victors.de/hotels/victor-s-residenz-hotel-berlin", "email": "info.berlin@victors.de", "internet_access": "wlan", "internet_access:fee": "customers", "level": "5", "name": "Victor's Residenz-Hotel Berlin Mitte", "opening_hours": "24/7", "payment:american_express": "yes", "payment:cash": "yes", "payment:credit_cards": "yes", "payment:maestro": "yes", "payment:mastercard": "yes", "payment:visa": "yes", "rooms": "133", "stars": "4", "start_date": "2004", "toilets:wheelchair": "yes", "tourism": "hotel", "wheelchair": "yes", "wheelchair:description": "Ein Teil der Zimmer ist rollstuhlgerecht. Das Restaurant (f\u00fcr Fr\u00fchst\u00fcck, Mittag- und Abendessen) ist rollstuhlgerecht und es gibt eine rollstuhlgerechte Toilette im \u00f6ffentlichen Bereich.", "wikidata": "Q111387985"}}, {"type": "node", "id": 321648481, "lat": 52.5761375, "lon": 13.2952127}, {"type": "node", "id": 321648482, "lat": 52.5756892, "lon": 13.2954491}, {"type": "node", "id": 321648483, "lat": 52.5757514, "lon": 13.2957006}, {"type": "node", "id": 321648486, "lat": 52.5761033, "lon": 13.2953863}, {"type": "node", "id": 322561685, "lat": 52.5001772, "lon": 13.3756862}, {"type": "node", "id": 322561687, "lat": 52.5002382, "lon": 13.3753904}, {"type": "node", "id": 325013713, "lat": 52.5337442, "lon": 13.5175762}, {"type": "node", "id": 325013714, "lat": 52.5337245, "lon": 13.5176385}, {"type": "node", "id": 325013715, "lat": 52.5337343, "lon": 13.51772}, {"type": "node", "id": 325013717, "lat": 52.5331721, "lon": 13.5175519}, {"type": "node", "id": 325013718, "lat": 52.5331596, "lon": 13.5173859}, {"type": "node", "id": 325013720, "lat": 52.5332253, "lon": 13.5172561}, {"type": "node", "id": 325013721, "lat": 52.5336564, "lon": 13.5171682}, {"type": "node", "id": 330257182, "lat": 52.5347495, "lon": 13.4061413, "tags": {"addr:city": "Berlin", "addr:country": "DE", "addr:housenumber": "65", "addr:postcode": "10119", "addr:street": "Kastanienallee", "addr:suburb": "Mitte", "check_date": "2024-06-15", "contact:phone": "+49 30 443050", "contact:website": "https://www.kastanienhof.berlin/", "name": "Kastanienhof", "nobrand": "yes", "stars": "3S", "tourism": "hotel", "wheelchair": "limited", "wikidata": "Q111390195"}}, {"type": "node", "id": 330264477, "lat": 52.5293842, "lon": 13.4012578, "tags": {"addr:city": "Berlin", "addr:housenumber": "1", "addr:postcode": "10119", "addr:street": "Rosenthaler Stra\u00dfe", "check_date": "2025-10-23", "email": "info@circus-berlin.de", "internet_access": "wlan", "name": "The Circus Hotel", "phone": "+49 30 2000 39 39", "tourism": "hotel", "website": "https://circus-berlin.de/de/hotel/", "wheelchair": "yes"}}, {"type": "node", "id": 332294287, "lat": 52.4842463, "lon": 13.3082674}, {"type": "node", "id": 332294288, "lat": 52.4842482, "lon": 13.3082245}, {"type": "node", "id": 332294289, "lat": 52.4842062, "lon": 13.3082196}, {"type": "node", "id": 332294290, "lat": 52.4842088, "lon": 13.3081573}, {"type": "node", "id": 332294291, "lat": 52.4842479, "lon": 13.3081618}, {"type": "node", "id": 332294292, "lat": 52.4842499, "lon": 13.3081143}, {"type": "node", "id": 332294293, "lat": 52.4844041, "lon": 13.308132}, {"type": "node", "id": 332294294, "lat": 52.4844077, "lon": 13.3080465}, {"type": "node", "id": 332294295, "lat": 52.4846208, "lon": 13.308071}, {"type": "node", "id": 332294297, "lat": 52.4846144, "lon": 13.3082212}, {"type": "node", "id": 332294298, "lat": 52.484436, "lon": 13.3082007}, {"type": "node", "id": 332294299, "lat": 52.4844322, "lon": 13.3082888}, {"type": "node", "id": 332554289, "lat": 52.5231612, "lon": 13.3839926, "tags": {"air_conditioning": "no", "check_date": "2025-03-26", "internet_access": "wlan", "name": "Hotel Amelie", "stars": "3", "tourism": "hotel", "wheelchair": "no"}}, {"type": "node", "id": 332554293, "lat": 52.5216849, "lon": 13.3795451, "tags": {"addr:city": "Berlin", "addr:country": "DE", "addr:housenumber": "19", "addr:postcode": "10117", "addr:street": "Luisenstra\u00dfe", "addr:suburb": "Mitte", "contact:phone": "+49 30 284480", "name": "Arte Luise Kunsthotel", "stars": "3", "tourism": "hotel", "website": "https://www.luise-berlin.com/", "wikidata": "Q706368", "wikipedia": "de:Arte Luise Kunsthotel"}}, {"type": "node", "id": 332982255, "lat": 52.5399465, "lon": 13.2627662}, {"type": "node", "id": 332982257, "lat": 52.5399023, "lon": 13.2625442}, {"type": "node", "id": 332982260, "lat": 52.5402219, "lon": 13.2623695}, {"type": "node", "id": 332982263, "lat": 52.5401422, "lon": 13.2619777}, {"type": "node", "id": 332982265, "lat": 52.5402558, "lon": 13.2617657}, {"type": "node", "id": 332982268, "lat": 52.5403798, "lon": 13.2623867}, {"type": "node", "id": 332982270, "lat": 52.5405677, "lon": 13.2622849}, {"type": "node", "id": 332982272, "lat": 52.5404071, "lon": 13.2614855}, {"type": "node", "id": 332982275, "lat": 52.5405204, "lon": 13.2612745}, {"type": "node", "id": 332982279, "lat": 52.5406901, "lon": 13.262115}, {"type": "node", "id": 332982281, "lat": 52.5410095, "lon": 13.2619433}, {"type": "node", "id": 332982284, "lat": 52.5410559, "lon": 13.2621714}, {"type": "node", "id": 332982287, "lat": 52.5405958, "lon": 13.2624219}, {"type": "node", "id": 332982290, "lat": 52.5405767, "lon": 13.2623279}, {"type": "node", "id": 332982293, "lat": 52.5403881, "lon": 13.2624292}, {"type": "node", "id": 332982296, "lat": 52.5404076, "lon": 13.2625255}, {"type": "node", "id": 333136476, "lat": 52.5226092, "lon": 13.3820948, "tags": {"name": "Residenz am Deutschen Theater", "tourism": "hotel"}}, {"type": "node", "id": 334744782, "lat": 52.5529493, "lon": 13.4126449}, {"type": "node", "id": 334750441, "lat": 52.552701, "lon": 13.4124761}, {"type": "node", "id": 334750442, "lat": 52.5526922, "lon": 13.4126059}, {"type": "node", "id": 334750446, "lat": 52.5529577, "lon": 13.4125121}, {"type": "node", "id": 340395701, "lat": 52.3847227, "lon": 13.2207945, "tags": {"name": "Pension Geranienhof", "tourism": "guest_house"}}, {"type": "node", "id": 343095342, "lat": 52.4569569, "lon": 13.2934766, "tags": {"addr:city": "Berlin", "addr:country": "DE", "addr:housenumber": "39", "addr:postcode": "14195", "addr:street": "Takustra\u00dfe", "addr:suburb": "Dahlem", "contact:phone": "+49 30 5577970", "contact:website": "https://www.seminaris.de/hotels/tagungshotel-berlin-dahlem/", "internet_access": "wlan", "name": "Seminaris CampusHotel Berlin", "tourism": "hotel", "wheelchair": "yes", "wikidata": "Q82270559"}}, {"type": "node", "id": 350625556, "lat": 52.4933637, "lon": 13.1969766, "tags": {"addr:city": "Berlin", "addr:housenumber": "5", "addr:postcode": "14193", "addr:street": "Stra\u00dfe am Schildhorn", "name": "Seehotel Grunewald", "toilets:wheelchair": "yes", "tourism": "hotel", "wheelchair": "yes"}}, {"type": "node", "id": 352782110, "lat": 52.5429944, "lon": 13.474052}, {"type": "node", "id": 352782113, "lat": 52.5427693, "lon": 13.4744591}, {"type": "node", "id": 352782117, "lat": 52.5428458, "lon": 13.4745736}, {"type": "node", "id": 352782121, "lat": 52.5429119, "lon": 13.4744542}, {"type": "node", "id": 352782126, "lat": 52.5434224, "lon": 13.4752175}, {"type": "node", "id": 352782129, "lat": 52.5433572, "lon": 13.4753354}, {"type": "node", "id": 352782132, "lat": 52.5434376, "lon": 13.4754556}, {"type": "node", "id": 352782137, "lat": 52.5436461, "lon": 13.4750787}, {"type": "node", "id": 352782140, "lat": 52.5435664, "lon": 13.4749597}, {"type": "node", "id": 352782143, "lat": 52.5434957, "lon": 13.4750875}, {"type": "node", "id": 352782147, "lat": 52.5429844, "lon": 13.4743229}, {"type": "node", "id": 352782151, "lat": 52.543071, "lon": 13.4741664}, {"type": "node", "id": 358531505, "lat": 52.5685698, "lon": 13.1958601}, {"type": "node", "id": 364496515, "lat": 52.5219795, "lon": 13.3845116}, {"type": "node", "id": 365325903, "lat": 52.5086214, "lon": 13.3241813}, {"type": "node", "id": 365325905, "lat": 52.5084959, "lon": 13.3241645}, {"type": "node", "id": 365325909, "lat": 52.5086043, "lon": 13.3244972}, {"type": "node", "id": 365325911, "lat": 52.5084555, "lon": 13.3244773}, {"type": "node", "id": 365325915, "lat": 52.5084712, "lon": 13.3241612}, {"type": "node", "id": 365530341, "lat": 52.3834445, "lon": 13.314673, "tags": {"addr:city": "Gro\u00dfbeeren", "addr:housenumber": "20-22", "addr:postcode": "14979", "addr:street": "Ruhlsdorfer Weg", "addr:suburb": "Birkenhain", "name": "Motel Birkenhain", "phone": "+49 33701 760", "toilets:wheelchair": "no", "tourism": "motel", "website": "http://www.motel-birkenhain.de", "wheelchair": "no", "wheelchair:description": "keine barrierefreien Zimmer, f\u00fcr Menschen mit Gehbehinderungen ungeeignet."}}, {"type": "node", "id": 365647209, "lat": 52.5174645, "lon": 13.3369336, "tags": {"addr:city": "Berlin", "addr:country": "DE", "addr:housenumber": "6", "addr:postcode": "10555", "addr:street": "Flotowstra\u00dfe", "addr:suburb": "Hansaviertel", "check_date": "2024-04-27", "name": "Hansablick Garni", "stars": "3", "tourism": "hotel", "wheelchair": "no"}}, {"type": "node", "id": 366943326, "lat": 52.4842635, "lon": 13.5265451, "tags": {"addr:city": "Berlin", "addr:country": "DE", "addr:housenumber": "89", "addr:postcode": "10318", "addr:street": "Treskowallee", "addr:suburb": "Karlshorst", "check_date": "2025-10-09", "contact:email": "Reception@hotel-karlshorst.com", "contact:phone": "+49 30 55616993", "contact:website": "https://hotel-karlshorst.com/", "name": "Hotel Karlshorst", "opening_hours": "24/7", "tourism": "hotel"}}, {"type": "node", "id": 367373532, "lat": 52.4703703, "lon": 13.4576607}, {"type": "node", "id": 367373534, "lat": 52.470719, "lon": 13.4577812}, {"type": "node", "id": 367373536, "lat": 52.4710932, "lon": 13.4577393}, {"type": "node", "id": 367373538, "lat": 52.4713902, "lon": 13.4575956}, {"type": "node", "id": 367373540, "lat": 52.4717554, "lon": 13.4576641}, {"type": "node", "id": 367373542, "lat": 52.4725226, "lon": 13.4582123}, {"type": "node", "id": 367373544, "lat": 52.4723963, "lon": 13.4584603}, {"type": "node", "id": 370060895, "lat": 52.5231771, "lon": 13.3585761, "tags": {"addr:city": "Berlin", "addr:country": "DE", "addr:housenumber": "126", "addr:postcode": "10557", "addr:street": "Alt-Moabit", "addr:suburb": "Moabit", "check_date": "2025-04-02", "name": "Central Inn", "tourism": "hotel", "wheelchair": "no", "wikidata": "Q111118535"}}, {"type": "node", "id": 372378739, "lat": 52.5018517, "lon": 13.3852631, "tags": {"addr:city": "Berlin", "addr:country": "DE", "addr:housenumber": "49", "addr:postcode": "10963", "addr:street": "Stresemannstra\u00dfe", "addr:suburb": "Kreuzberg", "brand": "Holiday Inn Express", "brand:wikidata": "Q5880423", "brand:wikipedia": "en:Holiday Inn Express", "check_date": "2025-09-15", "check_date:internet_access": "2025-09-15", "internet_access": "wlan", "name": "Holiday Inn Express Hotel Berlin City Centre", "surveillance": "outdoor", "toilets:wheelchair": "yes", "tourism": "hotel", "wheelchair": "yes"}}, {"type": "node", "id": 374252948, "lat": 52.5079495, "lon": 13.3436265}, {"type": "node", "id": 374254264, "lat": 52.5076333, "lon": 13.3459541}, {"type": "node", "id": 374254284, "lat": 52.5070737, "lon": 13.3458522}, {"type": "node", "id": 374254289, "lat": 52.5068319, "lon": 13.3459802}, {"type": "node", "id": 384948554, "lat": 52.4320179, "lon": 13.3050686, "tags": {"addr:city": "Berlin", "addr:country": "DE", "addr:housenumber": "23-27", "addr:postcode": "12205", "addr:street": "Finckensteinallee", "addr:suburb": "Lichterfelde", "contact:fax": "+49 30 843889-79", "contact:phone": "+49 30 843889-0", "entrance": "main", "name": "Morgenland", "tourism": "hotel", "website": "https://www.hotel-morgenland.de/", "wheelchair": "yes"}}, {"type": "node", "id": 385640015, "lat": 52.5008758, "lon": 13.3486634, "tags": {"addr:city": "Berlin", "addr:country": "DE", "addr:housenumber": "9-12", "addr:postcode": "10787", "addr:street": "Kleiststra\u00dfe", "addr:suburb": "Sch\u00f6neberg", "check_date": "2024-03-21", "contact:phone": "+49 30 586319090", "contact:website": "https://www.titanic.com.tr/de/titanic-comfort-kurfurstendamm", "internet_access": "wlan", "internet_access:fee": "customers", "internet_access:ssid": "Titanic Hotel", "name": "Titanic Comfort Kurf\u00fcrstendamm", "tourism": "hotel", "wheelchair": "yes", "wikidata": "Q111852338"}}, {"type": "node", "id": 387557557, "lat": 52.5067681, "lon": 13.3640566}, {"type": "node", "id": 387557558, "lat": 52.5068149, "lon": 13.3632092}, {"type": "node", "id": 387557559, "lat": 52.507261, "lon": 13.3634048}, {"type": "node", "id": 387557560, "lat": 52.5072421, "lon": 13.3635211}, {"type": "node", "id": 387557561, "lat": 52.5076238, "lon": 13.3636885}, {"type": "node", "id": 387557562, "lat": 52.5076507, "lon": 13.3635152}, {"type": "node", "id": 387557563, "lat": 52.5081288, "lon": 13.3637259}, {"type": "node", "id": 387557564, "lat": 52.5079752, "lon": 13.3646582}, {"type": "node", "id": 387557565, "lat": 52.5073964, "lon": 13.364372}, {"type": "node", "id": 392061170, "lat": 52.5033038, "lon": 13.3703518, "tags": {"entrance": "yes"}}, {"type": "node", "id": 392538668, "lat": 52.3687599, "lon": 13.6498098}, {"type": "node", "id": 392538669, "lat": 52.3691856, "lon": 13.6499989}, {"type": "node", "id": 392539001, "lat": 52.3684938, "lon": 13.6500762}, {"type": "node", "id": 392539002, "lat": 52.3683471, "lon": 13.6503508}, {"type": "node", "id": 392539005, "lat": 52.3678767, "lon": 13.6516104}, {"type": "node", "id": 392539012, "lat": 52.3700503, "lon": 13.6514237}, {"type": "node", "id": 392539014, "lat": 52.3700841, "lon": 13.6509175}, {"type": "node", "id": 392539016, "lat": 52.3699612, "lon": 13.6502135}, {"type": "node", "id": 392539063, "lat": 52.3699268, "lon": 13.6499038}, {"type": "node", "id": 392539497, "lat": 52.3690242, "lon": 13.6498846}, {"type": "node", "id": 393364372, "lat": 52.4288684, "lon": 13.6823962, "tags": {"addr:city": "Berlin", "addr:housenumber": "1", "addr:postcode": "12559", "addr:street": "Neuhelgol\u00e4nder Weg", "name": "Neu-Helgoland", "phone": "+49 30 6598247", "toilets:wheelchair": "no", "tourism": "hotel", "website": "https://www.neu-helgoland.de/", "wheelchair": "no"}}, {"type": "node", "id": 403749810, "lat": 52.493264, "lon": 13.5766494, "tags": {"addr:city": "Berlin", "addr:country": "DE", "addr:housenumber": "143", "addr:postcode": "12621", "addr:street": "Chemnitzer Stra\u00dfe", "addr:suburb": "Kaulsdorf", "cuisine": "regional", "name": "Hotel Hildebrandt", "opening_hours": "24/7", "phone": "+49 30 5654050", "tourism": "hotel", "website": "https://www.hildebrandt-hotel.de/", "wheelchair": "no"}}, {"type": "node", "id": 403882607, "lat": 52.5470266, "lon": 13.3513296}, {"type": "node", "id": 408820942, "lat": 52.4585271, "lon": 13.3170775}, {"type": "node", "id": 408820944, "lat": 52.4584655, "lon": 13.3170174}, {"type": "node", "id": 408820954, "lat": 52.4584925, "lon": 13.3169427}, {"type": "node", "id": 408820961, "lat": 52.458585, "lon": 13.3170329}, {"type": "node", "id": 408820963, "lat": 52.4585542, "lon": 13.3170028}, {"type": "node", "id": 408820965, "lat": 52.4587077, "lon": 13.3166161}, {"type": "node", "id": 408820969, "lat": 52.4585929, "lon": 13.3165042}, {"type": "node", "id": 409523873, "lat": 52.4640628, "lon": 13.3168701}, {"type": "node", "id": 409523874, "lat": 52.4639693, "lon": 13.3167788}, {"type": "node", "id": 409523876, "lat": 52.4638577, "lon": 13.317076}, {"type": "node", "id": 409523877, "lat": 52.4639581, "lon": 13.3171691}, {"type": "node", "id": 410174509, "lat": 52.5367728, "lon": 13.6332717, "tags": {"addr:city": "Hoppegarten", "addr:housenumber": "61a", "addr:postcode": "15366", "addr:street": "Mahlsdorfer Stra\u00dfe", "addr:suburb": "H\u00f6now", "alt_name": "HEP Hotel Berlin", "contact:website": "http://www.hephotel.de/", "name": "Hotel Amadeus Royal", "tourism": "hotel", "wheelchair": "yes"}}, {"type": "node", "id": 415343550, "lat": 52.5291066, "lon": 13.3173284, "tags": {"addr:city": "Berlin", "addr:country": "DE", "addr:housenumber": "1", "addr:postcode": "10553", "addr:street": "Ufnaustra\u00dfe", "addr:suburb": "Moabit", "contact:phone": "+49 30 343473300", "name": "Alfa Hotel Berlin", "tourism": "hotel", "website": "https://www.hotel-alfa-berlin.de/", "wheelchair": "limited"}}, {"type": "node", "id": 415942648, "lat": 52.5328829, "lon": 13.2132169}, {"type": "node", "id": 415942649, "lat": 52.5328007, "lon": 13.2138474}, {"type": "node", "id": 415942650, "lat": 52.53293, "lon": 13.2138966}, {"type": "node", "id": 415942651, "lat": 52.5329428, "lon": 13.2137926}, {"type": "node", "id": 415942652, "lat": 52.5330067, "lon": 13.2138158}, {"type": "node", "id": 415942653, "lat": 52.5330361, "lon": 13.2135956}, {"type": "node", "id": 415942654, "lat": 52.5329721, "lon": 13.2135728}, {"type": "node", "id": 415942655, "lat": 52.5330139, "lon": 13.2132627}, {"type": "node", "id": 416076803, "lat": 52.4438246, "lon": 13.2933907, "tags": {"addr:city": "Berlin", "addr:country": "DE", "addr:housenumber": "2", "addr:postcode": "12205", "addr:street": "Adolf-Martens-Stra\u00dfe", "addr:suburb": "Lichterfelde", "amenity": "restaurant", "contact:fax": "+49 30 81012575", "contact:phone": "+49 30 8328856", "contact:website": "http://www.hotel-ilmulino-berlin.de/", "cuisine": "italian", "name": "Il Mulino", "opening_hours": "Mo-Su 12:00-00:00", "phone": "+49 30 8327793", "tourism": "hotel", "website": "http://il-mulino-berlin.de/", "wheelchair": "limited"}}, {"type": "node", "id": 417128850, "lat": 52.488521, "lon": 13.3578712, "tags": {"addr:city": "Berlin", "addr:country": "DE", "addr:housenumber": "1", "addr:postcode": "10823", "addr:street": "Belziger Stra\u00dfe", "addr:suburb": "Sch\u00f6neberg", "name": "Hotel Pension Delta", "tourism": "hotel", "wheelchair": "no"}}, {"type": "node", "id": 427142556, "lat": 52.549642, "lon": 13.3845521, "tags": {"addr:city": "Berlin", "addr:country": "DE", "addr:housenumber": "2", "addr:postcode": "13357", "addr:street": "Hochstra\u00dfe", "addr:suburb": "Gesundbrunnen"}}, {"type": "node", "id": 427793839, "lat": 52.5001278, "lon": 13.3121555, "tags": {"addr:city": "Berlin", "addr:country": "DE", "addr:housenumber": "180", "addr:postcode": "10707", "addr:street": "Kurf\u00fcrstendamm", "check_date": "2024-07-26", "email": "info@comeinn-berlin.de", "internet_access": "yes", "internet_access:fee": "no", "name": "Come Inn Berlin Kurf\u00fcrstendamm Opera", "phone": "+49 30 8870482-0", "rooms": "84", "stars": "3", "tourism": "hotel", "website": "https://comeinn-berlin.de/", "wheelchair": "yes", "wheelchair:description": "Keine \u00f6ffentliche Toilette, aber rollstuhlgerechte Zimmer"}}, {"type": "node", "id": 428229961, "lat": 52.3882187, "lon": 13.5069077, "tags": {"name": "Albergo Hotel Berlin", "tourism": "hotel", "website": "https://www.albergo.de/", "wheelchair": "yes", "wikidata": "Q111118539"}}, {"type": "node", "id": 429111244, "lat": 52.3631575, "lon": 13.5564874}, {"type": "node", "id": 429111247, "lat": 52.363138, "lon": 13.5562129}, {"type": "node", "id": 429111250, "lat": 52.3632696, "lon": 13.5562057}, {"type": "node", "id": 429111252, "lat": 52.3632747, "lon": 13.5564802}, {"type": "node", "id": 429113202, "lat": 52.3653901, "lon": 13.5572409, "tags": {"addr:city": "Sch\u00f6nefeld", "addr:housenumber": "2", "addr:postcode": "12529", "addr:street": "Gr\u00fcnauer Stra\u00dfe", "addr:suburb": "Waltersdorf", "beds": "7", "name": "Pension Zur Hecke", "rooms": "5", "tourism": "hotel", "wheelchair": "limited"}}, {"type": "node", "id": 429240019, "lat": 52.373404, "lon": 13.6194711, "tags": {"addr:city": "Eichwalde", "addr:housenumber": "10", "addr:postcode": "15732", "addr:street": "Bahnhofstra\u00dfe", "brand": "Port Inn Hotel", "description": "Bett & Bike Hotel mit eigenen Fahrrad Touren Caf\u00e8 Josef", "email": "info@port-inn.de", "image": "https://www.port-inn.de/fotogalerie-videos/", "internet_access": "yes", "internet_access:fee": "yes", "name": "Port Inn Hotel", "phone": "+49 30 51 65 3380", "rooms": "19", "smoking": "outside", "tourism": "hotel", "website": "https://www.port-inn.de/", "wikidata": "Q111853063"}}, {"type": "node", "id": 429566432, "lat": 52.5110978, "lon": 13.3760721, "tags": {"addr:city": "Berlin", "addr:country": "DE", "addr:housenumber": "1", "addr:postcode": "10785", "addr:street": "Inge-Beisheim-Platz", "addr:suburb": "Tiergarten", "air_conditioning": "yes", "internet_access": "wlan", "name": "Berlin Marriott Hotel", "phone": "+49 30 220000", "tourism": "hotel", "website": "https://www.marriott.de/hotels/travel/bermc-berlin-marriott-hotel", "wheelchair": "yes", "wikidata": "Q111388175"}}, {"type": "node", "id": 429735125, "lat": 52.5220731, "lon": 13.3844509, "tags": {"addr:city": "Berlin", "addr:country": "DE", "addr:housenumber": "8", "addr:postcode": "10117", "addr:street": "Albrechtstra\u00dfe", "addr:suburb": "Mitte"}}, {"type": "node", "id": 429740890, "lat": 52.5085921, "lon": 13.3934241, "tags": {"addr:city": "Berlin", "addr:country": "DE", "addr:housenumber": "11", "addr:postcode": "10117", "addr:street": "Sch\u00fctzenstra\u00dfe", "addr:suburb": "Mitte", "brand": "Mercure", "brand:wikidata": "Q1709809", "brand:wikipedia": "en:Mercure (hotel)", "name": "Mercure Hotel + Residenz Berlin Checkpoint Charlie", "operator": "Mecrure", "phone": "+49 30 206320", "stars": "4", "tourism": "hotel", "website": "http://www.mercure.com/de/hotel-3120-mercure-hotel-residenz-berlin-checkpoint-charlie/index.shtml", "wikidata": "Q111390180"}}, {"type": "node", "id": 430788712, "lat": 52.3924353, "lon": 13.518708}, {"type": "node", "id": 430788713, "lat": 52.3922191, "lon": 13.5188449}, {"type": "node", "id": 430788714, "lat": 52.3919974, "lon": 13.517905}, {"type": "node", "id": 430788717, "lat": 52.3922142, "lon": 13.5177676}, {"type": "node", "id": 441304020, "lat": 52.5382679, "lon": 13.2040032, "tags": {"addr:city": "Berlin", "addr:country": "DE", "addr:housenumber": "1a", "addr:postcode": "13597", "addr:street": "Ritterstra\u00dfe", "addr:suburb": "Spandau", "contact:phone": "+49 30 3539270", "contact:website": "http://www.hotel-benn.de", "name": "Hotel Benn", "tourism": "hotel", "wheelchair": "no", "wheelchair:description": "Eingang zu hoch angelegt, nicht f\u00fcr Rollstuhlfahrer zu erreichen", "wikidata": "Q111852966"}}, {"type": "node", "id": 441306037, "lat": 52.5378823, "lon": 13.2023839, "tags": {"addr:city": "Berlin", "addr:country": "DE", "addr:housenumber": "20", "addr:postcode": "13597", "addr:street": "Moritzstra\u00dfe", "addr:suburb": "Spandau", "check_date": "2025-07-05", "contact:email": "berlin@hotel-herbst.de", "contact:fax": "+49 30 3337365", "contact:phone": "+49 30 3537000", "contact:website": "http://www.hotel-herbst.de", "name": "Hotel Herbst", "tourism": "hotel", "wheelchair": "no"}}, {"type": "node", "id": 442388892, "lat": 52.4588993, "lon": 13.384666, "tags": {"addr:city": "Berlin", "addr:country": "DE", "addr:postcode": "12099", "addr:street": "Tempelhofer Damm", "addr:suburb": "Tempelhof", "check_date": "2025-04-27", "name": "Pension Oase", "tourism": "hotel"}}, {"type": "node", "id": 443252302, "lat": 52.5490904, "lon": 13.4585512, "tags": {"check_date": "2024-07-25", "name": "Hotel Albertin", "tourism": "hotel"}}, {"type": "node", "id": 443294717, "lat": 52.4654868, "lon": 13.4421464, "tags": {"addr:city": "Berlin", "addr:country": "DE", "addr:housenumber": "262", "addr:postcode": "12057", "addr:street": "Karl-Marx-Stra\u00dfe", "addr:suburb": "Neuk\u00f6lln", "brand": "OYO", "brand:wikidata": "Q24906315", "name": "OYO Hotel Bohemia", "old_name": "Hotel Britzer Tor", "operator": "Stefan Richter", "phone": "+49 30 68081510", "source": "Stefan Richter", "tourism": "hotel", "website": "http://www.hotelbritzertor.de", "wheelchair": "no"}}, {"type": "node", "id": 443728426, "lat": 52.5381657, "lon": 13.2070013, "tags": {"addr:city": "Berlin", "addr:country": "DE", "addr:housenumber": "36", "addr:postcode": "13597", "addr:street": "Breite Stra\u00dfe", "addr:suburb": "Spandau", "contact:phone": "+49 30 3537700", "contact:website": "http://www.lindenufer.com", "name": "Hotel Lindenufer", "tourism": "hotel", "wheelchair": "yes"}}, {"type": "node", "id": 444600407, "lat": 52.518335, "lon": 13.4662965, "tags": {"addr:city": "Berlin", "addr:country": "DE", "addr:housenumber": "15", "addr:postcode": "10247", "addr:street": "Samariterstra\u00dfe", "addr:suburb": "Friedrichshain", "check_date": "2024-04-13", "name": "Insor Berlin", "tourism": "guest_house", "wheelchair": "no"}}, {"type": "node", "id": 445420025, "lat": 52.5332581, "lon": 13.1981318, "tags": {"addr:city": "Berlin", "addr:country": "DE", "addr:housenumber": "4", "addr:postcode": "13581", "addr:street": "Klosterstra\u00dfe", "addr:suburb": "Spandau", "brand": "Ibis", "brand:wikidata": "Q920166", "brand:wikipedia": "en:Ibis (hotel)", "contact:fax": "+49 30 33502100", "contact:phone": "+49 30 335020", "contact:website": "http://www.ibishotel.com", "level": "0", "name": "Hotel Ibis Berlin Spandau", "operator": "Ibis", "tourism": "hotel", "wheelchair": "yes"}}, {"type": "node", "id": 446658735, "lat": 52.4663538, "lon": 13.394336}, {"type": "node", "id": 446658736, "lat": 52.4668038, "lon": 13.3949563}, {"type": "node", "id": 446658737, "lat": 52.4666338, "lon": 13.3954943}, {"type": "node", "id": 446658738, "lat": 52.4664355, "lon": 13.3954449}, {"type": "node", "id": 446658740, "lat": 52.4662487, "lon": 13.3952309}, {"type": "node", "id": 446658743, "lat": 52.4662498, "lon": 13.3946427}, {"type": "node", "id": 450156879, "lat": 52.5158597, "lon": 13.3798039}, {"type": "node", "id": 451951429, "lat": 52.5366885, "lon": 13.2064803, "tags": {"addr:city": "Berlin", "addr:country": "DE", "addr:housenumber": "4", "addr:postcode": "13597", "addr:street": "Wasserstra\u00dfe", "addr:suburb": "Spandau", "name": "Hotel Altstadt Spandau", "phone": "+49 30 3539320", "tourism": "hotel", "wheelchair": "no"}}, {"type": "node", "id": 453361220, "lat": 52.510167, "lon": 13.3757559}, {"type": "node", "id": 453361229, "lat": 52.5106123, "lon": 13.3756591}, {"type": "node", "id": 453361233, "lat": 52.5106049, "lon": 13.3755485}, {"type": "node", "id": 453361240, "lat": 52.510738, "lon": 13.375525}, {"type": "node", "id": 453361244, "lat": 52.5105652, "lon": 13.3746961}, {"type": "node", "id": 453361255, "lat": 52.510141, "lon": 13.37522}, {"type": "node", "id": 453553393, "lat": 52.5241179, "lon": 13.3680948}, {"type": "node", "id": 453553398, "lat": 52.5241175, "lon": 13.3673666}, {"type": "node", "id": 453553404, "lat": 52.524198, "lon": 13.3673636}, {"type": "node", "id": 453553409, "lat": 52.5242433, "lon": 13.3675486}, {"type": "node", "id": 453553415, "lat": 52.5242436, "lon": 13.367893}, {"type": "node", "id": 453553423, "lat": 52.5243243, "lon": 13.3678897}, {"type": "node", "id": 453553424, "lat": 52.524372, "lon": 13.3680971}, {"type": "node", "id": 454089182, "lat": 52.3720582, "lon": 13.6964352}, {"type": "node", "id": 455370852, "lat": 52.3730053, "lon": 13.6979113}, {"type": "node", "id": 455370908, "lat": 52.3728836, "lon": 13.6975667}, {"type": "node", "id": 455974718, "lat": 52.5251643, "lon": 13.4186169}, {"type": "node", "id": 456409627, "lat": 52.4372687, "lon": 13.4630698, "tags": {"addr:housenumber": "80", "addr:postcode": "12351", "addr:street": "Rudower Stra\u00dfe", "alt_name": "Leonardo Boutique Hotel Berlin City South", "brand": "Leonardo Boutique", "brand:wikidata": "Q1819101", "brand:wikipedia": "de:Leonardo Hotels", "check_date": "2023-07-23", "name": "Leonardo Hotel", "phone": "+49 3 0688322422", "tourism": "hotel", "website": "https://www.leonardo-hotels.com/berlin/leonardo-boutique-hotel-berlin-city-south", "wheelchair": "yes", "wikidata": "Q111387943"}}, {"type": "node", "id": 467698814, "lat": 52.5242608, "lon": 13.5355107}, {"type": "node", "id": 467698815, "lat": 52.5242658, "lon": 13.5362194}, {"type": "node", "id": 467698816, "lat": 52.5241547, "lon": 13.5362215}, {"type": "node", "id": 467698818, "lat": 52.5241497, "lon": 13.5355128}, {"type": "node", "id": 472370123, "lat": 52.5376793, "lon": 13.6034424, "tags": {"addr:city": "Berlin", "addr:country": "DE", "addr:housenumber": "7", "addr:postcode": "12627", "addr:street": "Kurt-Weill-Gasse", "addr:suburb": "Hellersdorf", "name": "hotelhellemitte", "phone": "+4930930290", "stars": "3", "tourism": "hotel", "website": "https://www.hotelhellemitte.com/", "wheelchair": "yes", "wikidata": "Q111118538"}}, {"type": "node", "id": 472419567, "lat": 52.437309, "lon": 13.4624329, "tags": {"addr:city": "Berlin", "addr:country": "DE", "addr:housenumber": "1a", "addr:postcode": "12351", "addr:street": "Zadekstra\u00dfe", "addr:suburb": "Buckow", "building:levels": "4", "check_date": "2025-02-23", "internet_access": "wlan", "internet_access:fee": "customers", "name": "Hotel Atlantic", "phone": "+49 30 60971014", "tourism": "hotel", "website": "https://www.hotel-atlanticweb.de/", "wheelchair": "yes"}}, {"type": "node", "id": 472444757, "lat": 52.4200596, "lon": 13.4562187, "tags": {"check_date": "2024-04-01", "email": "info@pension-sasa.de", "name": "Pension SASA", "phone": "+49 30 70509905", "tourism": "guest_house", "website": "https://pension-sasa.de"}}, {"type": "node", "id": 473021729, "lat": 52.3678915, "lon": 13.56463, "tags": {"addr:city": "Sch\u00f6nefeld", "addr:housenumber": "18", "addr:postcode": "12529", "addr:street": "Lilienthalstra\u00dfe", "addr:suburb": "Waltersdorf", "brand": "Ibis Budget", "brand:wikidata": "Q1458135", "brand:wikipedia": "en:Ibis Budget", "name": "ibis budget Berlin Airport Schoenefeld", "tourism": "hotel", "website": "https://www.accorhotels.com/de/hotel-2647-ibis-budget-berlin-airport-schoenefeld-ex-etap-hotel/index.shtml"}}, {"type": "node", "id": 473119318, "lat": 52.5237244, "lon": 13.4164309}, {"type": "node", "id": 473119542, "lat": 52.5238218, "lon": 13.4162155}, {"type": "node", "id": 473119545, "lat": 52.5236974, "lon": 13.416398}, {"type": "node", "id": 473119549, "lat": 52.5238076, "lon": 13.4162469}, {"type": "node", "id": 481694341, "lat": 52.5133386, "lon": 13.4695756, "tags": {"addr:city": "Berlin", "addr:country": "DE", "addr:housenumber": "36", "addr:postcode": "10247", "addr:street": "Finowstra\u00dfe", "addr:suburb": "Friedrichshain", "contact:email": "info@uinnberlinhostel.com", "contact:phone": "+49 30 33024410", "contact:website": "http://uinnberlinhostel.com", "internet_access": "wlan", "name": "U Inn Berlin Hostel", "tourism": "hostel", "wheelchair": "limited"}}, {"type": "node", "id": 482955811, "lat": 52.4588801, "lon": 13.5130105}, {"type": "node", "id": 482955814, "lat": 52.4588121, "lon": 13.5134011}, {"type": "node", "id": 482955817, "lat": 52.4585711, "lon": 13.513176}, {"type": "node", "id": 482955822, "lat": 52.4586003, "lon": 13.5130949}, {"type": "node", "id": 482955829, "lat": 52.4588126, "lon": 13.5129458}, {"type": "node", "id": 491511336, "lat": 52.4212184, "lon": 13.1787169, "tags": {"addr:city": "Berlin", "addr:country": "DE", "addr:housenumber": "251-252", "addr:postcode": "14109", "addr:street": "Kronprinzessinnenweg", "addr:suburb": "Wannsee", "alt_name": "Wannsee-Hof", "check_date": "2025-07-15", "contact:email": "rooms@bonverde.de", "contact:fax": "+49 30 80908811", "contact:phone": "+49 30 80908900", "contact:website": "http://bonverde.de/", "name": "Bonverde am Wannsee", "operator": "Bonverde GmbH", "tourism": "hotel", "wheelchair": "no"}}, {"type": "node", "id": 491555229, "lat": 52.5231368, "lon": 13.3460873, "tags": {"addr:city": "Berlin", "addr:country": "DE", "addr:housenumber": "99", "addr:postcode": "10559", "addr:street": "Alt-Moabit", "addr:suburb": "Moabit", "check_date": "2024-06-10", "contact:email": "info@abion-berlin.de", "contact:phone": "+49 30 399200", "contact:website": "http://www.abion-hotel.de/", "defibrillator:location": "an der Rezeption", "emergency": "defibrillator", "indoor": "yes", "internet_access": "wlan", "internet_access:access": "customers", "name": "Ameron Hotel Abion Spreebogen Berlin", "opening_hours:bar": "12:00-01:00", "opening_hours:breakfast": "Mo- Fr 06:30-10:00; Sa, Su, Ph 06:30-11:00", "sauna": "yes", "toilets:wheelchair": "yes", "tourism": "hotel", "wheelchair": "yes", "wheelchair:description": "WC ist abgeschlossen!", "wikidata": "Q111388250", "wikimedia_commons": "File:Ameron Hotel Abion Spreebogen Berlin.jpg"}}, {"type": "node", "id": 496396330, "lat": 52.5235317, "lon": 13.3064214, "tags": {"addr:city": "Berlin", "addr:country": "DE", "addr:housenumber": "24-26", "addr:postcode": "10589", "addr:street": "S\u00f6mmeringstra\u00dfe", "addr:suburb": "Charlottenburg", "contact:email": "berlin-west@plazahotels.de", "contact:fax": "+49 30 34681-063", "contact:phone": "+49 30 34681-0", "contact:website": "https://plazahotels.de/hotel-charlottenburg/", "name": "PLAZA INN Berlin-Charlottenburg", "tourism": "hotel", "wheelchair": "yes"}}, {"type": "node", "id": 506788246, "lat": 52.5164827, "lon": 13.5200416}, {"type": "node", "id": 506788272, "lat": 52.5159919, "lon": 13.5197712}, {"type": "node", "id": 506788284, "lat": 52.5164822, "lon": 13.5197691}, {"type": "node", "id": 508640813, "lat": 52.5887824, "lon": 13.2816946, "tags": {"name": "Alt Tegel", "tourism": "hotel", "wheelchair": "no"}}, {"type": "node", "id": 524759468, "lat": 52.5103357, "lon": 13.429399}, {"type": "node", "id": 524759469, "lat": 52.5101447, "lon": 13.4298765}, {"type": "node", "id": 524760022, "lat": 52.5097279, "lon": 13.4292668}, {"type": "node", "id": 524760027, "lat": 52.5098331, "lon": 13.4293591}, {"type": "node", "id": 524760598, "lat": 52.5100988, "lon": 13.4295971}, {"type": "node", "id": 524760607, "lat": 52.5102303, "lon": 13.4292689}, {"type": "node", "id": 527504889, "lat": 52.4726737, "lon": 13.3148714, "tags": {"addr:city": "Berlin", "addr:country": "DE", "addr:housenumber": "7", "addr:postcode": "14197", "addr:street": "R\u00fcdesheimer Platz", "addr:suburb": "Wilmersdorf", "email": "info@berliner-pension.com", "name": "Pension am R\u00fcdesheimer Platz", "phone": "+49 30 82407758", "tourism": "guest_house", "website": "https://berliner-pension.com/", "wheelchair": "no"}}, {"type": "node", "id": 530776568, "lat": 52.4861629, "lon": 13.5344809}, {"type": "node", "id": 530776571, "lat": 52.485942, "lon": 13.5346587}, {"type": "node", "id": 530776576, "lat": 52.4863758, "lon": 13.5351593}, {"type": "node", "id": 531372258, "lat": 52.4668632, "lon": 13.5468275}, {"type": "node", "id": 531372268, "lat": 52.4664551, "lon": 13.5462206}, {"type": "node", "id": 531372277, "lat": 52.4659272, "lon": 13.5471969}, {"type": "node", "id": 531372280, "lat": 52.4658364, "lon": 13.5476002}, {"type": "node", "id": 531372288, "lat": 52.4665574, "lon": 13.5476207}, {"type": "node", "id": 531372315, "lat": 52.4665976, "lon": 13.5475924}, {"type": "node", "id": 531372323, "lat": 52.4668239, "lon": 13.5472791}, {"type": "node", "id": 533956658, "lat": 52.5280406, "lon": 13.4578329}, {"type": "node", "id": 534079962, "lat": 52.5218585, "lon": 13.4852782}, {"type": "node", "id": 534333071, "lat": 52.5508238, "lon": 13.5467567}, {"type": "node", "id": 538696788, "lat": 52.5302537, "lon": 13.3814178}, {"type": "node", "id": 538873379, "lat": 52.5238331, "lon": 13.3837567}, {"type": "node", "id": 538873384, "lat": 52.523781, "lon": 13.3835468}, {"type": "node", "id": 539246201, "lat": 52.5293136, "lon": 13.363569}, {"type": "node", "id": 539246223, "lat": 52.529471, "lon": 13.3640675}, {"type": "node", "id": 539246224, "lat": 52.5297012, "lon": 13.364797}, {"type": "node", "id": 539780882, "lat": 52.5172527, "lon": 13.4150721}, {"type": "node", "id": 539780891, "lat": 52.5173651, "lon": 13.4150089}, {"type": "node", "id": 540758246, "lat": 52.5158333, "lon": 13.4116786}, {"type": "node", "id": 540758268, "lat": 52.5157134, "lon": 13.4116228}, {"type": "node", "id": 540760477, "lat": 52.5154996, "lon": 13.412162}, {"type": "node", "id": 540901489, "lat": 52.528853, "lon": 13.402126, "tags": {"brand": "easyHotel", "brand:wikidata": "Q17011598", "brand:wikipedia": "en:EasyHotel", "check_date": "2025-08-07", "name": "easyHotel Berlin", "toilets:wheelchair": "yes", "tourism": "hotel", "wheelchair": "yes"}}, {"type": "node", "id": 540914067, "lat": 52.5257861, "lon": 13.4040637, "tags": {"addr:city": "Berlin", "addr:country": "DE", "addr:housenumber": "1", "addr:postcode": "10178", "addr:street": "Weinmeisterstra\u00dfe", "addr:suburb": "Mitte", "check_date": "2024-06-10", "contact:phone": "+493020003410", "contact:website": "http://www.casacamper.com/berlin/", "name": "Hotel Casa Camper Berlin", "tourism": "hotel", "wheelchair": "yes", "wikidata": "Q111388277"}}, {"type": "node", "id": 544502012, "lat": 52.4876523, "lon": 13.4208734, "tags": {"addr:city": "Berlin", "addr:country": "DE", "addr:housenumber": "14", "addr:postcode": "10967", "addr:street": "Hasenheide", "addr:suburb": "Kreuzberg", "check_date": "2025-08-04", "contact:email": "info@hotellvb.de", "contact:fax": "+49 30 695700150", "contact:phone": "+49 30 6957000", "contact:website": "http://www.hotel-ludwig-van-beethoven.de", "internet_access": "yes", "internet_access:fee": "no", "name": "Hotel Ludwig van Beethoven", "operator": "Per Reul", "payment:american_express": "yes", "payment:cash": "yes", "payment:credit_cards": "yes", "payment:girocard": "yes", "payment:maestro": "yes", "payment:mastercard": "yes", "payment:visa": "yes", "rooms": "67", "smoking": "outside", "stars": "3", "start_date": "1999", "tourism": "hotel", "wheelchair": "yes", "wikidata": "Q111390181", "wikimedia_commons": "Category:Hotel Ludwig van Beethoven (Berlin-Kreuzberg)"}}, {"type": "node", "id": 548579681, "lat": 52.505938, "lon": 13.3440988, "tags": {"addr:city": "Berlin", "addr:housenumber": "25", "addr:postcode": "10787", "addr:street": "Budapester Stra\u00dfe", "check_date": "2025-09-19", "name": "Hotel Pullman Berlin Schweizerhof", "phone": "+49 30 26960", "tourism": "hotel", "website": "http://www.pullmanhotels.com/de/hotel-5347-pullman-berlin-schweizerhof/index", "wheelchair": "yes", "wikidata": "Q111388185"}}, {"type": "node", "id": 551325554, "lat": 52.5459093, "lon": 13.494201, "tags": {"addr:city": "Berlin", "addr:country": "DE", "addr:housenumber": "1", "addr:postcode": "13053", "addr:street": "Waldowstra\u00dfe", "addr:suburb": "Alt-Hohensch\u00f6nhausen", "name": "Hotel \"Alte Feuerwache\"", "phone": "+49309819560", "tourism": "hotel", "website": "https://www.hotelaltefeuerwache.de/", "wheelchair": "yes", "wikidata": "Q111851648"}}, {"type": "node", "id": 558361440, "lat": 52.5342979, "lon": 13.3446046}, {"type": "node", "id": 558361442, "lat": 52.5343389, "lon": 13.3449901}, {"type": "node", "id": 558361444, "lat": 52.534443, "lon": 13.344959}, {"type": "node", "id": 558361450, "lat": 52.5343983, "lon": 13.3445546}, {"type": "node", "id": 559684447, "lat": 52.5030726, "lon": 13.5849641}, {"type": "node", "id": 559684463, "lat": 52.5032644, "lon": 13.5842853}, {"type": "node", "id": 559686686, "lat": 52.5032549, "lon": 13.5822822}, {"type": "node", "id": 559686690, "lat": 52.5031438, "lon": 13.5822314}, {"type": "node", "id": 559686696, "lat": 52.5032439, "lon": 13.5816639}, {"type": "node", "id": 559686707, "lat": 52.5033536, "lon": 13.581717}, {"type": "node", "id": 566386871, "lat": 52.478407, "lon": 13.4270126}, {"type": "node", "id": 566718942, "lat": 52.5277755, "lon": 13.4567672}, {"type": "node", "id": 566718946, "lat": 52.5277812, "lon": 13.4567792}, {"type": "node", "id": 566718971, "lat": 52.5283529, "lon": 13.4564613}, {"type": "node", "id": 566718977, "lat": 52.5283451, "lon": 13.4564698}, {"type": "node", "id": 566718980, "lat": 52.52812, "lon": 13.4564224}, {"type": "node", "id": 566718983, "lat": 52.5282761, "lon": 13.4562625}, {"type": "node", "id": 566718986, "lat": 52.5281224, "lon": 13.4564286}, {"type": "node", "id": 566718988, "lat": 52.5276199, "lon": 13.4572128}, {"type": "node", "id": 566718992, "lat": 52.5275457, "lon": 13.4570226}, {"type": "node", "id": 566719002, "lat": 52.5280431, "lon": 13.4578468}, {"type": "node", "id": 566719003, "lat": 52.5278048, "lon": 13.4579707}, {"type": "node", "id": 566719021, "lat": 52.5285187, "lon": 13.4572924}, {"type": "node", "id": 566719023, "lat": 52.5285397, "lon": 13.4572808}, {"type": "node", "id": 566719024, "lat": 52.5285956, "lon": 13.4575558}, {"type": "node", "id": 566719027, "lat": 52.5284297, "lon": 13.4576466}, {"type": "node", "id": 566719029, "lat": 52.5284231, "lon": 13.4576175}, {"type": "node", "id": 567465937, "lat": 52.509055, "lon": 13.615056, "tags": {"addr:city": "Berlin", "addr:country": "DE", "addr:housenumber": "38", "addr:postcode": "12623", "addr:street": "An der Schule", "addr:suburb": "Mahlsdorf", "name": "Hotel-Pension Draheim", "tourism": "hotel"}}, {"type": "node", "id": 571427439, "lat": 52.5139327, "lon": 13.4676121, "tags": {"addr:city": "Berlin", "addr:country": "DE", "addr:housenumber": "41", "addr:postcode": "10247", "addr:street": "Jungstra\u00dfe", "addr:suburb": "Friedrichshain", "check_date": "2024-07-03", "contact:website": "https://www.kiez-pension-berlin.de", "internet_access": "wlan", "name": "Kiez Pension", "tourism": "hotel", "wheelchair": "no"}}, {"type": "node", "id": 571914764, "lat": 52.5034092, "lon": 13.4453693}, {"type": "node", "id": 577377574, "lat": 52.5442191, "lon": 13.4159929, "tags": {"addr:city": "Berlin", "addr:country": "DE", "addr:housenumber": "21", "addr:inclusion": "actual", "addr:postcode": "10437", "addr:street": "Pappelallee", "addr:suburb": "Prenzlauer Berg", "entrance": "yes"}}, {"type": "node", "id": 583588708, "lat": 52.5442377, "lon": 13.4160132, "tags": {"barrier": "gate"}}, {"type": "node", "id": 586134196, "lat": 52.644915, "lon": 13.288335, "tags": {"addr:city": "Berlin", "addr:housenumber": "9", "addr:postcode": "13465", "addr:street": "Am Poloplatz", "amenity": "restaurant", "email": "landhausampoloplatz@email.de", "name": "Ristorante \"Landhaus am Poloplatz\"", "opening_hours": "Tu-Fr 16:00-00:00; Sa-Su 12:00-00:00", "phone": "+49 30 4019035", "tourism": "hotel", "website": "https://www.landhausampoloplatz.de/"}}, {"type": "node", "id": 587629296, "lat": 52.5087179, "lon": 13.3881997}, {"type": "node", "id": 587629298, "lat": 52.5088416, "lon": 13.3878437}, {"type": "node", "id": 587629303, "lat": 52.5089061, "lon": 13.3880111}, {"type": "node", "id": 587629337, "lat": 52.5088349, "lon": 13.3883799}, {"type": "node", "id": 587629338, "lat": 52.5089209, "lon": 13.3885137}, {"type": "node", "id": 587629339, "lat": 52.5089376, "lon": 13.3882768}, {"type": "node", "id": 587629341, "lat": 52.5090464, "lon": 13.3883797}, {"type": "node", "id": 587663804, "lat": 52.5001062, "lon": 13.5201093}, {"type": "node", "id": 587663805, "lat": 52.5001293, "lon": 13.5202951}, {"type": "node", "id": 587663806, "lat": 52.5009569, "lon": 13.5197854}, {"type": "node", "id": 587663807, "lat": 52.5009822, "lon": 13.5199911}, {"type": "node", "id": 599979790, "lat": 52.4733077, "lon": 13.459189}, {"type": "node", "id": 599979791, "lat": 52.4739449, "lon": 13.4594751}, {"type": "node", "id": 599979792, "lat": 52.4734162, "lon": 13.4593693}, {"type": "node", "id": 599979798, "lat": 52.4744208, "lon": 13.4596919}, {"type": "node", "id": 599979799, "lat": 52.4734073, "lon": 13.4587657}, {"type": "node", "id": 599979800, "lat": 52.4733447, "lon": 13.45868}, {"type": "node", "id": 599989027, "lat": 52.4746051, "lon": 13.4601267}, {"type": "node", "id": 599989208, "lat": 52.4745845, "lon": 13.4604087}, {"type": "node", "id": 599989211, "lat": 52.474566, "lon": 13.4606527}, {"type": "node", "id": 599989346, "lat": 52.4746261, "lon": 13.4598451}, {"type": "node", "id": 599989350, "lat": 52.4745809, "lon": 13.4598614}, {"type": "node", "id": 599989354, "lat": 52.47456, "lon": 13.4601423}, {"type": "node", "id": 599989358, "lat": 52.4745392, "lon": 13.4604241}, {"type": "node", "id": 599989815, "lat": 52.4744378, "lon": 13.4594503}, {"type": "node", "id": 599989819, "lat": 52.4744514, "lon": 13.4592709}, {"type": "node", "id": 599989832, "lat": 52.4746657, "lon": 13.4593124}, {"type": "node", "id": 599989834, "lat": 52.474652, "lon": 13.4594926}, {"type": "node", "id": 599990143, "lat": 52.4752674, "lon": 13.4589922}, {"type": "node", "id": 599990145, "lat": 52.4753074, "lon": 13.459147}, {"type": "node", "id": 599990149, "lat": 52.4755093, "lon": 13.4599775}, {"type": "node", "id": 599990151, "lat": 52.4755243, "lon": 13.459864}, {"type": "node", "id": 599990347, "lat": 52.4746653, "lon": 13.4608228}, {"type": "node", "id": 599990351, "lat": 52.4752304, "lon": 13.4599224}, {"type": "node", "id": 599990354, "lat": 52.4752377, "lon": 13.4598103}, {"type": "node", "id": 599990403, "lat": 52.4746742, "lon": 13.4607138}, {"type": "node", "id": 600432899, "lat": 52.5007687, "lon": 13.387312}, {"type": "node", "id": 600432900, "lat": 52.5008147, "lon": 13.3875433}, {"type": "node", "id": 600432901, "lat": 52.5008643, "lon": 13.3874594}, {"type": "node", "id": 600432926, "lat": 52.5009028, "lon": 13.3876458}, {"type": "node", "id": 600432927, "lat": 52.5008425, "lon": 13.3876804}, {"type": "node", "id": 600432950, "lat": 52.5009479, "lon": 13.3870872}, {"type": "node", "id": 600432951, "lat": 52.5009961, "lon": 13.387189}, {"type": "node", "id": 600432952, "lat": 52.5009758, "lon": 13.3872188}, {"type": "node", "id": 600432953, "lat": 52.5010283, "lon": 13.3874823}, {"type": "node", "id": 600432954, "lat": 52.500965, "lon": 13.3875189}, {"type": "node", "id": 600432955, "lat": 52.500943, "lon": 13.3874172}, {"type": "node", "id": 600432956, "lat": 52.5009461, "lon": 13.3873955}, {"type": "node", "id": 600432957, "lat": 52.500904, "lon": 13.3873707}, {"type": "node", "id": 603315638, "lat": 52.5267694, "lon": 13.4871929}, {"type": "node", "id": 603315641, "lat": 52.5268275, "lon": 13.4880193}, {"type": "node", "id": 604271481, "lat": 52.5433902, "lon": 13.5086407, "tags": {"check_date": "2025-08-08", "name": "Apart-Hotel Ferdinand", "tourism": "hotel"}}, {"type": "node", "id": 608619813, "lat": 52.4709878, "lon": 13.6960815}, {"type": "node", "id": 608619831, "lat": 52.4715464, "lon": 13.6968801}, {"type": "node", "id": 608619874, "lat": 52.4715165, "lon": 13.6974628}, {"type": "node", "id": 608619875, "lat": 52.4714425, "lon": 13.6972076}, {"type": "node", "id": 609820252, "lat": 52.4712248, "lon": 13.6963332}, {"type": "node", "id": 609820257, "lat": 52.4713997, "lon": 13.6966412}, {"type": "node", "id": 612585891, "lat": 52.5034196, "lon": 13.4456349}, {"type": "node", "id": 612585892, "lat": 52.5034572, "lon": 13.4455839}, {"type": "node", "id": 612585893, "lat": 52.5033217, "lon": 13.445598}, {"type": "node", "id": 612585894, "lat": 52.50349, "lon": 13.4454358}, {"type": "node", "id": 612585895, "lat": 52.5034349, "lon": 13.4456493}, {"type": "node", "id": 612585898, "lat": 52.5034033, "lon": 13.4453651}, {"type": "node", "id": 612585899, "lat": 52.503408, "lon": 13.4456685}, {"type": "node", "id": 615202910, "lat": 52.549682, "lon": 13.384285}, {"type": "node", "id": 616671753, "lat": 52.5412668, "lon": 13.3717959}, {"type": "node", "id": 616671756, "lat": 52.5416421, "lon": 13.371973}, {"type": "node", "id": 616671760, "lat": 52.5416703, "lon": 13.3722243}, {"type": "node", "id": 617112620, "lat": 52.5330618, "lon": 13.3280036, "tags": {"addr:city": "Berlin", "addr:country": "DE", "addr:housenumber": "44T", "addr:postcode": "10553", "addr:street": "Beusselstra\u00dfe", "addr:suburb": "Moabit", "email": "sickingerhofberlin@yahoo.de", "fax": "+49 30 344 42 61", "internet_access": "wlan", "name": "Sickinger Hof", "phone": "+49 30 345 37 87", "stars": "3", "tourism": "hotel", "website": "https://www.berlin-hotel-sickingerhof.de/", "wheelchair": "no"}}, {"type": "node", "id": 618665163, "lat": 52.5045965, "lon": 13.3224775}, {"type": "node", "id": 618665165, "lat": 52.5045727, "lon": 13.322893}, {"type": "node", "id": 618746050, "lat": 52.5311543, "lon": 13.3861563, "tags": {"addr:city": "Berlin", "addr:country": "DE", "addr:housenumber": "122", "addr:postcode": "10115", "addr:street": "Invalidenstra\u00dfe", "addr:suburb": "Mitte", "check_date": "2025-09-10", "name": "THE GATE GARDEN HOTEL", "tourism": "hotel", "website": "https://www.gardenhotelberlin.de", "wheelchair": "no", "wikidata": "Q111852050"}}, {"type": "node", "id": 618964460, "lat": 52.4281738, "lon": 13.7492364}, {"type": "node", "id": 618964462, "lat": 52.4283105, "lon": 13.7491974}, {"type": "node", "id": 618964496, "lat": 52.4283305, "lon": 13.7493863}, {"type": "node", "id": 618964500, "lat": 52.4281938, "lon": 13.7494252}, {"type": "node", "id": 621444224, "lat": 52.5535624, "lon": 13.4059557, "tags": {"addr:city": "Berlin", "addr:country": "DE", "addr:housenumber": "17", "addr:postcode": "10439", "addr:street": "Driesener Stra\u00dfe", "addr:suburb": "Prenzlauer Berg", "contact:phone": "+493043734353", "name": "Corner Hostel", "tourism": "hostel", "website": "https://www.corner-hostel.de/", "wheelchair": "no", "wikidata": "Q111118527"}}, {"type": "node", "id": 622129784, "lat": 52.4562628, "lon": 13.3212357, "tags": {"addr:city": "Berlin", "addr:country": "DE", "addr:housenumber": "2", "addr:postcode": "12165", "addr:street": "Albrechtstra\u00dfe", "addr:suburb": "Steglitz", "email": "info@si-hotel.com", "fax": "+49 30 79005500", "internet_access": "wlan", "internet_access:fee": "no", "name": "Hotel Steglitz International", "operator": "K\u00f6ller und Stolle Hotel GmbH & Co. KG, Berlin", "phone": "+49 30 790050", "rooms": "221", "stars": "4", "tourism": "hotel", "website": "https://www.si-hotel.com/", "wheelchair": "yes", "wikidata": "Q111388459"}}, {"type": "node", "id": 626305361, "lat": 52.5104691, "lon": 13.3867069, "tags": {"addr:city": "Berlin", "addr:country": "DE", "addr:housenumber": "68", "addr:postcode": "10117", "addr:street": "Mauerstra\u00dfe", "addr:suburb": "Mitte", "name": "Caf\u00e9-Hotel M68", "phone": "+493050012 203", "toilets:wheelchair": "no", "tourism": "hotel", "website": "https://www.m68-hotel.de/", "wheelchair": "no"}}, {"type": "node", "id": 632237135, "lat": 52.5113024, "lon": 13.4753429, "tags": {"addr:city": "Berlin", "addr:country": "DE", "addr:housenumber": "40, 41", "addr:postcode": "10247", "addr:street": "G\u00fcrtelstra\u00dfe", "addr:suburb": "Friedrichshain", "contact:phone": "+49 30 293830", "contact:website": "http://redstone-hotels.com/georghof-hotel-berlin/", "name": "Georghof Hotel Berlin", "tourism": "hotel", "wheelchair": "no"}}, {"type": "node", "id": 632356743, "lat": 52.4820065, "lon": 13.4307977, "tags": {"addr:housenumber": "4", "addr:street": "Erlanger Stra\u00dfe", "check_date": "2025-10-27", "contact:email": "info@erlanger-hof.de", "contact:phone": "+49 30 62989975", "contact:website": "https://www.erlanger-hof.de", "internet_access": "wlan", "name": "Erlanger Hof", "operator:type": "private", "rooms": "33", "stars": "3", "tourism": "hotel", "wheelchair": "yes"}}, {"type": "node", "id": 632592082, "lat": 52.5269014, "lon": 13.4872003}, {"type": "node", "id": 632964201, "lat": 52.5510043, "lon": 13.405401, "tags": {"check_date": "2024-06-17", "name": "Frosch-Hostel", "phone": "+49 30 67300887", "tourism": "hostel", "website": "http://www.froschhostel.de", "wheelchair": "no"}}, {"type": "node", "id": 638788761, "lat": 52.5084885, "lon": 13.3244817},